[{"id":"826687","latitude":"52.33333300","longitude":"-3.40000000","name":"Abbey-Cwmhir"},{"id":"826708","latitude":"52.66666700","longitude":"-3.71666700","name":"Aberangell"},{"id":"826715","latitude":"51.95000000","longitude":"-3.48333300","name":"Aber-Br\u00e2n"},{"id":"826736","latitude":"52.11666700","longitude":"-3.35000000","name":"Aberedw"},{"id":"826751","latitude":"52.15000000","longitude":"-3.68333300","name":"Abergwesyn"},{"id":"826756","latitude":"52.51666700","longitude":"-3.38333300","name":"Aberhafesp"},{"id":"826764","latitude":"52.53333300","longitude":"-3.23333300","name":"Abermule"},{"id":"826992","latitude":"52.10000000","longitude":"-3.36666700","name":"Alltmawr"},{"id":"827328","latitude":"51.30000000","longitude":"-1.40000000","name":"Ashmansworth"},{"id":"828096","latitude":"52.60000000","longitude":"-3.20000000","name":"Berriew"},{"id":"828129","latitude":"52.56666700","longitude":"-3.30000000","name":"Bettws Cedewain"},{"id":"828130","latitude":"52.56666700","longitude":"-3.30000000","name":"Bettws Cedewen"},{"id":"828131","latitude":"52.20000000","longitude":"-3.30000000","name":"Bettws Disserth"},{"id":"828142","latitude":"52.15000000","longitude":"-3.56666700","name":"Beulah"},{"id":"828392","latitude":"52.30000000","longitude":"-3.16666700","name":"Bleddfa"},{"id":"828781","latitude":"51.95000000","longitude":"-3.38333300","name":"Brecknock"},{"id":"828782","latitude":"51.95000000","longitude":"-3.38333300","name":"Brecon"},{"id":"828960","latitude":"52.60000000","longitude":"-3.00000000","name":"Bromlow"},{"id":"828972","latitude":"52.00000000","longitude":"-3.25000000","name":"Bronllys"},{"id":"829033","latitude":"52.00000000","longitude":"-3.25000000","name":"Broynllys"},{"id":"829110","latitude":"52.16666700","longitude":"-3.41666700","name":"Builth"},{"id":"829111","latitude":"52.16666700","longitude":"-3.43333300","name":"Builth Road"},{"id":"829112","latitude":"52.16666700","longitude":"-3.41666700","name":"Builth Wells"},{"id":"829147","latitude":"51.31666700","longitude":"-1.31666700","name":"Burghclere"},{"id":"829267","latitude":"52.66666700","longitude":"-3.11666700","name":"Buttington"},{"id":"829286","latitude":"52.26666700","longitude":"-2.91666700","name":"Byton"},{"id":"829308","latitude":"52.51666700","longitude":"-3.43333300","name":"Caersws"},{"id":"829428","latitude":"52.05000000","longitude":"-3.45000000","name":"Capel Dyffryn Honddu"},{"id":"829439","latitude":"52.10000000","longitude":"-3.76666700","name":"Capel Ystradffin"},{"id":"829525","latitude":"52.55000000","longitude":"-3.53333300","name":"Carno"},{"id":"829566","latitude":"52.28333300","longitude":"-3.11666700","name":"Cascob"},{"id":"829581","latitude":"52.63333300","longitude":"-3.23333300","name":"Castle Caereinion"},{"id":"829679","latitude":"52.63333300","longitude":"-3.71666700","name":"Cemmaes"},{"id":"829680","latitude":"52.61666700","longitude":"-3.75000000","name":"Cemmaes Road"},{"id":"829681","latitude":"52.61666700","longitude":"-3.75000000","name":"Cemmes Road"},{"id":"829915","latitude":"52.58333300","longitude":"-3.08333300","name":"Chirburg"},{"id":"829916","latitude":"52.58333300","longitude":"-3.08333300","name":"Chirbury"},{"id":"830441","latitude":"52.65000000","longitude":"-3.83333300","name":"Corris"},{"id":"830681","latitude":"51.85000000","longitude":"-3.13333300","name":"Crickhowell"},{"id":"831034","latitude":"52.60000000","longitude":"-3.73333300","name":"Darowen"},{"id":"831151","latitude":"51.93333300","longitude":"-3.56666700","name":"Devynock"},{"id":"831202","latitude":"52.28333300","longitude":"-3.06666700","name":"Discoed"},{"id":"831203","latitude":"52.28333300","longitude":"-3.06666700","name":"Discoyd"},{"id":"831237","latitude":"52.70000000","longitude":"-3.38333300","name":"Dolanog"},{"id":"831238","latitude":"52.28333300","longitude":"-3.26666700","name":"Dolau"},{"id":"831543","latitude":"52.53333300","longitude":"-3.68333300","name":"Dylife"},{"id":"831573","latitude":"53.20000000","longitude":"-1.86666700","name":"Earl Sterndale"},{"id":"831760","latitude":"51.35000000","longitude":"-1.41666700","name":"East Woodhay"},{"id":"831776","latitude":"51.33333300","longitude":"-1.26666700","name":"Ecchinswell"},{"id":"831886","latitude":"53.11666700","longitude":"-1.91666700","name":"Elkstone"},{"id":"832025","latitude":"52.63333300","longitude":"-3.83333300","name":"Esgair-geiliog"},{"id":"832057","latitude":"52.25000000","longitude":"-3.08333300","name":"Evenjobb"},{"id":"832103","latitude":"51.31666700","longitude":"-1.43333300","name":"Faccombe"},{"id":"832206","latitude":"51.98333300","longitude":"-3.31666700","name":"Felin Fach"},{"id":"832209","latitude":"51.98333300","longitude":"-3.31666700","name":"Felin Sach"},{"id":"832350","latitude":"53.20000000","longitude":"-1.96666700","name":"Flash"},{"id":"832402","latitude":"52.60000000","longitude":"-3.15000000","name":"Forden"},{"id":"832660","latitude":"52.70000000","longitude":"-3.50000000","name":"Garthbeibio"},{"id":"832663","latitude":"52.13333300","longitude":"-3.51666700","name":"Garth"},{"id":"832762","latitude":"51.83333300","longitude":"-3.08333300","name":"Gilwern"},{"id":"833287","latitude":"52.68333300","longitude":"-3.15000000","name":"Guilsfield"},{"id":"833905","latitude":"51.33333300","longitude":"-1.33333300","name":"Highclere"},{"id":"833918","latitude":"52.55000000","longitude":"-3.31666700","name":"Highgate"},{"id":"834013","latitude":"52.78333300","longitude":"-3.41666700","name":"Hirnant"},{"id":"834073","latitude":"53.20000000","longitude":"-1.90000000","name":"Hollinsclough"},{"id":"834300","latitude":"52.18333300","longitude":"-3.30000000","name":"Hundred House"},{"id":"834727","latitude":"52.50000000","longitude":"-3.26666700","name":"Kerry"},{"id":"834939","latitude":"51.31666700","longitude":"-1.25000000","name":"Kingsclere"},{"id":"835032","latitude":"52.26666700","longitude":"-3.11666700","name":"Kinnerton"},{"id":"835038","latitude":"52.28333300","longitude":"-2.93333300","name":"Kinsham"},{"id":"835214","latitude":"52.35000000","longitude":"-3.05000000","name":"Knighton"},{"id":"835254","latitude":"52.35000000","longitude":"-3.10000000","name":"Knucklas"},{"id":"835533","latitude":"52.65000000","longitude":"-3.13333300","name":"Leighton"},{"id":"835658","latitude":"52.30000000","longitude":"-2.93333300","name":"Lingen"},{"id":"835862","latitude":"52.18333300","longitude":"-3.50000000","name":"Llanafan-fawr"},{"id":"835865","latitude":"52.35000000","longitude":"-3.33333300","name":"Llananno"},{"id":"835868","latitude":"52.85000000","longitude":"-3.28333300","name":"Llanarmon"},{"id":"835869","latitude":"52.85000000","longitude":"-3.28333300","name":"Llanarmon-Mynydd-mawr"},{"id":"835875","latitude":"52.26666700","longitude":"-3.35000000","name":"Llanbadarn-fawr"},{"id":"835876","latitude":"52.38333300","longitude":"-3.31666700","name":"Llanbadarn-fynydd"},{"id":"835885","latitude":"52.35000000","longitude":"-3.30000000","name":"Llanbister"},{"id":"835888","latitude":"52.58333300","longitude":"-3.65000000","name":"Llanbrynmair"},{"id":"835911","latitude":"52.30000000","longitude":"-3.30000000","name":"Llanddewi Ystradenny"},{"id":"835920","latitude":"51.98333300","longitude":"-3.41666700","name":"Llandefaelogf\u00e2ch"},{"id":"835923","latitude":"52.00000000","longitude":"-3.30000000","name":"Llandefalle"},{"id":"835928","latitude":"52.25000000","longitude":"-3.26666700","name":"Llandegley"},{"id":"835931","latitude":"52.00000000","longitude":"-3.61666700","name":"Llandeilo Fan"},{"id":"835933","latitude":"52.00000000","longitude":"-3.61666700","name":"Llandeilor-Fan"},{"id":"835938","latitude":"52.48333300","longitude":"-3.43333300","name":"Llandinam"},{"id":"835949","latitude":"52.23333300","longitude":"-3.38333300","name":"Llandrindod Wells"},{"id":"835954","latitude":"52.05000000","longitude":"-3.63333300","name":"Llandulas"},{"id":"835964","latitude":"52.55000000","longitude":"-3.18333300","name":"Llandyssil"},{"id":"835983","latitude":"52.66666700","longitude":"-3.43333300","name":"Llanerfyl"},{"id":"835994","latitude":"52.66666700","longitude":"-3.31666700","name":"Llanfair Caereinion"},{"id":"836008","latitude":"52.15000000","longitude":"-3.36666700","name":"Llanfaredd"},{"id":"836009","latitude":"52.76666700","longitude":"-3.20000000","name":"Llanfechain"},{"id":"836010","latitude":"52.76666700","longitude":"-3.20000000","name":"Llanfechan"},{"id":"836014","latitude":"52.15000000","longitude":"-3.68333300","name":"Llanfihangel Abergwessin"},{"id":"836015","latitude":"52.15000000","longitude":"-3.68333300","name":"Llanfihangel Abergwesyn"},{"id":"836018","latitude":"52.20000000","longitude":"-3.50000000","name":"Llanfihangel-Bryn-Pabuan"},{"id":"836025","latitude":"52.21666700","longitude":"-3.20000000","name":"Llanfihangel"},{"id":"836027","latitude":"51.98333300","longitude":"-3.55000000","name":"Llanfihangel-Nant-Br\u00e2n"},{"id":"836028","latitude":"52.21666700","longitude":"-3.20000000","name":"Llanfihangel-nant-Melan"},{"id":"836030","latitude":"52.28333300","longitude":"-3.25000000","name":"Llanfihangel Rhydithon"},{"id":"836036","latitude":"52.73333300","longitude":"-3.36666700","name":"Llanfihangel-yng-Ngwynfa"},{"id":"836041","latitude":"51.91666700","longitude":"-3.35000000","name":"Llanfrynach"},{"id":"836042","latitude":"52.75000000","longitude":"-3.25000000","name":"Llanfyllin"},{"id":"836046","latitude":"52.68333300","longitude":"-3.46666700","name":"Llangadfan"},{"id":"836049","latitude":"52.86666700","longitude":"-3.21666700","name":"Llangadwaladr"},{"id":"836051","latitude":"52.11666700","longitude":"-3.55000000","name":"Llangammarch"},{"id":"836052","latitude":"52.11666700","longitude":"-3.55000000","name":"Llangammarch Wells"},{"id":"836059","latitude":"51.85000000","longitude":"-3.13333300","name":"Llangattock"},{"id":"836061","latitude":"51.85000000","longitude":"-3.13333300","name":"Llangattwg"},{"id":"836062","latitude":"52.80000000","longitude":"-3.21666700","name":"Llangedwyn"},{"id":"836073","latitude":"51.85000000","longitude":"-3.10000000","name":"Llangenny"},{"id":"836090","latitude":"52.33333300","longitude":"-3.16666700","name":"Llangunllo"},{"id":"836092","latitude":"52.40000000","longitude":"-3.60000000","name":"Llangurig"},{"id":"836105","latitude":"52.66666700","longitude":"-3.28333300","name":"Llangyniew"},{"id":"836109","latitude":"52.08333300","longitude":"-3.43333300","name":"Llangynog"},{"id":"836117","latitude":"52.46666700","longitude":"-3.53333300","name":"Llanidloes"},{"id":"836130","latitude":"52.60000000","longitude":"-3.40000000","name":"Llanllugan"},{"id":"836153","latitude":"52.83333300","longitude":"-3.30000000","name":"Llanrhaiadr-ym-Mochnant"},{"id":"836154","latitude":"52.83333300","longitude":"-3.30000000","name":"Llanrhaiadr-yn-Mochnant"},{"id":"836170","latitude":"52.18333300","longitude":"-3.31666700","name":"Llansaintffread"},{"id":"836171","latitude":"52.18333300","longitude":"-3.31666700","name":"Llansaintfraed in Elvel"},{"id":"836178","latitude":"52.28333300","longitude":"-4.18333300","name":"Llansantffraid"},{"id":"836179","latitude":"52.76666700","longitude":"-3.15000000","name":"Llansantffraid-ym-Mechain"},{"id":"836183","latitude":"52.83333300","longitude":"-3.18333300","name":"Llansilin"},{"id":"836185","latitude":"51.95000000","longitude":"-3.43333300","name":"Llanspyddid"},{"id":"836186","latitude":"51.95000000","longitude":"-3.43333300","name":"Llanspyddyd"},{"id":"836219","latitude":"52.75000000","longitude":"-3.43333300","name":"Llanwddyn"},{"id":"836227","latitude":"52.53333300","longitude":"-3.45000000","name":"Llanwnog"},{"id":"836230","latitude":"52.61666700","longitude":"-3.80000000","name":"Llanwrin"},{"id":"836232","latitude":"52.26666700","longitude":"-3.50000000","name":"Llanwrthwl"},{"id":"836233","latitude":"52.26666700","longitude":"-3.50000000","name":"Llanwrthyl"},{"id":"836234","latitude":"52.11666700","longitude":"-3.66666700","name":"Llanwrtyd"},{"id":"836235","latitude":"52.10000000","longitude":"-3.63333300","name":"Llanwrtyd Wells"},{"id":"836236","latitude":"52.78333300","longitude":"-3.13333300","name":"Llanyblodwel"},{"id":"836247","latitude":"52.08333300","longitude":"-3.43333300","name":"Llanynog"},{"id":"836248","latitude":"52.25000000","longitude":"-3.40000000","name":"Llanyre"},{"id":"836396","latitude":"53.18333300","longitude":"-1.86666700","name":"Longnor"},{"id":"836468","latitude":"52.00000000","longitude":"-3.41666700","name":"Lower Chapel"},{"id":"836644","latitude":"52.60000000","longitude":"-3.85000000","name":"Machynlleth"},{"id":"836667","latitude":"52.13333300","longitude":"-3.41666700","name":"Maesmynis"},{"id":"836708","latitude":"52.68333300","longitude":"-3.68333300","name":"Mallwyd"},{"id":"836723","latitude":"52.60000000","longitude":"-3.31666700","name":"Manafon"},{"id":"836883","latitude":"52.61666700","longitude":"-3.05000000","name":"Marton"},{"id":"836929","latitude":"52.60000000","longitude":"-3.01666700","name":"Meadowtown"},{"id":"836944","latitude":"52.70000000","longitude":"-3.25000000","name":"Meifod"},{"id":"837024","latitude":"52.01666700","longitude":"-3.48333300","name":"Merthyr Cynog"},{"id":"837237","latitude":"52.48333300","longitude":"-3.36666700","name":"Mochdre"},{"id":"837297","latitude":"52.58333300","longitude":"-3.16666700","name":"Montgomery"},{"id":"837522","latitude":"52.28333300","longitude":"-3.41666700","name":"Nantmel"},{"id":"837640","latitude":"52.68333300","longitude":"-3.26666700","name":"New Bridge"},{"id":"837641","latitude":"52.21666700","longitude":"-3.41666700","name":"Newbridge on Wye"},{"id":"837737","latitude":"52.25000000","longitude":"-3.13333300","name":"New Radnor"},{"id":"837804","latitude":"50.70000000","longitude":"-1.40000000","name":"Newtown"},{"id":"838002","latitude":"52.30000000","longitude":"-3.01666700","name":"Norton"},{"id":"838328","latitude":"52.35000000","longitude":"-3.48333300","name":"Pant-y-dwr"},{"id":"838433","latitude":"52.60000000","longitude":"-3.81666700","name":"Penegoes"},{"id":"838452","latitude":"52.58333300","longitude":"-3.91666700","name":"Pennal"},{"id":"838454","latitude":"52.81666700","longitude":"-3.45000000","name":"Pennant-Melangell"},{"id":"838456","latitude":"52.55000000","longitude":"-3.65000000","name":"Pennant"},{"id":"838486","latitude":"51.98333300","longitude":"-3.58333300","name":"Pentre-b\u00e2ch"},{"id":"838500","latitude":"52.81666700","longitude":"-3.36666700","name":"Pen-y-bont-fawr"},{"id":"838502","latitude":"52.26666700","longitude":"-3.30000000","name":"Penybont"},{"id":"838503","latitude":"52.81666700","longitude":"-3.36666700","name":"Pen-y-bont"},{"id":"838698","latitude":"52.70000000","longitude":"-3.38333300","name":"Pont Dolanog"},{"id":"838710","latitude":"51.75750000","longitude":"-3.59638900","name":"Pontneddfechan"},{"id":"838711","latitude":"51.75750000","longitude":"-3.59638900","name":"Pont-Nedd-Fechan"},{"id":"838712","latitude":"51.75750000","longitude":"-3.59638900","name":"Pont-nedd-Fychan"},{"id":"838724","latitude":"52.70000000","longitude":"-3.31666700","name":"Pont-Robert"},{"id":"838725","latitude":"51.93333300","longitude":"-3.56666700","name":"Pontsenni"},{"id":"838748","latitude":"52.68333300","longitude":"-3.10000000","name":"Pool Quay"},{"id":"838902","latitude":"52.28333300","longitude":"-3.00000000","name":"Presteigh"},{"id":"838903","latitude":"52.28333300","longitude":"-3.00000000","name":"Presteigne"},{"id":"838904","latitude":"52.28333300","longitude":"-3.00000000","name":"Presteign"},{"id":"839204","latitude":"52.31666700","longitude":"-3.50000000","name":"Rhayader"},{"id":"839654","latitude":"52.33333300","longitude":"-3.48333300","name":"Saint Harmon"},{"id":"839853","latitude":"52.50000000","longitude":"-3.18333300","name":"Sarn"},{"id":"840041","latitude":"51.93333300","longitude":"-3.56666700","name":"Sennybridge"},{"id":"840069","latitude":"50.70000000","longitude":"-1.40000000","name":"Shalfleet"},{"id":"840098","latitude":"53.15000000","longitude":"-1.83333300","name":"Sheen"},{"id":"840823","latitude":"52.51666700","longitude":"-3.65000000","name":"Stay-a-little"},{"id":"840824","latitude":"52.51666700","longitude":"-3.65000000","name":"Staylittle"},{"id":"841029","latitude":"52.35000000","longitude":"-3.01666700","name":"Stow"},{"id":"841298","latitude":"52.58333300","longitude":"-3.58333300","name":"Talerddig"},{"id":"841851","latitude":"52.50000000","longitude":"-3.51666700","name":"Trefeglwys"},{"id":"841867","latitude":"52.58333300","longitude":"-3.33333300","name":"Tregynon"},{"id":"841876","latitude":"52.61666700","longitude":"-3.10000000","name":"Trelystan"},{"id":"841883","latitude":"52.51666700","longitude":"-3.30000000","name":"Tre-Newydd"},{"id":"841899","latitude":"51.88333300","longitude":"-3.18333300","name":"Tretower"},{"id":"842113","latitude":"52.05000000","longitude":"-3.45000000","name":"Upper Chapel"},{"id":"842122","latitude":"53.11666700","longitude":"-1.91666700","name":"Upper Elkstone"},{"id":"842134","latitude":"52.28333300","longitude":"-2.93333300","name":"Upper Kinsham"},{"id":"842201","latitude":"52.46666700","longitude":"-3.55000000","name":"Van"},{"id":"842539","latitude":"52.66666700","longitude":"-3.13333300","name":"Welshpool"},{"id":"842795","latitude":"51.31666700","longitude":"-1.25000000","name":"West Stourmouth"},{"id":"842971","latitude":"52.30000000","longitude":"-3.06666700","name":"Whitton"},{"id":"843280","latitude":"51.30000000","longitude":"-1.36666700","name":"Woodcott"},{"id":"843553","latitude":"52.10000000","longitude":"-3.76666700","name":"Ystrad-ffin"}]