[{"id":"828845","latitude":"55.85000000","longitude":"-4.58333300","name":"Bridge of Weir"},{"id":"832954","latitude":"55.95000000","longitude":"-4.83333300","name":"Gourock"},{"id":"833209","latitude":"55.93333300","longitude":"-4.75000000","name":"Greenock"},{"id":"834435","latitude":"55.88333300","longitude":"-4.96666700","name":"Inellan"},{"id":"834460","latitude":"55.88333300","longitude":"-4.96666700","name":"Innellan"},{"id":"834508","latitude":"55.90000000","longitude":"-4.86666700","name":"Inverkip"},{"id":"834839","latitude":"55.88333300","longitude":"-4.61666700","name":"Kilmacolm"},{"id":"838783","latitude":"55.93333300","longitude":"-4.70000000","name":"Port Glasgow"},{"id":"842552","latitude":"55.88333300","longitude":"-4.90000000","name":"Wemyss Bay"}]