[{"id":"843936","latitude":"41.41250000","longitude":"43.47777780","name":"Achalkalaki"},{"id":"843998","latitude":"41.56666670","longitude":"43.53333330","name":"Agana"},{"id":"844092","latitude":"41.41250000","longitude":"43.47777780","name":"Akhalkalak"},{"id":"844094","latitude":"41.41250000","longitude":"43.47777780","name":"Akhalk'alak'i"},{"id":"844211","latitude":"41.54666670","longitude":"43.39666670","name":"Alastan"},{"id":"844212","latitude":"41.54666670","longitude":"43.39666670","name":"Alastani"},{"id":"844213","latitude":"41.58722220","longitude":"43.52805560","name":"Alatubani"},{"id":"844214","latitude":"41.58722220","longitude":"43.52805560","name":"Alat'umani"},{"id":"844315","latitude":"41.36388890","longitude":"43.27138890","name":"Ap'nia"},{"id":"844326","latitude":"41.48916670","longitude":"43.49111110","name":"Aragva"},{"id":"844335","latitude":"41.48916670","longitude":"43.49111110","name":"Arakva"},{"id":"844379","latitude":"41.41250000","longitude":"43.47777780","name":"Arkhalkalaki"},{"id":"844476","latitude":"41.58638890","longitude":"43.45027780","name":"Azavret"},{"id":"844477","latitude":"41.58638890","longitude":"43.45027780","name":"Azavret'i"},{"id":"844489","latitude":"41.31666670","longitude":"43.30000000","name":"Azmana"},{"id":"844490","latitude":"41.31666670","longitude":"43.30000000","name":"Azmano"},{"id":"844571","latitude":"41.51666670","longitude":"43.53333330","name":"Balkho"},{"id":"844590","latitude":"41.54111110","longitude":"43.50444440","name":"Baralet'i"},{"id":"844642","latitude":"41.40000000","longitude":"43.50000000","name":"Bavra"},{"id":"844718","latitude":"41.61055560","longitude":"43.55944440","name":"Bezhano"},{"id":"844844","latitude":"41.26666670","longitude":"43.35000000","name":"Bozali"},{"id":"844876","latitude":"41.51666670","longitude":"43.51666670","name":"Bugasheni"},{"id":"844905","latitude":"41.58333330","longitude":"43.50000000","name":"Burnashet'i"},{"id":"844919","latitude":"41.41666670","longitude":"43.56666670","name":"Buzaveti"},{"id":"844997","latitude":"41.37916670","longitude":"43.45861110","name":"Ch'amdzvrala"},{"id":"845008","latitude":"41.37916670","longitude":"43.45861110","name":"Chandura"},{"id":"845250","latitude":"41.46944440","longitude":"43.38583330","name":"Ch'unch'kha"},{"id":"845282","latitude":"41.27805560","longitude":"43.25333330","name":"Dabnia"},{"id":"845436","latitude":"41.34333330","longitude":"43.51916670","name":"Didi-Khorenia"},{"id":"845456","latitude":"41.53333330","longitude":"43.60000000","name":"Didi-Samsari"},{"id":"845487","latitude":"41.43194440","longitude":"43.45027780","name":"Diliska"},{"id":"845799","latitude":"41.29083330","longitude":"43.27888890","name":"Erindzha"},{"id":"845800","latitude":"41.29083330","longitude":"43.27888890","name":"Erinja"},{"id":"845841","latitude":"41.23333330","longitude":"43.30000000","name":"Filipovka"},{"id":"845842","latitude":"41.23333330","longitude":"43.30000000","name":"Filippovka"},{"id":"845843","latitude":"41.23333330","longitude":"43.30000000","name":"Fillippovka"},{"id":"845854","latitude":"41.58333330","longitude":"43.46666670","name":"Gado"},{"id":"846008","latitude":"41.58333330","longitude":"43.46666670","name":"Ghado"},{"id":"846056","latitude":"41.37166670","longitude":"43.29972220","name":"Gogasheni"},{"id":"846074","latitude":"41.56583330","longitude":"43.40944440","name":"Gokia"},{"id":"846075","latitude":"41.56583330","longitude":"43.40944440","name":"Gokio"},{"id":"846083","latitude":"41.49722220","longitude":"43.53333330","name":"Gomani"},{"id":"846233","latitude":"41.41444440","longitude":"43.51222220","name":"Gulikami"},{"id":"846247","latitude":"41.39888890","longitude":"43.35166670","name":"Gumurdo"},{"id":"846359","latitude":"41.55000000","longitude":"43.55000000","name":"Ikhtila"},{"id":"846491","latitude":"41.57527780","longitude":"43.52444440","name":"Kachio"},{"id":"846607","latitude":"41.41055560","longitude":"43.53805560","name":"Kartikami"},{"id":"846608","latitude":"41.41055560","longitude":"43.53805560","name":"Kartikam"},{"id":"846610","latitude":"41.24472220","longitude":"43.26972220","name":"Kartsakhi"},{"id":"846612","latitude":"41.31666670","longitude":"43.28333330","name":"K'arts'ebi"},{"id":"846613","latitude":"41.31666670","longitude":"43.28333330","name":"Kartsepi"},{"id":"846617","latitude":"41.24472220","longitude":"43.26972220","name":"Karzakhi"},{"id":"846618","latitude":"41.33333330","longitude":"43.11666670","name":"K'arzamet'i"},{"id":"846748","latitude":"41.48944440","longitude":"43.39194440","name":"Khando"},{"id":"846777","latitude":"41.27694440","longitude":"43.23416670","name":"Khavet'i"},{"id":"846881","latitude":"41.34333330","longitude":"43.51916670","name":"Khorenia"},{"id":"846892","latitude":"41.36888890","longitude":"43.49722220","name":"Khospio"},{"id":"846921","latitude":"41.41666670","longitude":"43.50000000","name":"Khulgumo"},{"id":"846994","latitude":"41.38333330","longitude":"43.41666670","name":"Kirovakani"},{"id":"846995","latitude":"41.38333330","longitude":"43.41666670","name":"Kirovi"},{"id":"847072","latitude":"41.57527780","longitude":"43.52444440","name":"Kochio"},{"id":"847152","latitude":"41.46888890","longitude":"43.46527780","name":"Korkhi"},{"id":"847188","latitude":"41.57527780","longitude":"43.52444440","name":"Kotchio"},{"id":"847189","latitude":"41.52555560","longitude":"43.47972220","name":"Kot'elia"},{"id":"847251","latitude":"41.39888890","longitude":"43.35166670","name":"Kumurdo"},{"id":"847824","latitude":"41.56666670","longitude":"43.48333330","name":"Lomaturts'khi"},{"id":"847855","latitude":"41.44666670","longitude":"43.51583330","name":"Machatia"},{"id":"847861","latitude":"41.44666670","longitude":"43.51583330","name":"Madzhidia"},{"id":"848005","latitude":"41.38333330","longitude":"43.50000000","name":"Martuni"},{"id":"848012","latitude":"41.44666670","longitude":"43.51583330","name":"Matchatia"},{"id":"848106","latitude":"41.54027780","longitude":"43.55388890","name":"Merenia"},{"id":"848134","latitude":"41.28333330","longitude":"43.33333330","name":"Miasnikiani"},{"id":"848194","latitude":"41.61666670","longitude":"43.51666670","name":"Modega"},{"id":"848317","latitude":"41.36666670","longitude":"43.46666670","name":"Murdzhakheti"},{"id":"848318","latitude":"41.36666670","longitude":"43.46666670","name":"Murjakhet'i"},{"id":"848333","latitude":"41.28333330","longitude":"43.33333330","name":"Myasnikiani"},{"id":"848732","latitude":"41.31833330","longitude":"43.34027780","name":"Okami"},{"id":"848770","latitude":"41.46444440","longitude":"43.55722220","name":"Olaverdi"},{"id":"848771","latitude":"41.46444440","longitude":"43.55722220","name":"Olaverti"},{"id":"848810","latitude":"41.46666670","longitude":"43.46666670","name":"Ordzha"},{"id":"848820","latitude":"41.46666670","longitude":"43.46666670","name":"Orja"},{"id":"848976","latitude":"41.23333330","longitude":"43.30000000","name":"Patara Kartsakhi"},{"id":"849001","latitude":"41.55000000","longitude":"43.60000000","name":"Patara-Samsari"},{"id":"849057","latitude":"41.23333330","longitude":"43.30000000","name":"P'ilipovka"},{"id":"849156","latitude":"41.46111110","longitude":"43.41166670","name":"Prtena"},{"id":"849173","latitude":"41.46111110","longitude":"43.41166670","name":"Ptena"},{"id":"849493","latitude":"41.53333330","longitude":"43.60000000","name":"Samsari"},{"id":"849851","latitude":"41.56666670","longitude":"43.53333330","name":"Sirkva"},{"id":"849953","latitude":"41.27750000","longitude":"43.36750000","name":"Sulda"},{"id":"850147","latitude":"41.50000000","longitude":"43.51666670","name":"Tirkna"},{"id":"850227","latitude":"41.48333330","longitude":"43.38333330","name":"T'oki"},{"id":"850257","latitude":"41.45000000","longitude":"43.48333330","name":"T'ot'khami"},{"id":"850627","latitude":"41.55750000","longitude":"43.46194440","name":"Turts'khi"},{"id":"850736","latitude":"41.35361110","longitude":"43.42972220","name":"Vach'iani"},{"id":"850737","latitude":"41.35361110","longitude":"43.42972220","name":"Vachian"},{"id":"850798","latitude":"41.51416670","longitude":"43.38611110","name":"Varevani"},{"id":"850808","latitude":"41.31666670","longitude":"43.18333330","name":"Varneti"},{"id":"851012","latitude":"41.29083330","longitude":"43.27888890","name":"Yerindzha"},{"id":"851041","latitude":"41.50638890","longitude":"43.49972220","name":"Zakvi"}]