[{"id":"852418","latitude":"7.95000000","longitude":"-1.18333330","name":"Abaase"},{"id":"852432","latitude":"6.55000000","longitude":"-1.25000000","name":"Abakwam"},{"id":"852434","latitude":"7.68333330","longitude":"-1.18333330","name":"Abama"},{"id":"852440","latitude":"6.68333330","longitude":"-1.43333330","name":"Abanase"},{"id":"852442","latitude":"6.68333330","longitude":"-1.43333330","name":"Abanasi"},{"id":"852447","latitude":"6.75000000","longitude":"-1.48333330","name":"Abankrom"},{"id":"852449","latitude":"6.75000000","longitude":"-1.48333330","name":"Abankurom"},{"id":"852450","latitude":"6.71666670","longitude":"-1.93333330","name":"Abansua Panyin"},{"id":"852451","latitude":"6.21666670","longitude":"-1.81666670","name":"Abanyaso"},{"id":"852452","latitude":"6.21666670","longitude":"-1.81666670","name":"Abanyasu Mile 14"},{"id":"852455","latitude":"6.88333330","longitude":"-1.23333330","name":"Abase"},{"id":"852457","latitude":"6.88333330","longitude":"-1.23333330","name":"Abasi"},{"id":"852460","latitude":"6.96666670","longitude":"-1.40000000","name":"Abasua"},{"id":"852461","latitude":"6.71666670","longitude":"-1.93333330","name":"Abasuakuma"},{"id":"852462","latitude":"6.71666670","longitude":"-1.93333330","name":"Abasuapayin"},{"id":"852463","latitude":"6.71666670","longitude":"-1.93333330","name":"Abasukuma"},{"id":"852467","latitude":"6.85000000","longitude":"-2.20000000","name":"Abawdiem"},{"id":"852469","latitude":"6.33333330","longitude":"-1.58333330","name":"Abawe"},{"id":"852473","latitude":"6.96666670","longitude":"-1.40000000","name":"Abayisua"},{"id":"852478","latitude":"7.95000000","longitude":"-1.18333330","name":"Abease"},{"id":"852479","latitude":"7.95000000","longitude":"-1.18333330","name":"Abeasi"},{"id":"852483","latitude":"6.30000000","longitude":"-1.66666670","name":"Abejum"},{"id":"852493","latitude":"6.70000000","longitude":"-0.78333330","name":"Abene"},{"id":"852499","latitude":"6.53333330","longitude":"-0.78333330","name":"Abepawtia"},{"id":"852501","latitude":"6.53333330","longitude":"-0.78333330","name":"Abepotia"},{"id":"852504","latitude":"6.95000000","longitude":"-1.96666670","name":"Abesewa"},{"id":"852507","latitude":"6.73333330","longitude":"-0.93333330","name":"Abetem Dwerebease"},{"id":"852508","latitude":"6.55000000","longitude":"-1.35000000","name":"Abetensua"},{"id":"852509","latitude":"6.96666670","longitude":"-1.06666670","name":"Abetensu"},{"id":"852511","latitude":"6.66666670","longitude":"-0.75000000","name":"Abetife"},{"id":"852512","latitude":"6.66666670","longitude":"-0.75000000","name":"Abetifi"},{"id":"852513","latitude":"6.73333330","longitude":"-0.93333330","name":"Abetim"},{"id":"852514","latitude":"6.80000000","longitude":"-1.38333330","name":"Abetinm"},{"id":"852517","latitude":"6.96666670","longitude":"-1.06666670","name":"Abetinsu"},{"id":"852521","latitude":"6.85000000","longitude":"-1.35000000","name":"Abibireso"},{"id":"852522","latitude":"6.90000000","longitude":"-1.23333330","name":"Abidimisebi"},{"id":"852528","latitude":"6.76666670","longitude":"-1.48333330","name":"Abira"},{"id":"852529","latitude":"6.75000000","longitude":"-1.55000000","name":"Abirem"},{"id":"852556","latitude":"6.21666670","longitude":"-1.35000000","name":"Aboabo"},{"id":"852562","latitude":"6.83333330","longitude":"-1.61666670","name":"Aboabogya"},{"id":"852563","latitude":"6.83333330","longitude":"-1.61666670","name":"Aboaboja"},{"id":"852565","latitude":"6.80000000","longitude":"-1.53333330","name":"Aboabo Nkwanta"},{"id":"852566","latitude":"6.21666670","longitude":"-1.36666670","name":"Aboabo Number 1"},{"id":"852573","latitude":"6.70000000","longitude":"-0.85000000","name":"Aboachi"},{"id":"852578","latitude":"6.70000000","longitude":"-0.85000000","name":"Aboakye"},{"id":"852586","latitude":"6.68333330","longitude":"-1.73333330","name":"Aboaso"},{"id":"852588","latitude":"6.80000000","longitude":"-1.53333330","name":"Aboaso Nkwanta"},{"id":"852589","latitude":"6.93333330","longitude":"-1.68333330","name":"Aboawso"},{"id":"852596","latitude":"6.55000000","longitude":"-1.81666670","name":"Abodease"},{"id":"852597","latitude":"6.95000000","longitude":"-1.13333330","name":"Abodeem"},{"id":"852598","latitude":"6.85000000","longitude":"-2.20000000","name":"Abodiem"},{"id":"852599","latitude":"6.46666670","longitude":"-1.70000000","name":"Abodinkrom"},{"id":"852600","latitude":"6.38333330","longitude":"-1.05000000","name":"Abodom"},{"id":"852604","latitude":"6.41666670","longitude":"-1.81666670","name":"Abodom Sakunne"},{"id":"852607","latitude":"6.38333330","longitude":"-1.05000000","name":"Abodum"},{"id":"852614","latitude":"7.13333330","longitude":"-1.75000000","name":"Abofaw"},{"id":"852615","latitude":"7.13333330","longitude":"-1.75000000","name":"Abofoo"},{"id":"852616","latitude":"7.13333330","longitude":"-1.75000000","name":"Abofour"},{"id":"852618","latitude":"7.05000000","longitude":"-1.06666670","name":"Abofrem"},{"id":"852619","latitude":"6.51666670","longitude":"-2.35000000","name":"Abofrim"},{"id":"852632","latitude":"7.06666670","longitude":"-0.58333330","name":"Aboma"},{"id":"852647","latitude":"6.25000000","longitude":"-1.58333330","name":"Abomposa"},{"id":"852648","latitude":"6.25000000","longitude":"-1.58333330","name":"Abomposu"},{"id":"852657","latitude":"6.81666670","longitude":"-2.21666670","name":"Abonsuiaso"},{"id":"852659","latitude":"7.46666670","longitude":"-1.70000000","name":"Abontiem"},{"id":"852662","latitude":"6.53333330","longitude":"-1.43333330","name":"Abonu"},{"id":"852664","latitude":"6.61666670","longitude":"-2.70000000","name":"Aboom"},{"id":"852665","latitude":"6.58333330","longitude":"-1.56666670","name":"Aboontem"},{"id":"852666","latitude":"6.51666670","longitude":"-1.53333330","name":"Abooso"},{"id":"852669","latitude":"6.93333330","longitude":"-1.86666670","name":"Abora"},{"id":"852674","latitude":"6.43333330","longitude":"-1.96666670","name":"Abori"},{"id":"852677","latitude":"6.31666670","longitude":"-1.41666670","name":"Abosamso"},{"id":"852682","latitude":"7.38333330","longitude":"-1.23333330","name":"Abotang"},{"id":"852683","latitude":"6.30000000","longitude":"-1.75000000","name":"Abotendua"},{"id":"852690","latitude":"6.33333330","longitude":"-1.58333330","name":"Abowee"},{"id":"852698","latitude":"6.93333330","longitude":"-1.51666670","name":"Abrakaso"},{"id":"852700","latitude":"7.23333330","longitude":"-1.65000000","name":"Abranteyemmobo"},{"id":"852701","latitude":"7.23333330","longitude":"-1.65000000","name":"Abrantiyamawbaw"},{"id":"852708","latitude":"6.60000000","longitude":"-1.10000000","name":"Abrema"},{"id":"852711","latitude":"6.55000000","longitude":"-1.50000000","name":"Abremkese"},{"id":"852716","latitude":"6.66666670","longitude":"-1.05000000","name":"Abrewankaw"},{"id":"852731","latitude":"7.05000000","longitude":"-1.06666670","name":"Abrofirim"},{"id":"852737","latitude":"6.96666670","longitude":"-1.60000000","name":"Abroma"},{"id":"852738","latitude":"6.55000000","longitude":"-1.50000000","name":"Abromkese"},{"id":"852742","latitude":"6.30000000","longitude":"-1.83333330","name":"Abuakwa"},{"id":"852749","latitude":"6.93333330","longitude":"-1.68333330","name":"Abuasu"},{"id":"852758","latitude":"7.13333330","longitude":"-1.75000000","name":"Abufaw"},{"id":"852764","latitude":"6.61666670","longitude":"-2.70000000","name":"Abum"},{"id":"852767","latitude":"7.60000000","longitude":"-1.11666670","name":"Abuo"},{"id":"852768","latitude":"6.75000000","longitude":"-1.65000000","name":"Abuohia"},{"id":"852769","latitude":"6.58333330","longitude":"-1.56666670","name":"Abuontem"},{"id":"852770","latitude":"6.51666670","longitude":"-1.53333330","name":"Abuoso"},{"id":"852773","latitude":"6.68333330","longitude":"-1.36666670","name":"Abupubuma"},{"id":"852780","latitude":"6.65000000","longitude":"-1.66666670","name":"Aburaso"},{"id":"852782","latitude":"6.43333330","longitude":"-1.96666670","name":"Aburi"},{"id":"852797","latitude":"7.16666670","longitude":"-1.40000000","name":"Abwantem"},{"id":"852798","latitude":"6.76666670","longitude":"-1.60000000","name":"Abwia"},{"id":"852824","latitude":"6.73333330","longitude":"-1.46666670","name":"Achiakrom"},{"id":"852828","latitude":"6.45000000","longitude":"-1.31666670","name":"Achiasewa"},{"id":"852830","latitude":"6.30000000","longitude":"-1.66666670","name":"Achiasi"},{"id":"852851","latitude":"6.66666670","longitude":"-1.46666670","name":"Achina"},{"id":"852852","latitude":"6.66666670","longitude":"-1.46666670","name":"Achinakrom"},{"id":"852855","latitude":"6.51666670","longitude":"-1.51666670","name":"Achiremade"},{"id":"852870","latitude":"6.40000000","longitude":"-1.71666670","name":"Achuchuso"},{"id":"852875","latitude":"6.96666670","longitude":"-1.38333330","name":"Achwia"},{"id":"852876","latitude":"7.25000000","longitude":"-1.83333330","name":"Adaa"},{"id":"852877","latitude":"7.25000000","longitude":"-1.83333330","name":"Ada"},{"id":"852889","latitude":"6.70000000","longitude":"-1.43333330","name":"Adadientem"},{"id":"852891","latitude":"6.70000000","longitude":"-1.43333330","name":"Adadientem Adegya"},{"id":"852901","latitude":"6.75000000","longitude":"-1.03333330","name":"Adaham"},{"id":"852904","latitude":"6.75000000","longitude":"-1.03333330","name":"Adahem"},{"id":"852924","latitude":"6.35000000","longitude":"-1.50000000","name":"Adakwai"},{"id":"852936","latitude":"6.81666670","longitude":"-1.46666670","name":"Adangomasi"},{"id":"852938","latitude":"6.45000000","longitude":"-1.60000000","name":"Adankranya"},{"id":"852940","latitude":"6.76666670","longitude":"-1.80000000","name":"Adankwame"},{"id":"852941","latitude":"6.76666670","longitude":"-1.80000000","name":"Adankwami"},{"id":"852942","latitude":"6.80000000","longitude":"-1.71666670","name":"Adankwamu"},{"id":"852944","latitude":"6.13333330","longitude":"-1.46666670","name":"Adanse Anweaso"},{"id":"852950","latitude":"6.13333330","longitude":"-1.46666670","name":"Adansi Anhwiaso"},{"id":"852953","latitude":"6.35000000","longitude":"-1.05000000","name":"Adansina"},{"id":"852957","latitude":"6.60000000","longitude":"-0.85000000","name":"Adanting"},{"id":"852958","latitude":"6.81666670","longitude":"-1.46666670","name":"Adanwamaso"},{"id":"852962","latitude":"7.95000000","longitude":"-1.28333330","name":"Adaprase"},{"id":"852963","latitude":"7.95000000","longitude":"-1.28333330","name":"Adaprasi"},{"id":"852969","latitude":"6.25000000","longitude":"-1.70000000","name":"Adasi"},{"id":"852972","latitude":"6.35000000","longitude":"-1.05000000","name":"Adausena"},{"id":"852973","latitude":"6.35000000","longitude":"-1.05000000","name":"Adausina"},{"id":"852976","latitude":"6.15000000","longitude":"-1.50000000","name":"Adawmena"},{"id":"852977","latitude":"6.15000000","longitude":"-1.50000000","name":"Adawmenu"},{"id":"852978","latitude":"6.35000000","longitude":"-1.05000000","name":"Adawsena"},{"id":"852979","latitude":"6.76666670","longitude":"-1.51666670","name":"Adawsina"},{"id":"852980","latitude":"6.71666670","longitude":"-0.51666670","name":"Adawso"},{"id":"852995","latitude":"6.60000000","longitude":"-2.05000000","name":"Adeemmra"},{"id":"852996","latitude":"6.61666670","longitude":"-1.58333330","name":"Adegya"},{"id":"853000","latitude":"6.76666670","longitude":"-1.51666670","name":"Adeisena"},{"id":"853001","latitude":"6.45000000","longitude":"-1.38333330","name":"Adeito"},{"id":"853002","latitude":"6.45000000","longitude":"-1.38333330","name":"Adeitu"},{"id":"853003","latitude":"6.61666670","longitude":"-1.58333330","name":"Adeja"},{"id":"853009","latitude":"6.75000000","longitude":"-1.50000000","name":"Adense"},{"id":"853012","latitude":"6.95000000","longitude":"-1.23333330","name":"Adenyensu"},{"id":"853014","latitude":"6.76666670","longitude":"-1.51666670","name":"Adeusina"},{"id":"853016","latitude":"6.63333330","longitude":"-1.36666670","name":"Adeyepena"},{"id":"853017","latitude":"6.60000000","longitude":"-2.05000000","name":"Adiambra"},{"id":"853025","latitude":"6.53333330","longitude":"-2.01666670","name":"Adibiawra"},{"id":"853027","latitude":"6.95000000","longitude":"-1.40000000","name":"Adichaem"},{"id":"853029","latitude":"6.95000000","longitude":"-1.40000000","name":"Adichuem"},{"id":"853030","latitude":"6.85000000","longitude":"-1.98333330","name":"Adidasi"},{"id":"853042","latitude":"7.25000000","longitude":"-1.40000000","name":"Adidwam"},{"id":"853043","latitude":"7.25000000","longitude":"-1.40000000","name":"Adidwan"},{"id":"853044","latitude":"6.66666670","longitude":"-1.61666670","name":"Adiebaba"},{"id":"853045","latitude":"6.66666670","longitude":"-1.61666670","name":"Adiebeba"},{"id":"853047","latitude":"6.98333330","longitude":"-1.05000000","name":"Adiem"},{"id":"853048","latitude":"6.61666670","longitude":"-1.25000000","name":"Adiembra"},{"id":"853052","latitude":"6.73333330","longitude":"-1.05000000","name":"Adiemmra"},{"id":"853055","latitude":"6.63333330","longitude":"-1.36666670","name":"Adiepena"},{"id":"853086","latitude":"6.53333330","longitude":"-2.01666670","name":"Adobewora"},{"id":"853087","latitude":"6.53333330","longitude":"-2.01666670","name":"Adobewura"},{"id":"853095","latitude":"6.35000000","longitude":"-1.50000000","name":"Adokwae"},{"id":"853096","latitude":"6.30000000","longitude":"-1.68333330","name":"Adomanu"},{"id":"853100","latitude":"6.66666670","longitude":"-1.08333330","name":"Adomfe"},{"id":"853101","latitude":"6.66666670","longitude":"-1.08333330","name":"Adomfi"},{"id":"853111","latitude":"7.35000000","longitude":"-0.88333330","name":"Adonso"},{"id":"853112","latitude":"7.35000000","longitude":"-0.88333330","name":"Adonsua"},{"id":"853121","latitude":"6.35000000","longitude":"-1.73333330","name":"Adowa"},{"id":"853123","latitude":"6.36666670","longitude":"-1.73333330","name":"Adowa Number 1"},{"id":"853124","latitude":"6.35000000","longitude":"-1.73333330","name":"Adowa Number 2"},{"id":"853127","latitude":"6.71666670","longitude":"-0.51666670","name":"Adowso"},{"id":"853134","latitude":"6.91666670","longitude":"-1.08333330","name":"Aduahensu"},{"id":"853136","latitude":"6.41666670","longitude":"-1.53333330","name":"Aduam"},{"id":"853137","latitude":"6.63333330","longitude":"-0.75000000","name":"Aduamoa"},{"id":"853141","latitude":"6.50000000","longitude":"-1.75000000","name":"Aduatu"},{"id":"853143","latitude":"6.40000000","longitude":"-1.93333330","name":"Adubia"},{"id":"853145","latitude":"6.31666670","longitude":"-1.56666670","name":"Adubiasi"},{"id":"853148","latitude":"6.35000000","longitude":"-1.61666670","name":"Adubrem"},{"id":"853159","latitude":"6.95000000","longitude":"-1.66666670","name":"Adukra"},{"id":"853160","latitude":"6.96666670","longitude":"-1.60000000","name":"Adukro and Cottages"},{"id":"853165","latitude":"6.48333330","longitude":"-1.85000000","name":"Adukumama"},{"id":"853166","latitude":"6.95000000","longitude":"-1.66666670","name":"Adukuro"},{"id":"853176","latitude":"6.81666670","longitude":"-1.61666670","name":"Aduman"},{"id":"853178","latitude":"6.50000000","longitude":"-1.58333330","name":"Adumasa"},{"id":"853184","latitude":"6.83333330","longitude":"-1.63333330","name":"Adumoa"},{"id":"853185","latitude":"6.33333330","longitude":"-1.93333330","name":"Adumposu"},{"id":"853190","latitude":"6.53333330","longitude":"-1.56666670","name":"Adunku"},{"id":"853205","latitude":"6.95000000","longitude":"-1.40000000","name":"Adutwum"},{"id":"853206","latitude":"6.60000000","longitude":"-1.75000000","name":"Adu Wamasi"},{"id":"853207","latitude":"6.28333330","longitude":"-1.81666670","name":"Aduyao"},{"id":"853208","latitude":"6.28333330","longitude":"-1.81666670","name":"Aduyawkurom"},{"id":"853216","latitude":"6.56666670","longitude":"-1.45000000","name":"Adwinase"},{"id":"853217","latitude":"6.51666670","longitude":"-1.53333330","name":"Adwinase Number 2"},{"id":"853219","latitude":"6.58333330","longitude":"-3.01666670","name":"Adwoafua"},{"id":"853221","latitude":"6.51666670","longitude":"-1.48333330","name":"Adwuafokurom"},{"id":"853222","latitude":"6.58333330","longitude":"-2.78333330","name":"Adwumadiem"},{"id":"853224","latitude":"6.81666670","longitude":"-1.60000000","name":"Adwumakase Kese"},{"id":"853225","latitude":"6.78333330","longitude":"-1.53333330","name":"Adwumakase Wadie"},{"id":"853226","latitude":"6.38333330","longitude":"-1.81666670","name":"Adwumam"},{"id":"853228","latitude":"6.75000000","longitude":"-1.56666670","name":"Adwuman"},{"id":"853229","latitude":"6.58333330","longitude":"-2.78333330","name":"Adwumdium"},{"id":"853251","latitude":"6.35000000","longitude":"-1.91666670","name":"Afadie"},{"id":"853254","latitude":"6.95000000","longitude":"-1.51666670","name":"Afamanso"},{"id":"853259","latitude":"6.70000000","longitude":"-1.78333330","name":"Afari"},{"id":"853261","latitude":"6.88333330","longitude":"-1.16666670","name":"Afatianhu"},{"id":"853263","latitude":"6.63333330","longitude":"-1.91666670","name":"Afawtawkaw"},{"id":"853269","latitude":"6.55000000","longitude":"-1.86666670","name":"Aferewa"},{"id":"853270","latitude":"6.70000000","longitude":"-1.78333330","name":"Aferi"},{"id":"853286","latitude":"6.35000000","longitude":"-1.91666670","name":"Afidie"},{"id":"853302","latitude":"6.38333330","longitude":"-1.63333330","name":"Afoako"},{"id":"853303","latitude":"6.63333330","longitude":"-1.75000000","name":"Afoasi"},{"id":"853305","latitude":"7.01666670","longitude":"-1.31666670","name":"Afonso"},{"id":"853309","latitude":"6.36666670","longitude":"-1.01666670","name":"Afoso"},{"id":"853310","latitude":"6.36666670","longitude":"-1.01666670","name":"Afosu"},{"id":"853311","latitude":"6.63333330","longitude":"-1.91666670","name":"Afotoko"},{"id":"853313","latitude":"7.15000000","longitude":"-1.11666670","name":"Aframso"},{"id":"853314","latitude":"6.55000000","longitude":"-1.63333330","name":"Afrancho"},{"id":"853316","latitude":"6.53333330","longitude":"-2.18333330","name":"Afranekurom"},{"id":"853318","latitude":"6.53333330","longitude":"-2.18333330","name":"Afranikrom"},{"id":"853321","latitude":"6.41666670","longitude":"-1.66666670","name":"Afransi"},{"id":"853324","latitude":"6.41666670","longitude":"-1.66666670","name":"Afransie"},{"id":"853327","latitude":"7.33333330","longitude":"-1.51666670","name":"Afrante"},{"id":"853328","latitude":"6.55000000","longitude":"-1.63333330","name":"Afrantwo"},{"id":"853331","latitude":"7.68333330","longitude":"-1.03333330","name":"Afrefreso"},{"id":"853333","latitude":"6.96666670","longitude":"-1.20000000","name":"Afrenso"},{"id":"853462","latitude":"6.80000000","longitude":"-1.08333330","name":"Agogo"},{"id":"853464","latitude":"6.33333330","longitude":"-1.46666670","name":"Agogoso"},{"id":"853478","latitude":"6.93333330","longitude":"-1.48333330","name":"Agona"},{"id":"853481","latitude":"6.91666670","longitude":"-1.46666670","name":"Agona Akrofoso"},{"id":"853482","latitude":"6.93333330","longitude":"-1.48333330","name":"Agona Asante"},{"id":"853483","latitude":"6.93333330","longitude":"-1.48333330","name":"Agona Ashanti"},{"id":"853496","latitude":"6.41666670","longitude":"-1.88333330","name":"Agoromyesum"},{"id":"853521","latitude":"6.41666670","longitude":"-1.88333330","name":"Agrosum"},{"id":"853538","latitude":"6.51666670","longitude":"-1.66666670","name":"Agyamesu"},{"id":"853539","latitude":"6.63333330","longitude":"-1.23333330","name":"Agyareago"},{"id":"853542","latitude":"6.93333330","longitude":"-1.66666670","name":"Agyeimpra"},{"id":"853571","latitude":"6.88333330","longitude":"-1.63333330","name":"Ahenkro"},{"id":"853577","latitude":"6.85000000","longitude":"-1.35000000","name":"Ahibireso"},{"id":"853580","latitude":"6.26666670","longitude":"-1.51666670","name":"Ahimaso"},{"id":"853581","latitude":"6.73333330","longitude":"-0.66666670","name":"Ahinase"},{"id":"853582","latitude":"6.73333330","longitude":"-0.66666670","name":"Ahinasi"},{"id":"853587","latitude":"6.88333330","longitude":"-1.63333330","name":"Ahinkro"},{"id":"853590","latitude":"6.65000000","longitude":"-1.60000000","name":"Ahinsai"},{"id":"853591","latitude":"6.33333330","longitude":"-1.51666670","name":"Ahinsan"},{"id":"853594","latitude":"6.53333330","longitude":"-2.33333330","name":"Ahireso"},{"id":"853597","latitude":"6.53333330","longitude":"-2.33333330","name":"Ahiriso"},{"id":"853598","latitude":"7.06666670","longitude":"-1.91666670","name":"Ahiruam"},{"id":"853605","latitude":"6.71666670","longitude":"-1.76666670","name":"Ahodwo"},{"id":"853625","latitude":"6.71666670","longitude":"-1.76666670","name":"Ahunjo"},{"id":"853634","latitude":"6.45000000","longitude":"-1.50000000","name":"Ahuren"},{"id":"853635","latitude":"6.61666670","longitude":"-2.03333330","name":"Ahweafutu"},{"id":"853637","latitude":"6.55000000","longitude":"-1.86666670","name":"Ahwerewa"},{"id":"853638","latitude":"7.06666670","longitude":"-1.91666670","name":"Ahwerewam"},{"id":"853639","latitude":"6.40000000","longitude":"-1.63333330","name":"Ahwiaa"},{"id":"853642","latitude":"6.20000000","longitude":"-1.45000000","name":"Ahwidaye"},{"id":"853643","latitude":"6.66666670","longitude":"-1.38333330","name":"Ahwiriso"},{"id":"853644","latitude":"6.55000000","longitude":"-1.86666670","name":"Ahwiriwa"},{"id":"853648","latitude":"6.53333330","longitude":"-2.33333330","name":"Ahyireso"},{"id":"853649","latitude":"6.53333330","longitude":"-2.33333330","name":"Ahyiresu"},{"id":"853663","latitude":"6.28333330","longitude":"-1.53333330","name":"Aiyasi"},{"id":"853667","latitude":"7.48333330","longitude":"-1.63333330","name":"Aiyerade"},{"id":"853676","latitude":"6.25000000","longitude":"-1.63333330","name":"Aiyinabrim"},{"id":"853693","latitude":"6.51666670","longitude":"-1.66666670","name":"Ajamaso"},{"id":"853698","latitude":"6.63333330","longitude":"-1.23333330","name":"Ajareago"},{"id":"853705","latitude":"6.78333330","longitude":"-1.76666670","name":"Ajeikrom"},{"id":"853710","latitude":"6.93333330","longitude":"-1.66666670","name":"Ajempra"},{"id":"853737","latitude":"6.51666670","longitude":"-1.48333330","name":"Ajuafo"},{"id":"853742","latitude":"6.58333330","longitude":"-3.01666670","name":"Ajufia"},{"id":"853743","latitude":"6.58333330","longitude":"-2.78333330","name":"Ajumadium"},{"id":"853746","latitude":"6.78333330","longitude":"-1.53333330","name":"Ajumakese"},{"id":"853750","latitude":"6.53333330","longitude":"-1.56666670","name":"Ajumam"},{"id":"853755","latitude":"6.53333330","longitude":"-1.56666670","name":"Ajumum"},{"id":"853756","latitude":"6.25000000","longitude":"-1.45000000","name":"Ajunkwaso"},{"id":"853758","latitude":"6.61666670","longitude":"-1.36666670","name":"Ajusua"},{"id":"853760","latitude":"6.51666670","longitude":"-1.53333330","name":"Ajwinasi"},{"id":"853787","latitude":"6.66666670","longitude":"-2.10000000","name":"Akantamansu"},{"id":"853788","latitude":"6.50000000","longitude":"-1.95000000","name":"Akantaniase"},{"id":"853789","latitude":"6.50000000","longitude":"-1.95000000","name":"Akantaniasi"},{"id":"853790","latitude":"6.66666670","longitude":"-2.10000000","name":"Akantanso"},{"id":"853796","latitude":"6.20000000","longitude":"-1.63333330","name":"Akapoliso"},{"id":"853797","latitude":"6.20000000","longitude":"-1.63333330","name":"Akaporiso"},{"id":"853798","latitude":"6.20000000","longitude":"-1.63333330","name":"Akapotiso"},{"id":"853800","latitude":"6.35000000","longitude":"-1.65000000","name":"Akasanim"},{"id":"853802","latitude":"6.35000000","longitude":"-1.65000000","name":"Akaserim"},{"id":"853803","latitude":"6.86666670","longitude":"-1.25000000","name":"Akasua"},{"id":"853819","latitude":"6.35000000","longitude":"-1.78333330","name":"Akawkawso"},{"id":"853827","latitude":"6.23333330","longitude":"-1.43333330","name":"Akekrom"},{"id":"853831","latitude":"6.26666670","longitude":"-1.68333330","name":"Akentenkyieso"},{"id":"853832","latitude":"6.40000000","longitude":"-1.03333330","name":"Akesakrom"},{"id":"853870","latitude":"6.46666670","longitude":"-0.90000000","name":"Akoase"},{"id":"853871","latitude":"6.46666670","longitude":"-0.90000000","name":"Akoasi"},{"id":"853880","latitude":"7.58333330","longitude":"-1.15000000","name":"Akokoa"},{"id":"853882","latitude":"6.85000000","longitude":"-1.33333330","name":"Akokoaso"},{"id":"853886","latitude":"6.23333330","longitude":"-1.45000000","name":"Akokodem"},{"id":"853887","latitude":"6.51666670","longitude":"-1.51666670","name":"Akokofe"},{"id":"853888","latitude":"6.55000000","longitude":"-1.06666670","name":"Akokofori"},{"id":"853893","latitude":"7.58333330","longitude":"-1.15000000","name":"Akokua"},{"id":"853902","latitude":"6.70000000","longitude":"-1.30000000","name":"Akomnyina"},{"id":"853903","latitude":"6.70000000","longitude":"-1.30000000","name":"Akomnyma"},{"id":"853907","latitude":"6.73333330","longitude":"-2.00000000","name":"Akonchi"},{"id":"853914","latitude":"6.73333330","longitude":"-2.00000000","name":"Akonkyi"},{"id":"853925","latitude":"6.70000000","longitude":"-1.60000000","name":"Akorem"},{"id":"853933","latitude":"6.91666670","longitude":"-1.23333330","name":"Akosua"},{"id":"853935","latitude":"6.63333330","longitude":"-1.70000000","name":"Akosumu"},{"id":"853936","latitude":"6.51666670","longitude":"-2.20000000","name":"Akotaa"},{"id":"853938","latitude":"6.26666670","longitude":"-1.68333330","name":"Akotechiaso"},{"id":"853942","latitude":"6.76666670","longitude":"-1.18333330","name":"Akotoasi"},{"id":"853944","latitude":"6.51666670","longitude":"-2.20000000","name":"Akotoasubiente"},{"id":"853949","latitude":"6.36666670","longitude":"-1.86666670","name":"Akotopesa"},{"id":"853950","latitude":"6.36666670","longitude":"-1.86666670","name":"Akotopeso Number 2"},{"id":"854001","latitude":"6.61666670","longitude":"-1.01666670","name":"Akrochere"},{"id":"854002","latitude":"6.93333330","longitude":"-1.33333330","name":"Akrochire"},{"id":"854003","latitude":"6.70000000","longitude":"-2.55000000","name":"Akrodie"},{"id":"854004","latitude":"8.40000000","longitude":"-1.55000000","name":"Akrofonso"},{"id":"854007","latitude":"6.15000000","longitude":"-1.48333330","name":"Akrofrom"},{"id":"854016","latitude":"6.15000000","longitude":"-1.48333330","name":"Akrofuom"},{"id":"854019","latitude":"6.28333330","longitude":"-1.63333330","name":"Akrokeri"},{"id":"854020","latitude":"6.28333330","longitude":"-1.63333330","name":"Akrokerri"},{"id":"854021","latitude":"6.93333330","longitude":"-1.33333330","name":"Akrokyere"},{"id":"854026","latitude":"6.70000000","longitude":"-1.60000000","name":"Akrom"},{"id":"854030","latitude":"6.48333330","longitude":"-1.30000000","name":"Akronwe"},{"id":"854031","latitude":"6.48333330","longitude":"-1.30000000","name":"Akronwi"},{"id":"854034","latitude":"6.43333330","longitude":"-1.81666670","name":"Akropong"},{"id":"854040","latitude":"6.48333330","longitude":"-1.30000000","name":"Akrowi"},{"id":"854042","latitude":"6.20000000","longitude":"-1.16666670","name":"Akrubutue"},{"id":"854043","latitude":"6.20000000","longitude":"-1.16666670","name":"Akrubutui"},{"id":"854044","latitude":"7.68333330","longitude":"-1.68333330","name":"Akrudwoa"},{"id":"854045","latitude":"7.68333330","longitude":"-1.68333330","name":"Akrujua"},{"id":"854051","latitude":"6.78333330","longitude":"-1.30000000","name":"Akuakrom"},{"id":"854057","latitude":"6.36666670","longitude":"-1.95000000","name":"Akuase Akwasiso"},{"id":"854061","latitude":"6.78333330","longitude":"-1.30000000","name":"Akuekrom"},{"id":"854066","latitude":"6.70000000","longitude":"-1.33333330","name":"Akuma"},{"id":"854083","latitude":"6.46666670","longitude":"-1.98333330","name":"Akuntam"},{"id":"854084","latitude":"6.56666670","longitude":"-1.30000000","name":"Akuntanasi"},{"id":"854086","latitude":"6.46666670","longitude":"-1.98333330","name":"Akuntum"},{"id":"854088","latitude":"6.78333330","longitude":"-1.30000000","name":"Akuokrom"},{"id":"854089","latitude":"6.78333330","longitude":"-1.30000000","name":"Akuokurom"},{"id":"854094","latitude":"6.91666670","longitude":"-1.40000000","name":"Akurofoso"},{"id":"854095","latitude":"6.91666670","longitude":"-1.40000000","name":"Akurofoso Mampon"},{"id":"854096","latitude":"6.81666670","longitude":"-1.66666670","name":"Akurofrom"},{"id":"854103","latitude":"6.51666670","longitude":"-2.20000000","name":"Akuta"},{"id":"854107","latitude":"6.38333330","longitude":"-1.70000000","name":"Akutiasi"},{"id":"854110","latitude":"6.33333330","longitude":"-1.75000000","name":"Akutuase"},{"id":"854111","latitude":"6.33333330","longitude":"-1.75000000","name":"Akutuasi"},{"id":"854114","latitude":"6.33333330","longitude":"-1.80000000","name":"Akwabawso"},{"id":"854115","latitude":"6.76666670","longitude":"-1.75000000","name":"Akwaboa"},{"id":"854117","latitude":"6.33333330","longitude":"-1.80000000","name":"Akwaboso"},{"id":"854124","latitude":"6.60000000","longitude":"-1.51666670","name":"Akwaduo"},{"id":"854141","latitude":"6.18333330","longitude":"-1.48333330","name":"Akwansirem"},{"id":"854149","latitude":"6.61666670","longitude":"-0.81666670","name":"Akwaseho"},{"id":"854150","latitude":"6.36666670","longitude":"-1.95000000","name":"Akwasi Akwasiso"},{"id":"854153","latitude":"6.86666670","longitude":"-1.25000000","name":"Akwasu"},{"id":"854178","latitude":"6.73333330","longitude":"-1.46666670","name":"Akyawkurom"},{"id":"854180","latitude":"6.45000000","longitude":"-1.31666670","name":"Akyease"},{"id":"854193","latitude":"6.86666670","longitude":"-1.76666670","name":"Akyena"},{"id":"854197","latitude":"6.73333330","longitude":"-1.53333330","name":"Akyiase"},{"id":"854200","latitude":"6.86666670","longitude":"-1.81666670","name":"Akyieso"},{"id":"854202","latitude":"6.66666670","longitude":"-1.46666670","name":"Akyinakurom"},{"id":"854204","latitude":"6.40000000","longitude":"-1.71666670","name":"Akyukyusu"},{"id":"854222","latitude":"6.23333330","longitude":"-1.80000000","name":"Alata"},{"id":"854252","latitude":"6.51666670","longitude":"-2.93333330","name":"Aluakra"},{"id":"854272","latitude":"6.33333330","longitude":"-1.40000000","name":"Amamoso"},{"id":"854274","latitude":"6.26666670","longitude":"-1.70000000","name":"Amamum"},{"id":"854278","latitude":"6.58333330","longitude":"-1.85000000","name":"Amanchia"},{"id":"854289","latitude":"6.55000000","longitude":"-1.31666670","name":"Amanfrum"},{"id":"854290","latitude":"6.55000000","longitude":"-1.31666670","name":"Amanfru Town"},{"id":"854299","latitude":"6.58333330","longitude":"-1.85000000","name":"Amanhia"},{"id":"854303","latitude":"6.98333330","longitude":"-1.81666670","name":"Amanin"},{"id":"854307","latitude":"6.95000000","longitude":"-2.13333330","name":"Amankwakrom"},{"id":"854309","latitude":"6.58333330","longitude":"-1.85000000","name":"Amankyia"},{"id":"854315","latitude":"6.80000000","longitude":"-1.46666670","name":"Amanpe"},{"id":"854318","latitude":"6.56666670","longitude":"-1.51666670","name":"Amansi Jachi"},{"id":"854319","latitude":"6.76666670","longitude":"-1.13333330","name":"Amantana"},{"id":"854321","latitude":"6.76666670","longitude":"-1.13333330","name":"Amantema"},{"id":"854324","latitude":"7.53333330","longitude":"-1.23333330","name":"Amanten"},{"id":"854326","latitude":"7.53333330","longitude":"-1.23333330","name":"Amantin"},{"id":"854336","latitude":"6.86666670","longitude":"-1.20000000","name":"Amawbra"},{"id":"854363","latitude":"6.48333330","longitude":"-1.36666670","name":"Amekom"},{"id":"854364","latitude":"6.85000000","longitude":"-1.86666670","name":"Amekomfokrom"},{"id":"854365","latitude":"6.41666670","longitude":"-1.00000000","name":"Amenam"},{"id":"854367","latitude":"6.21666670","longitude":"-1.16666670","name":"Amentia"},{"id":"854380","latitude":"6.41666670","longitude":"-1.00000000","name":"Aminam Amanfrom"},{"id":"854387","latitude":"6.83333330","longitude":"-1.70000000","name":"Amisare"},{"id":"854398","latitude":"6.66666670","longitude":"-1.41666670","name":"Amoadu"},{"id":"854399","latitude":"6.45000000","longitude":"-1.56666670","name":"Amoafo"},{"id":"854401","latitude":"6.45000000","longitude":"-1.56666670","name":"Amoaful"},{"id":"854402","latitude":"6.93333330","longitude":"-1.61666670","name":"Amoako"},{"id":"854405","latitude":"6.93333330","longitude":"-1.61666670","name":"Amoaku"},{"id":"854406","latitude":"6.91666670","longitude":"-1.78333330","name":"Amoakukrom"},{"id":"854409","latitude":"6.85000000","longitude":"-1.05000000","name":"Amoakutu"},{"id":"854411","latitude":"7.08333330","longitude":"-1.31666670","name":"Amoaman"},{"id":"854413","latitude":"7.08333330","longitude":"-1.31666670","name":"Amoamang"},{"id":"854415","latitude":"6.41666670","longitude":"-1.61666670","name":"Amoamo"},{"id":"854422","latitude":"6.90000000","longitude":"-1.20000000","name":"Amobia"},{"id":"854431","latitude":"6.33333330","longitude":"-1.40000000","name":"Amomorso"},{"id":"854441","latitude":"6.95000000","longitude":"-1.68333330","name":"Amowi"},{"id":"854444","latitude":"6.95000000","longitude":"-1.68333330","name":"Amoyu"},{"id":"854445","latitude":"6.60000000","longitude":"-1.68333330","name":"Ampabame"},{"id":"854446","latitude":"6.60000000","longitude":"-1.68333330","name":"Ampabame Bebu"},{"id":"854447","latitude":"6.60000000","longitude":"-1.61666670","name":"Ampabami"},{"id":"854448","latitude":"6.60000000","longitude":"-1.61666670","name":"Ampabane"},{"id":"854468","latitude":"6.40000000","longitude":"-1.61666670","name":"Amponya"},{"id":"854474","latitude":"6.63333330","longitude":"-1.98333330","name":"Amrada"},{"id":"854475","latitude":"6.65000000","longitude":"-1.98333330","name":"Amrada Fetish"},{"id":"854477","latitude":"6.51666670","longitude":"-0.96666670","name":"Amua"},{"id":"854484","latitude":"6.66666670","longitude":"-1.53333330","name":"Amuna"},{"id":"854499","latitude":"6.83333330","longitude":"-1.95000000","name":"Anama"},{"id":"854510","latitude":"6.78333330","longitude":"-1.96666670","name":"Anane Akuraa"},{"id":"854512","latitude":"6.91666670","longitude":"-1.01666670","name":"Ananekurom"},{"id":"854513","latitude":"6.75000000","longitude":"-1.06666670","name":"Ananikrom"},{"id":"854515","latitude":"6.78333330","longitude":"-1.96666670","name":"Anankaso"},{"id":"854517","latitude":"7.01666670","longitude":"-1.35000000","name":"Ananso"},{"id":"854518","latitude":"6.53333330","longitude":"-1.76666670","name":"Anansugya"},{"id":"854519","latitude":"6.78333330","longitude":"-1.90000000","name":"Ananta"},{"id":"854536","latitude":"6.53333330","longitude":"-1.76666670","name":"Anensogya"},{"id":"854537","latitude":"6.53333330","longitude":"-1.76666670","name":"Anensuja"},{"id":"854550","latitude":"7.23333330","longitude":"-1.58333330","name":"Anginesu"},{"id":"854556","latitude":"6.95000000","longitude":"-1.01666670","name":"Angwentifi"},{"id":"854558","latitude":"6.85000000","longitude":"-1.71666670","name":"Angwoma Offinso"},{"id":"854559","latitude":"6.85000000","longitude":"-1.71666670","name":"Angwoma Ofinso"},{"id":"854565","latitude":"6.13333330","longitude":"-1.46666670","name":"Anhwiaso"},{"id":"854567","latitude":"6.61666670","longitude":"-2.03333330","name":"Aniafoto"},{"id":"854569","latitude":"6.53333330","longitude":"-2.05000000","name":"Aniamoa"},{"id":"854571","latitude":"6.96666670","longitude":"-1.73333330","name":"Aniante"},{"id":"854574","latitude":"6.41666670","longitude":"-1.76666670","name":"Aniatentem"},{"id":"854575","latitude":"6.41666670","longitude":"-1.76666670","name":"Aniatitem"},{"id":"854583","latitude":"6.88333330","longitude":"-1.26666670","name":"Aninenya"},{"id":"854584","latitude":"6.80000000","longitude":"-1.75000000","name":"Aninkroma"},{"id":"854585","latitude":"6.75000000","longitude":"-1.15000000","name":"Aninsua"},{"id":"854590","latitude":"6.15000000","longitude":"-1.38333330","name":"Anitua"},{"id":"854593","latitude":"6.38333330","longitude":"-1.56666670","name":"Ankaase"},{"id":"854596","latitude":"7.10000000","longitude":"-1.31666670","name":"Ankamadoa"},{"id":"854597","latitude":"6.40000000","longitude":"-1.86666670","name":"Ankam"},{"id":"854600","latitude":"6.85000000","longitude":"-1.55000000","name":"Ankase"},{"id":"854601","latitude":"6.38333330","longitude":"-1.56666670","name":"Ankasi"},{"id":"854605","latitude":"6.65000000","longitude":"-0.58333330","name":"Ankoma"},{"id":"854612","latitude":"6.65000000","longitude":"-0.58333330","name":"Ankuma"},{"id":"854613","latitude":"7.10000000","longitude":"-1.31666670","name":"Ankumadua"},{"id":"854630","latitude":"6.86666670","longitude":"-1.68333330","name":"Anohenekrom"},{"id":"854638","latitude":"6.71666670","longitude":"-1.65000000","name":"Anomanye"},{"id":"854652","latitude":"6.75000000","longitude":"-1.51666670","name":"Antoa"},{"id":"854653","latitude":"6.45000000","longitude":"-1.80000000","name":"Antoakrom"},{"id":"854654","latitude":"6.45000000","longitude":"-1.80000000","name":"Antoakurom"},{"id":"854656","latitude":"6.45000000","longitude":"-1.80000000","name":"Antobiakrom"},{"id":"854670","latitude":"6.66666670","longitude":"-1.53333330","name":"Anuma"},{"id":"854673","latitude":"6.41666670","longitude":"-1.41666670","name":"Anumansa"},{"id":"854675","latitude":"6.61666670","longitude":"-1.08333330","name":"Anum"},{"id":"854678","latitude":"6.71666670","longitude":"-1.65000000","name":"Anumanye"},{"id":"854684","latitude":"6.73333330","longitude":"-1.23333330","name":"Anumso"},{"id":"854686","latitude":"6.43333330","longitude":"-1.30000000","name":"Anunso"},{"id":"854687","latitude":"6.43333330","longitude":"-1.30000000","name":"Anunuso"},{"id":"854690","latitude":"6.46666670","longitude":"-1.63333330","name":"Anweankwanta"},{"id":"854693","latitude":"6.40000000","longitude":"-1.63333330","name":"Anwia"},{"id":"854695","latitude":"6.61666670","longitude":"-2.03333330","name":"Anwiafutu"},{"id":"854697","latitude":"6.41666670","longitude":"-1.61666670","name":"Anwiam"},{"id":"854700","latitude":"6.46666670","longitude":"-1.63333330","name":"Anwiankwanta"},{"id":"854704","latitude":"6.13333330","longitude":"-1.46666670","name":"Anwiaso"},{"id":"854707","latitude":"6.60000000","longitude":"-2.40000000","name":"Anwiem"},{"id":"854710","latitude":"6.98333330","longitude":"-1.76666670","name":"Anwiesu"},{"id":"854713","latitude":"6.85000000","longitude":"-1.71666670","name":"Anwoma"},{"id":"854715","latitude":"6.70000000","longitude":"-1.53333330","name":"Anwomaso"},{"id":"854716","latitude":"6.70000000","longitude":"-1.53333330","name":"Anwuinaso"},{"id":"854717","latitude":"6.70000000","longitude":"-1.53333330","name":"Anwumaso"},{"id":"854727","latitude":"6.91666670","longitude":"-1.68333330","name":"Anyankasu"},{"id":"854728","latitude":"6.40000000","longitude":"-1.31666670","name":"Anyanso"},{"id":"854734","latitude":"6.50000000","longitude":"-1.45000000","name":"Anyatiase"},{"id":"854735","latitude":"6.50000000","longitude":"-1.45000000","name":"Anyatiasi"},{"id":"854736","latitude":"6.73333330","longitude":"-1.08333330","name":"Anyawuokrom"},{"id":"854750","latitude":"6.18333330","longitude":"-1.68333330","name":"Anyinam"},{"id":"854752","latitude":"6.65000000","longitude":"-1.90000000","name":"Anyinamso"},{"id":"854754","latitude":"6.40000000","longitude":"-1.33333330","name":"Anyinase"},{"id":"854759","latitude":"6.70000000","longitude":"-2.01666670","name":"Anyinaso"},{"id":"854762","latitude":"7.23333330","longitude":"-1.58333330","name":"Anyinasu"},{"id":"854764","latitude":"6.95000000","longitude":"-2.10000000","name":"Anyinasuso"},{"id":"854765","latitude":"7.23333330","longitude":"-1.58333330","name":"Anyinesu"},{"id":"854769","latitude":"7.41666670","longitude":"-0.86666670","name":"Anyinofi"},{"id":"854772","latitude":"6.18333330","longitude":"-1.68333330","name":"Anymam"},{"id":"854774","latitude":"6.73333330","longitude":"-1.08333330","name":"Anyowuokrom"},{"id":"854776","latitude":"6.60000000","longitude":"-2.40000000","name":"Anyuam"},{"id":"854780","latitude":"6.96666670","longitude":"-1.45000000","name":"Apa"},{"id":"854781","latitude":"6.43333330","longitude":"-1.61666670","name":"Apaaso"},{"id":"854782","latitude":"6.81666670","longitude":"-1.66666670","name":"Apagya"},{"id":"854785","latitude":"6.81666670","longitude":"-1.66666670","name":"Apaja"},{"id":"854791","latitude":"6.53333330","longitude":"-1.16666670","name":"Apango"},{"id":"854792","latitude":"6.93333330","longitude":"-1.93333330","name":"Apanimadi"},{"id":"854796","latitude":"7.38333330","longitude":"-0.61666670","name":"Apapaso"},{"id":"854799","latitude":"6.43333330","longitude":"-1.61666670","name":"Apaso"},{"id":"854808","latitude":"7.66666670","longitude":"-0.96666670","name":"Apebiachire Mem"},{"id":"854814","latitude":"6.75000000","longitude":"-1.41666670","name":"Apemso"},{"id":"854816","latitude":"6.46666670","longitude":"-1.45000000","name":"Apemtu"},{"id":"854828","latitude":"6.46666670","longitude":"-1.43333330","name":"Apewu"},{"id":"854829","latitude":"6.66666670","longitude":"-1.53333330","name":"Apiadu"},{"id":"854834","latitude":"6.55000000","longitude":"-1.10000000","name":"Apianyinase"},{"id":"854835","latitude":"6.55000000","longitude":"-1.10000000","name":"Apianyinoso"},{"id":"854844","latitude":"6.53333330","longitude":"-1.53333330","name":"Apinkra"},{"id":"854848","latitude":"6.18333330","longitude":"-1.73333330","name":"Apitiso"},{"id":"854849","latitude":"6.18333330","longitude":"-1.73333330","name":"Apitisu Number 2"},{"id":"854862","latitude":"6.38333330","longitude":"-1.90000000","name":"Aponapona"},{"id":"854863","latitude":"6.38333330","longitude":"-1.90000000","name":"Aponapon"},{"id":"854876","latitude":"6.53333330","longitude":"-0.86666670","name":"Apradan"},{"id":"854877","latitude":"6.53333330","longitude":"-0.86666670","name":"Apradang"},{"id":"854884","latitude":"6.66666670","longitude":"-1.50000000","name":"Aprumase"},{"id":"854885","latitude":"6.66666670","longitude":"-1.50000000","name":"Aprumasi"},{"id":"854887","latitude":"6.71666670","longitude":"-1.86666670","name":"Apuayem"},{"id":"854890","latitude":"6.60000000","longitude":"-1.55000000","name":"Aputuoagya"},{"id":"854891","latitude":"6.60000000","longitude":"-1.55000000","name":"Aputuoja"},{"id":"854909","latitude":"6.90000000","longitude":"-1.43333330","name":"Asaaman"},{"id":"854910","latitude":"7.11666670","longitude":"-1.46666670","name":"Asaam"},{"id":"854925","latitude":"6.61666670","longitude":"-0.68333330","name":"Asakraka"},{"id":"854928","latitude":"6.25000000","longitude":"-1.50000000","name":"Asakwa"},{"id":"854931","latitude":"6.31666670","longitude":"-1.41666670","name":"Asamama"},{"id":"854933","latitude":"6.43333330","longitude":"-1.86666670","name":"Asaman"},{"id":"854937","latitude":"6.43333330","longitude":"-1.86666670","name":"Asamang"},{"id":"854940","latitude":"6.73333330","longitude":"-1.50000000","name":"Asamang-Krofuso"},{"id":"854941","latitude":"6.73333330","longitude":"-1.50000000","name":"Asamang-Krotuso"},{"id":"854943","latitude":"6.28333330","longitude":"-1.61666670","name":"Asamangsua"},{"id":"854945","latitude":"6.93333330","longitude":"-1.66666670","name":"Asamankama"},{"id":"854947","latitude":"6.73333330","longitude":"-1.50000000","name":"Asaman Krofuso"},{"id":"854948","latitude":"6.93333330","longitude":"-1.66666670","name":"Asamankuma"},{"id":"854949","latitude":"6.28333330","longitude":"-1.61666670","name":"Asamansua"},{"id":"854950","latitude":"6.91666670","longitude":"-1.81666670","name":"Asamari"},{"id":"854956","latitude":"6.63333330","longitude":"-0.96666670","name":"Asampaneye Number 1"},{"id":"854964","latitude":"6.60000000","longitude":"-1.05000000","name":"Asankare"},{"id":"854965","latitude":"6.60000000","longitude":"-1.05000000","name":"Asankari"},{"id":"854973","latitude":"6.46666670","longitude":"-1.58333330","name":"Asanso"},{"id":"854976","latitude":"6.30000000","longitude":"-2.00000000","name":"Asantekurom"},{"id":"854984","latitude":"6.30000000","longitude":"-2.00000000","name":"Asantikrom"},{"id":"854986","latitude":"6.30000000","longitude":"-2.00000000","name":"Asantikrom Besiasi"},{"id":"854989","latitude":"7.73333330","longitude":"-0.66666670","name":"Asanyakro"},{"id":"854990","latitude":"7.73333330","longitude":"-0.66666670","name":"Asanyakrom"},{"id":"854993","latitude":"6.70000000","longitude":"-1.43333330","name":"Asapon"},{"id":"854994","latitude":"6.70000000","longitude":"-1.43333330","name":"Asapong"},{"id":"854998","latitude":"6.50000000","longitude":"-1.80000000","name":"Asarekrom"},{"id":"855000","latitude":"6.50000000","longitude":"-1.80000000","name":"Asarekurom"},{"id":"855011","latitude":"6.81666670","longitude":"-1.50000000","name":"Asawromaso"},{"id":"855012","latitude":"7.05000000","longitude":"-0.51666670","name":"Asayensu"},{"id":"855018","latitude":"7.36666670","longitude":"-0.70000000","name":"Asebum"},{"id":"855021","latitude":"6.43333330","longitude":"-1.51666670","name":"Asechere"},{"id":"855022","latitude":"6.90000000","longitude":"-1.35000000","name":"Asecherewa"},{"id":"855026","latitude":"6.90000000","longitude":"-1.35000000","name":"Asekyerewa"},{"id":"855028","latitude":"7.11666670","longitude":"-1.46666670","name":"Asem"},{"id":"855034","latitude":"6.21666670","longitude":"-1.60000000","name":"Asempanaye"},{"id":"855036","latitude":"6.21666670","longitude":"-1.60000000","name":"Asempaneye"},{"id":"855049","latitude":"6.45000000","longitude":"-1.00000000","name":"Aseni Akrofunso"},{"id":"855051","latitude":"6.86666670","longitude":"-1.53333330","name":"Asenyabun Number 3"},{"id":"855052","latitude":"6.86666670","longitude":"-1.53333330","name":"Asenyebun"},{"id":"855061","latitude":"6.96666670","longitude":"-1.76666670","name":"Asesua"},{"id":"855089","latitude":"6.36666670","longitude":"-1.46666670","name":"Asibuokrom"},{"id":"855092","latitude":"6.65000000","longitude":"-1.45000000","name":"Asiempong"},{"id":"855093","latitude":"6.65000000","longitude":"-1.45000000","name":"Asienimpon"},{"id":"855097","latitude":"6.36666670","longitude":"-1.61666670","name":"Asikaso"},{"id":"855099","latitude":"6.36666670","longitude":"-1.61666670","name":"Asikasu"},{"id":"855102","latitude":"6.83333330","longitude":"-1.25000000","name":"Asikawa"},{"id":"855127","latitude":"6.76666670","longitude":"-1.58333330","name":"Asinua"},{"id":"855130","latitude":"6.53333330","longitude":"-1.40000000","name":"Asisiriwa"},{"id":"855134","latitude":"6.41666670","longitude":"-1.33333330","name":"Asiwa"},{"id":"855140","latitude":"6.40000000","longitude":"-1.48333330","name":"Asokore"},{"id":"855142","latitude":"6.70000000","longitude":"-1.56666670","name":"Asokore Mampon"},{"id":"855143","latitude":"6.85000000","longitude":"-1.38333330","name":"Asokori"},{"id":"855145","latitude":"6.70000000","longitude":"-1.56666670","name":"Asokori Mampon"},{"id":"855146","latitude":"6.70000000","longitude":"-1.56666670","name":"Asokori Mampong"},{"id":"855148","latitude":"6.25000000","longitude":"-1.50000000","name":"Asokwa"},{"id":"855152","latitude":"6.91666670","longitude":"-1.81666670","name":"Asomori"},{"id":"855154","latitude":"6.81666670","longitude":"-1.50000000","name":"Asonomaso"},{"id":"855155","latitude":"6.81666670","longitude":"-1.50000000","name":"Asoromaso"},{"id":"855156","latitude":"6.85000000","longitude":"-1.16666670","name":"Asoso"},{"id":"855159","latitude":"6.75000000","longitude":"-1.45000000","name":"Asotwe"},{"id":"855162","latitude":"6.70000000","longitude":"-1.71666670","name":"Asrimaso"},{"id":"855163","latitude":"6.70000000","longitude":"-1.71666670","name":"Asromaso"},{"id":"855168","latitude":"6.43333330","longitude":"-1.51666670","name":"Assekyere"},{"id":"855175","latitude":"6.70000000","longitude":"-1.66666670","name":"Asuabua"},{"id":"855176","latitude":"6.41666670","longitude":"-1.93333330","name":"Asuadai"},{"id":"855178","latitude":"6.98333330","longitude":"-1.38333330","name":"Asuafua"},{"id":"855184","latitude":"7.45000000","longitude":"-1.65000000","name":"Asuano"},{"id":"855187","latitude":"6.55000000","longitude":"-2.96666670","name":"Asuanta"},{"id":"855188","latitude":"6.68333330","longitude":"-1.48333330","name":"Asuase"},{"id":"855189","latitude":"6.68333330","longitude":"-1.48333330","name":"Asuasi"},{"id":"855190","latitude":"7.26666670","longitude":"-1.81666670","name":"Asuaso"},{"id":"855192","latitude":"7.26666670","longitude":"-1.81666670","name":"Asuasu"},{"id":"855196","latitude":"6.56666670","longitude":"-1.03333330","name":"Asuboa"},{"id":"855205","latitude":"7.36666670","longitude":"-0.70000000","name":"Asubon"},{"id":"855218","latitude":"6.56666670","longitude":"-1.03333330","name":"Asubua"},{"id":"855219","latitude":"7.31666670","longitude":"-1.23333330","name":"Asubuaso"},{"id":"855220","latitude":"6.36666670","longitude":"-1.46666670","name":"Asubuokrom"},{"id":"855221","latitude":"7.31666670","longitude":"-1.23333330","name":"Asubwaso"},{"id":"855223","latitude":"6.75000000","longitude":"-1.45000000","name":"Asuchwi"},{"id":"855225","latitude":"6.55000000","longitude":"-2.96666670","name":"Asuentaa"},{"id":"855231","latitude":"6.81666670","longitude":"-1.33333330","name":"Asukawkaw"},{"id":"855236","latitude":"6.81666670","longitude":"-1.33333330","name":"Asukokoo"},{"id":"855239","latitude":"6.83333330","longitude":"-1.71666670","name":"Asumagya"},{"id":"855240","latitude":"7.46666670","longitude":"-1.36666670","name":"Asumen"},{"id":"855243","latitude":"6.80000000","longitude":"-1.58333330","name":"Asuminya"},{"id":"855244","latitude":"6.91666670","longitude":"-1.60000000","name":"Asumjwi"},{"id":"855245","latitude":"6.85000000","longitude":"-1.18333330","name":"Asumkrom"},{"id":"855247","latitude":"6.88333330","longitude":"-1.08333330","name":"Asunafo"},{"id":"855259","latitude":"6.70000000","longitude":"-1.66666670","name":"Asuoboa"},{"id":"855261","latitude":"6.76666670","longitude":"-1.68333330","name":"Asuofa"},{"id":"855262","latitude":"6.76666670","longitude":"-1.68333330","name":"Asuofia"},{"id":"855267","latitude":"6.60000000","longitude":"-1.86666670","name":"Asuoja"},{"id":"855270","latitude":"6.60000000","longitude":"-1.86666670","name":"Asuoju"},{"id":"855271","latitude":"6.51666670","longitude":"-1.90000000","name":"Asuokaw Aboi"},{"id":"855272","latitude":"6.51666670","longitude":"-1.90000000","name":"Asuokaw"},{"id":"855285","latitude":"7.31666670","longitude":"-1.23333330","name":"Asuowaso"},{"id":"855287","latitude":"6.70000000","longitude":"-1.43333330","name":"Asupong"},{"id":"855297","latitude":"6.95000000","longitude":"-1.85000000","name":"Atabireso"},{"id":"855301","latitude":"6.48333330","longitude":"-1.38333330","name":"Atafram"},{"id":"855303","latitude":"6.53333330","longitude":"-1.20000000","name":"Atakofikrom"},{"id":"855306","latitude":"6.83333330","longitude":"-1.30000000","name":"Atakrom"},{"id":"855307","latitude":"6.83333330","longitude":"-1.30000000","name":"Atakurom"},{"id":"855312","latitude":"6.76666670","longitude":"-0.78333330","name":"Ataneata Number 1"},{"id":"855313","latitude":"6.76666670","longitude":"-0.78333330","name":"Ataniata"},{"id":"855314","latitude":"6.80000000","longitude":"-1.10000000","name":"Atara"},{"id":"855319","latitude":"6.91666670","longitude":"-1.95000000","name":"Atasi"},{"id":"855322","latitude":"6.63333330","longitude":"-1.63333330","name":"Atasomanso"},{"id":"855323","latitude":"6.63333330","longitude":"-1.63333330","name":"Atasumanso"},{"id":"855324","latitude":"6.28333330","longitude":"-1.46666670","name":"Atatem"},{"id":"855325","latitude":"6.46666670","longitude":"-1.76666670","name":"Atawbrakrom"},{"id":"855329","latitude":"7.75000000","longitude":"-0.98333330","name":"Atebubu"},{"id":"855335","latitude":"6.73333330","longitude":"-1.15000000","name":"Atem"},{"id":"855341","latitude":"6.53333330","longitude":"-2.90000000","name":"Ateso"},{"id":"855348","latitude":"6.58333330","longitude":"-0.73333330","name":"Atibie"},{"id":"855364","latitude":"6.28333330","longitude":"-1.46666670","name":"Atitam"},{"id":"855378","latitude":"6.38333330","longitude":"-1.70000000","name":"Atoalima"},{"id":"855382","latitude":"6.38333330","longitude":"-1.61666670","name":"Atobiase"},{"id":"855384","latitude":"6.38333330","longitude":"-1.61666670","name":"Atobiasi"},{"id":"855392","latitude":"6.83333330","longitude":"-1.30000000","name":"Atokrom"},{"id":"855398","latitude":"7.01666670","longitude":"-1.31666670","name":"Atonso"},{"id":"855400","latitude":"7.25000000","longitude":"-1.43333330","name":"Atonsuagya"},{"id":"855401","latitude":"6.65000000","longitude":"-1.60000000","name":"Atonsu"},{"id":"855408","latitude":"6.80000000","longitude":"-1.63333330","name":"Atrama"},{"id":"855427","latitude":"7.75000000","longitude":"-0.98333330","name":"Attebubu"},{"id":"855429","latitude":"6.70000000","longitude":"-1.40000000","name":"Attia"},{"id":"855436","latitude":"7.28333330","longitude":"-1.40000000","name":"Atunso"},{"id":"855437","latitude":"7.25000000","longitude":"-1.43333330","name":"Atunsuso"},{"id":"855438","latitude":"6.45000000","longitude":"-2.01666670","name":"Atuntuma"},{"id":"855441","latitude":"6.28333330","longitude":"-1.46666670","name":"Atutom"},{"id":"855442","latitude":"6.45000000","longitude":"-2.01666670","name":"Atutuma"},{"id":"855445","latitude":"6.60000000","longitude":"-1.08333330","name":"Atwedee"},{"id":"855449","latitude":"6.96666670","longitude":"-1.38333330","name":"Atwia"},{"id":"855451","latitude":"6.46666670","longitude":"-1.86666670","name":"Atwidie"},{"id":"855460","latitude":"6.95000000","longitude":"-1.78333330","name":"Aurapong"},{"id":"855550","latitude":"6.76666670","longitude":"-1.28333330","name":"Awaham"},{"id":"855568","latitude":"6.58333330","longitude":"-0.81666670","name":"Awenadi"},{"id":"855570","latitude":"6.58333330","longitude":"-0.81666670","name":"Awennade"},{"id":"855575","latitude":"6.76666670","longitude":"-1.20000000","name":"Awiakrom"},{"id":"855576","latitude":"6.41666670","longitude":"-1.61666670","name":"Awiam"},{"id":"855582","latitude":"6.56666670","longitude":"-0.90000000","name":"Awiregya"},{"id":"855583","latitude":"6.56666670","longitude":"-0.90000000","name":"Awireja"},{"id":"855616","latitude":"6.26666670","longitude":"-1.85000000","name":"Awuransa"},{"id":"855618","latitude":"7.21666670","longitude":"-1.40000000","name":"Awuraso"},{"id":"855620","latitude":"6.93333330","longitude":"-1.16666670","name":"Awurawso"},{"id":"855638","latitude":"6.91666670","longitude":"-1.68333330","name":"Ayankasin"},{"id":"855639","latitude":"6.28333330","longitude":"-1.53333330","name":"Ayasi"},{"id":"855644","latitude":"7.00000000","longitude":"-1.56666670","name":"Ayebo"},{"id":"855646","latitude":"6.66666670","longitude":"-1.56666670","name":"Ayeduase"},{"id":"855647","latitude":"6.66666670","longitude":"-1.56666670","name":"Ayeduasi"},{"id":"855653","latitude":"6.26666670","longitude":"-1.70000000","name":"Ayenkyerem"},{"id":"855656","latitude":"6.90000000","longitude":"-1.66666670","name":"Ayensua Fufuo"},{"id":"855658","latitude":"6.90000000","longitude":"-1.66666670","name":"Ayensua Kawkaw"},{"id":"855660","latitude":"6.90000000","longitude":"-1.66666670","name":"Ayensua Kokoo"},{"id":"855664","latitude":"7.48333330","longitude":"-1.63333330","name":"Ayerede"},{"id":"855666","latitude":"6.16666670","longitude":"-1.61666670","name":"Ayiase"},{"id":"855667","latitude":"6.16666670","longitude":"-1.61666670","name":"Ayiasi"},{"id":"855672","latitude":"6.68333330","longitude":"-1.56666670","name":"Ayija"},{"id":"855679","latitude":"7.41666670","longitude":"-0.86666670","name":"Ayinwafe"},{"id":"855680","latitude":"7.41666670","longitude":"-0.86666670","name":"Ayinwofi"},{"id":"855688","latitude":"6.16666670","longitude":"-1.48333330","name":"Ayokua Brofoyedru"},{"id":"855689","latitude":"6.16666670","longitude":"-1.48333330","name":"Ayokwa Brofoyeduru"},{"id":"855692","latitude":"6.81666670","longitude":"-1.05000000","name":"Ayongkura"},{"id":"855694","latitude":"6.21666670","longitude":"-1.28333330","name":"Ayowaho Number 1"},{"id":"855695","latitude":"6.21666670","longitude":"-1.28333330","name":"Ayowahu"},{"id":"855724","latitude":"7.45000000","longitude":"-1.66666670","name":"Baanofuo"},{"id":"855729","latitude":"7.00000000","longitude":"-1.53333330","name":"Bababra"},{"id":"855733","latitude":"7.40000000","longitude":"-1.28333330","name":"Babaso"},{"id":"855755","latitude":"6.60000000","longitude":"-1.21666670","name":"Badukrom"},{"id":"855788","latitude":"6.15000000","longitude":"-1.43333330","name":"Bajiwi"},{"id":"855789","latitude":"6.15000000","longitude":"-1.43333330","name":"Bajwi"},{"id":"855796","latitude":"6.60000000","longitude":"-2.21666670","name":"Bakoniaba"},{"id":"855837","latitude":"6.78333330","longitude":"-1.45000000","name":"Baman"},{"id":"855839","latitude":"6.78333330","longitude":"-1.45000000","name":"Bamang"},{"id":"855848","latitude":"6.56666670","longitude":"-2.01666670","name":"Bamiankaw"},{"id":"855855","latitude":"6.78333330","longitude":"-1.58333330","name":"Bamparasi"},{"id":"855857","latitude":"6.78333330","longitude":"-1.58333330","name":"Bampinase"},{"id":"855888","latitude":"6.88333330","longitude":"-1.95000000","name":"Baniekrom"},{"id":"855889","latitude":"6.88333330","longitude":"-1.95000000","name":"Baniekurom"},{"id":"855894","latitude":"6.30000000","longitude":"-1.21666670","name":"Banka"},{"id":"855898","latitude":"6.45000000","longitude":"-1.21666670","name":"Bankame"},{"id":"855900","latitude":"6.93333330","longitude":"-1.38333330","name":"Banko"},{"id":"855913","latitude":"7.45000000","longitude":"-1.66666670","name":"Banofuo"},{"id":"855918","latitude":"6.46666670","longitude":"-1.20000000","name":"Banso"},{"id":"855922","latitude":"6.70000000","longitude":"-1.63333330","name":"Bantama"},{"id":"855937","latitude":"8.16666670","longitude":"-0.75000000","name":"Barache"},{"id":"855945","latitude":"6.81666670","longitude":"-1.76666670","name":"Bari"},{"id":"855948","latitude":"6.85000000","longitude":"-1.73333330","name":"Bari Kese"},{"id":"855949","latitude":"6.81666670","longitude":"-1.76666670","name":"Barikuma"},{"id":"855970","latitude":"6.93333330","longitude":"-1.81666670","name":"Baso"},{"id":"855980","latitude":"6.65000000","longitude":"-1.35000000","name":"Batanpemniba"},{"id":"855981","latitude":"6.65000000","longitude":"-1.35000000","name":"Batanpenimba"},{"id":"856004","latitude":"6.23333330","longitude":"-1.25000000","name":"Bawbinso"},{"id":"856005","latitude":"6.31666670","longitude":"-1.71666670","name":"Bawbu"},{"id":"856010","latitude":"6.55000000","longitude":"-1.81666670","name":"Bawdiasi"},{"id":"856016","latitude":"6.98333330","longitude":"-1.83333330","name":"Bawhianawa"},{"id":"856017","latitude":"6.98333330","longitude":"-1.83333330","name":"Bawhiankwa"},{"id":"856022","latitude":"6.91666670","longitude":"-1.33333330","name":"Bawjwiasi"},{"id":"856027","latitude":"6.86666670","longitude":"-1.25000000","name":"Bawmkawkaw"},{"id":"856029","latitude":"6.73333330","longitude":"-1.50000000","name":"Baworo"},{"id":"856047","latitude":"6.61666670","longitude":"-1.68333330","name":"Bebu"},{"id":"856056","latitude":"6.90000000","longitude":"-1.83333330","name":"Bechikrom"},{"id":"856058","latitude":"6.71666670","longitude":"-1.88333330","name":"Bedabookurom"},{"id":"856059","latitude":"6.71666670","longitude":"-1.88333330","name":"Bedabuokrom"},{"id":"856068","latitude":"6.68333330","longitude":"-1.88333330","name":"Bedifi"},{"id":"856069","latitude":"6.95000000","longitude":"-1.50000000","name":"Bedomasi"},{"id":"856070","latitude":"6.61666670","longitude":"-1.68333330","name":"Bedu"},{"id":"856076","latitude":"6.76666670","longitude":"-1.11666670","name":"Befwe"},{"id":"856081","latitude":"6.36666670","longitude":"-1.61666670","name":"Begroase"},{"id":"856083","latitude":"6.76666670","longitude":"-1.11666670","name":"Behwe"},{"id":"856089","latitude":"6.36666670","longitude":"-1.61666670","name":"Bejuasi"},{"id":"856092","latitude":"6.45000000","longitude":"-1.58333330","name":"Bekawi"},{"id":"856096","latitude":"6.45000000","longitude":"-1.58333330","name":"Bekwai"},{"id":"856098","latitude":"6.58333330","longitude":"-1.65000000","name":"Bekwami"},{"id":"856099","latitude":"6.58333330","longitude":"-1.65000000","name":"Bekwamin"},{"id":"856119","latitude":"7.16666670","longitude":"-1.58333330","name":"Bemi"},{"id":"856137","latitude":"7.08333330","longitude":"-1.46666670","name":"Benim"},{"id":"856140","latitude":"6.43333330","longitude":"-1.50000000","name":"Benkwakwa"},{"id":"856146","latitude":"6.46666670","longitude":"-1.78333330","name":"Bensuaso"},{"id":"856147","latitude":"6.56666670","longitude":"-2.01666670","name":"Bentenko"},{"id":"856164","latitude":"7.08333330","longitude":"-1.55000000","name":"Bepasi"},{"id":"856165","latitude":"6.81666670","longitude":"-1.85000000","name":"Bepawso"},{"id":"856168","latitude":"7.08333330","longitude":"-1.55000000","name":"Bepoase"},{"id":"856172","latitude":"6.26666670","longitude":"-1.48333330","name":"Bepoasi"},{"id":"856177","latitude":"6.60000000","longitude":"-0.71666670","name":"Bepon"},{"id":"856178","latitude":"6.60000000","longitude":"-0.71666670","name":"Bepong"},{"id":"856179","latitude":"6.45000000","longitude":"-1.45000000","name":"Beposo"},{"id":"856182","latitude":"6.16666670","longitude":"-1.56666670","name":"Bepotifi"},{"id":"856193","latitude":"7.23333330","longitude":"-0.98333330","name":"Berem"},{"id":"856196","latitude":"7.08333330","longitude":"-1.96666670","name":"Beremi"},{"id":"856197","latitude":"6.85000000","longitude":"-1.31666670","name":"Bereporo"},{"id":"856207","latitude":"6.30000000","longitude":"-2.00000000","name":"Besease"},{"id":"856212","latitude":"6.23333330","longitude":"-1.65000000","name":"Besiasi"},{"id":"856218","latitude":"6.88333330","longitude":"-1.23333330","name":"Besoro"},{"id":"856229","latitude":"6.61666670","longitude":"-1.96666670","name":"Betinko"},{"id":"856231","latitude":"6.95000000","longitude":"-1.93333330","name":"Betinku"},{"id":"856239","latitude":"6.78333330","longitude":"-1.91666670","name":"Beweahaha"},{"id":"856240","latitude":"6.78333330","longitude":"-1.91666670","name":"Beweahala"},{"id":"856253","latitude":"6.58333330","longitude":"-1.06666670","name":"Biakoyekrom"},{"id":"856265","latitude":"6.63333330","longitude":"-1.30000000","name":"Biasua"},{"id":"856275","latitude":"6.93333330","longitude":"-1.86666670","name":"Biemfatata"},{"id":"856276","latitude":"6.88333330","longitude":"-1.85000000","name":"Biemso"},{"id":"856277","latitude":"6.90000000","longitude":"-1.85000000","name":"Biemsokora"},{"id":"856278","latitude":"6.90000000","longitude":"-1.85000000","name":"Biemsokoru"},{"id":"856279","latitude":"6.93333330","longitude":"-1.86666670","name":"Biemtatata"},{"id":"856296","latitude":"6.66666670","longitude":"-1.15000000","name":"Bima"},{"id":"856299","latitude":"6.83333330","longitude":"-1.35000000","name":"Bima Number 1"},{"id":"856300","latitude":"6.85000000","longitude":"-1.33333330","name":"Bima Number 2"},{"id":"856306","latitude":"7.16666670","longitude":"-1.58333330","name":"Bimi"},{"id":"856307","latitude":"7.05000000","longitude":"-1.36666670","name":"Bimma"},{"id":"856308","latitude":"6.83333330","longitude":"-1.35000000","name":"Bimma Number 1"},{"id":"856309","latitude":"6.85000000","longitude":"-1.33333330","name":"Bimma Number 2"},{"id":"856337","latitude":"6.96666670","longitude":"-1.50000000","name":"Bipoa"},{"id":"856341","latitude":"6.33333330","longitude":"-1.65000000","name":"Biribiwoman"},{"id":"856342","latitude":"6.33333330","longitude":"-1.65000000","name":"Biribiwomang"},{"id":"856344","latitude":"6.85000000","longitude":"-1.21666670","name":"Birimpotia"},{"id":"856346","latitude":"6.88333330","longitude":"-1.03333330","name":"Birisa"},{"id":"856355","latitude":"6.40000000","longitude":"-1.60000000","name":"Bisiasi"},{"id":"856400","latitude":"7.70000000","longitude":"-1.70000000","name":"Boaben"},{"id":"856405","latitude":"6.98333330","longitude":"-1.83333330","name":"Boahenankwao"},{"id":"856409","latitude":"6.78333330","longitude":"-1.06666670","name":"Boakye Agoago"},{"id":"856410","latitude":"6.61666670","longitude":"-1.33333330","name":"Boamadumase"},{"id":"856411","latitude":"6.46666670","longitude":"-1.55000000","name":"Boaman"},{"id":"856412","latitude":"6.46666670","longitude":"-1.55000000","name":"Boamang"},{"id":"856414","latitude":"7.03333330","longitude":"-1.48333330","name":"Boanim"},{"id":"856415","latitude":"6.68333330","longitude":"-1.40000000","name":"Boankra"},{"id":"856416","latitude":"6.68333330","longitude":"-1.40000000","name":"Boankra Cottages"},{"id":"856420","latitude":"6.91666670","longitude":"-1.68333330","name":"Boasi"},{"id":"856423","latitude":"6.68333330","longitude":"-1.73333330","name":"Boaso"},{"id":"856424","latitude":"6.26666670","longitude":"-1.90000000","name":"Boatenkrom"},{"id":"856425","latitude":"6.26666670","longitude":"-1.90000000","name":"Boatenkurom"},{"id":"856427","latitude":"7.00000000","longitude":"-1.23333330","name":"Bobinasi"},{"id":"856429","latitude":"6.28333330","longitude":"-1.61666670","name":"Bobriase"},{"id":"856430","latitude":"6.46666670","longitude":"-1.91666670","name":"Bobuabo"},{"id":"856434","latitude":"6.51666670","longitude":"-1.38333330","name":"Bodekwano"},{"id":"856437","latitude":"6.88333330","longitude":"-1.26666670","name":"Bodomase"},{"id":"856438","latitude":"6.88333330","longitude":"-1.26666670","name":"Bodomasi"},{"id":"856440","latitude":"6.76666670","longitude":"-1.66666670","name":"Bodom-Boahung"},{"id":"856445","latitude":"6.91666670","longitude":"-1.33333330","name":"Bodwease"},{"id":"856446","latitude":"6.26666670","longitude":"-1.41666670","name":"Bodwesango"},{"id":"856447","latitude":"6.26666670","longitude":"-1.41666670","name":"Bodweseanwo"},{"id":"856468","latitude":"6.15000000","longitude":"-1.43333330","name":"Bogyawe"},{"id":"856479","latitude":"6.78333330","longitude":"-1.35000000","name":"Boiya"},{"id":"856483","latitude":"6.38333330","longitude":"-1.55000000","name":"Bojaiwa"},{"id":"856484","latitude":"6.26666670","longitude":"-1.41666670","name":"Bojasao"},{"id":"856485","latitude":"6.38333330","longitude":"-1.55000000","name":"Bojawi"},{"id":"856486","latitude":"6.26666670","longitude":"-1.41666670","name":"Bojisango"},{"id":"856492","latitude":"6.71666670","longitude":"-1.70000000","name":"Bokanchi"},{"id":"856508","latitude":"6.71666670","longitude":"-1.70000000","name":"Bokwankye"},{"id":"856539","latitude":"6.60000000","longitude":"-1.30000000","name":"Bomfa"},{"id":"856541","latitude":"6.68333330","longitude":"-1.21666670","name":"Bomhu"},{"id":"856543","latitude":"7.73333330","longitude":"-1.65000000","name":"Bomini"},{"id":"856549","latitude":"6.63333330","longitude":"-1.06666670","name":"Bompata"},{"id":"856553","latitude":"6.68333330","longitude":"-1.58333330","name":"Bomso"},{"id":"856565","latitude":"6.56666670","longitude":"-1.38333330","name":"Boneso"},{"id":"856577","latitude":"6.45000000","longitude":"-1.66666670","name":"Boni"},{"id":"856579","latitude":"7.03333330","longitude":"-1.48333330","name":"Bonim"},{"id":"856581","latitude":"6.56666670","longitude":"-1.38333330","name":"Boniso"},{"id":"856584","latitude":"6.95000000","longitude":"-2.11666670","name":"Bonkro"},{"id":"856585","latitude":"6.15000000","longitude":"-1.35000000","name":"Bonkrom"},{"id":"856586","latitude":"7.03333330","longitude":"-1.38333330","name":"Bonkron"},{"id":"856587","latitude":"6.96666670","longitude":"-0.56666670","name":"Bonkurom"},{"id":"856588","latitude":"6.73333330","longitude":"-1.95000000","name":"Bonkwaso 2"},{"id":"856589","latitude":"6.73333330","longitude":"-1.95000000","name":"Bonkwaso"},{"id":"856590","latitude":"6.73333330","longitude":"-1.95000000","name":"Bonkwaso Kuma"},{"id":"856600","latitude":"6.68333330","longitude":"-1.58333330","name":"Bonso"},{"id":"856602","latitude":"6.95000000","longitude":"-1.71666670","name":"Bonsua"},{"id":"856603","latitude":"6.95000000","longitude":"-1.71666670","name":"Bonsua Kawkaw"},{"id":"856604","latitude":"6.95000000","longitude":"-1.71666670","name":"Bonsua Kokoo"},{"id":"856605","latitude":"6.81666670","longitude":"-2.21666670","name":"Bonsuaso"},{"id":"856607","latitude":"7.73333330","longitude":"-1.66666670","name":"Bonte"},{"id":"856608","latitude":"6.53333330","longitude":"-1.96666670","name":"Bonteso"},{"id":"856611","latitude":"6.55000000","longitude":"-2.03333330","name":"Bontomruso"},{"id":"856612","latitude":"6.55000000","longitude":"-2.03333330","name":"Bontomuruso"},{"id":"856617","latitude":"6.78333330","longitude":"-1.46666670","name":"Bonwere"},{"id":"856618","latitude":"6.78333330","longitude":"-1.46666670","name":"Bonweri"},{"id":"856635","latitude":"7.23333330","longitude":"-0.98333330","name":"Borem"},{"id":"856649","latitude":"7.05000000","longitude":"-1.41666670","name":"Bosafo"},{"id":"856653","latitude":"7.05000000","longitude":"-1.41666670","name":"Bosofo"},{"id":"856654","latitude":"7.05000000","longitude":"-1.41666670","name":"Bosofoo"},{"id":"856657","latitude":"7.18333330","longitude":"-1.40000000","name":"Bosomkyekye"},{"id":"856660","latitude":"6.88333330","longitude":"-1.23333330","name":"Bosoro"},{"id":"856665","latitude":"6.45000000","longitude":"-1.43333330","name":"Bosuma"},{"id":"856668","latitude":"7.18333330","longitude":"-1.40000000","name":"Bosumcheche"},{"id":"856695","latitude":"6.55000000","longitude":"-2.03333330","name":"Bountemoso"},{"id":"856704","latitude":"6.55000000","longitude":"-2.03333330","name":"Bowtomoso"},{"id":"856707","latitude":"6.40000000","longitude":"-1.88333330","name":"Brabuo"},{"id":"856710","latitude":"6.20000000","longitude":"-1.63333330","name":"Brahababumi"},{"id":"856713","latitude":"6.20000000","longitude":"-1.63333330","name":"Brahabebome"},{"id":"856715","latitude":"7.46666670","longitude":"-1.73333330","name":"Braho"},{"id":"856716","latitude":"7.46666670","longitude":"-1.73333330","name":"Brahoho"},{"id":"856723","latitude":"6.73333330","longitude":"-1.88333330","name":"Brawsanko"},{"id":"856729","latitude":"6.73333330","longitude":"-1.63333330","name":"Breman"},{"id":"856732","latitude":"6.73333330","longitude":"-1.63333330","name":"Bremang"},{"id":"856736","latitude":"7.08333330","longitude":"-1.96666670","name":"Bremi"},{"id":"856746","latitude":"6.98333330","longitude":"-1.68333330","name":"Brenyakrom"},{"id":"856747","latitude":"6.85000000","longitude":"-1.31666670","name":"Brepaw"},{"id":"856753","latitude":"7.06666670","longitude":"-1.43333330","name":"Bresua"},{"id":"856754","latitude":"7.51666670","longitude":"-1.23333330","name":"Bresuano"},{"id":"856755","latitude":"7.51666670","longitude":"-1.23333330","name":"Bresuanu"},{"id":"856763","latitude":"6.80000000","longitude":"-1.93333330","name":"Brisaukrom"},{"id":"856767","latitude":"6.28333330","longitude":"-1.61666670","name":"Brobriasi"},{"id":"856769","latitude":"6.56666670","longitude":"-1.38333330","name":"Brodekwana Cottages"},{"id":"856770","latitude":"6.51666670","longitude":"-1.38333330","name":"Brodekwano"},{"id":"856774","latitude":"6.21666670","longitude":"-1.68333330","name":"Brofoyedru"},{"id":"856781","latitude":"6.25000000","longitude":"-1.48333330","name":"Brofoyeduru"},{"id":"856789","latitude":"6.83333330","longitude":"-1.86666670","name":"Bronikrom"},{"id":"856791","latitude":"6.83333330","longitude":"-1.86666670","name":"Bronikurom"},{"id":"856792","latitude":"6.73333330","longitude":"-1.88333330","name":"Brosanko"},{"id":"856796","latitude":"6.76666670","longitude":"-1.63333330","name":"Brukon"},{"id":"856804","latitude":"6.76666670","longitude":"-1.63333330","name":"Brunkum"},{"id":"856807","latitude":"6.43333330","longitude":"-1.48333330","name":"Buaben"},{"id":"856821","latitude":"6.61666670","longitude":"-1.33333330","name":"Buamadumasi"},{"id":"856822","latitude":"6.93333330","longitude":"-1.61666670","name":"Buamang"},{"id":"856827","latitude":"6.28333330","longitude":"-1.60000000","name":"Buda"},{"id":"856873","latitude":"6.66666670","longitude":"-1.70000000","name":"Buku"},{"id":"856878","latitude":"6.66666670","longitude":"-0.70000000","name":"Bukuruwa"},{"id":"856880","latitude":"6.28333330","longitude":"-1.76666670","name":"Bukwaman"},{"id":"856882","latitude":"6.66666670","longitude":"-0.70000000","name":"Bukwruwa"},{"id":"856933","latitude":"6.20000000","longitude":"-1.81666670","name":"Bunso"},{"id":"856940","latitude":"7.45000000","longitude":"-1.36666670","name":"Bunyum"},{"id":"856943","latitude":"6.73333330","longitude":"-1.58333330","name":"Buokrom"},{"id":"856946","latitude":"6.73333330","longitude":"-1.58333330","name":"Buokurom"},{"id":"856948","latitude":"7.63333330","longitude":"-1.61666670","name":"Buoso"},{"id":"856976","latitude":"7.68333330","longitude":"-1.66666670","name":"Busunya"},{"id":"856977","latitude":"6.41666670","longitude":"-1.31666670","name":"Bute"},{"id":"856985","latitude":"6.98333330","longitude":"-1.13333330","name":"Butuasi"},{"id":"857057","latitude":"7.01666670","longitude":"-1.35000000","name":"Chebi"},{"id":"857063","latitude":"6.56666670","longitude":"-1.23333330","name":"Checherebuaso"},{"id":"857065","latitude":"6.96666670","longitude":"-1.90000000","name":"Chechuamua"},{"id":"857066","latitude":"6.96666670","longitude":"-1.90000000","name":"Chechuamwa"},{"id":"857077","latitude":"6.43333330","longitude":"-1.13333330","name":"Chempaw"},{"id":"857078","latitude":"6.36666670","longitude":"-1.10000000","name":"Chempaw Praso"},{"id":"857082","latitude":"6.45000000","longitude":"-1.98333330","name":"Chenchenasi"},{"id":"857098","latitude":"7.18333330","longitude":"-1.01666670","name":"Cheriase"},{"id":"857099","latitude":"7.18333330","longitude":"-1.01666670","name":"Cheriasi"},{"id":"857127","latitude":"6.68333330","longitude":"-1.15000000","name":"Chichibiasi"},{"id":"857128","latitude":"7.15000000","longitude":"-1.06666670","name":"Chichibon"},{"id":"857130","latitude":"7.15000000","longitude":"-1.06666670","name":"Chichibou"},{"id":"857132","latitude":"6.23333330","longitude":"-1.11666670","name":"Chichiwere"},{"id":"857136","latitude":"6.96666670","longitude":"-2.11666670","name":"Chichiweri"},{"id":"857145","latitude":"6.50000000","longitude":"-0.91666670","name":"Chinchinku"},{"id":"857151","latitude":"7.36666670","longitude":"-1.61666670","name":"Chiradeso"},{"id":"857152","latitude":"6.60000000","longitude":"-2.16666670","name":"Chiraiaso"},{"id":"857155","latitude":"8.23333330","longitude":"-1.60000000","name":"Chiranda"},{"id":"857157","latitude":"6.65000000","longitude":"-1.58333330","name":"Chirapatre"},{"id":"857158","latitude":"6.60000000","longitude":"-2.16666670","name":"Chirayaso"},{"id":"857159","latitude":"6.36666670","longitude":"-1.86666670","name":"Chireayowa"},{"id":"857161","latitude":"6.21666670","longitude":"-1.48333330","name":"Chirebroso"},{"id":"857165","latitude":"8.08333330","longitude":"-1.28333330","name":"Chirembo"},{"id":"857176","latitude":"7.10000000","longitude":"-1.40000000","name":"Chirimfaso"},{"id":"857177","latitude":"8.06666670","longitude":"-1.65000000","name":"Chirinbindasi"},{"id":"857205","latitude":"6.31666670","longitude":"-1.86666670","name":"Chuaso"},{"id":"857215","latitude":"6.88333330","longitude":"-1.33333330","name":"Chumabin"},{"id":"857234","latitude":"6.68333330","longitude":"-1.61666670","name":"Coomassie"},{"id":"857236","latitude":"6.43333330","longitude":"-1.63333330","name":"Daa"},{"id":"857239","latitude":"7.03333330","longitude":"-1.41666670","name":"Daaho"},{"id":"857240","latitude":"7.28333330","longitude":"-1.85000000","name":"Daaso"},{"id":"857241","latitude":"6.76666670","longitude":"-1.71666670","name":"Dabaa"},{"id":"857242","latitude":"6.76666670","longitude":"-1.71666670","name":"Daba"},{"id":"857257","latitude":"6.85000000","longitude":"-1.55000000","name":"Daboya"},{"id":"857262","latitude":"6.43333330","longitude":"-1.63333330","name":"Da"},{"id":"857264","latitude":"6.76666670","longitude":"-1.71666670","name":"Dada"},{"id":"857266","latitude":"6.88333330","longitude":"-1.36666670","name":"Dadease"},{"id":"857269","latitude":"6.45000000","longitude":"-1.51666670","name":"Dadiase"},{"id":"857271","latitude":"6.45000000","longitude":"-1.51666670","name":"Dadiasi"},{"id":"857300","latitude":"6.66666670","longitude":"-1.01666670","name":"Dagatikrom"},{"id":"857313","latitude":"6.46666670","longitude":"-1.46666670","name":"Dagyanso"},{"id":"857314","latitude":"7.03333330","longitude":"-1.41666670","name":"Daho"},{"id":"857320","latitude":"6.43333330","longitude":"-1.41666670","name":"Dakabuoso"},{"id":"857322","latitude":"6.85000000","longitude":"-1.36666670","name":"Dakawho"},{"id":"857323","latitude":"6.85000000","longitude":"-1.36666670","name":"Dakawhu"},{"id":"857326","latitude":"6.95000000","longitude":"-1.05000000","name":"Dakongwamso"},{"id":"857333","latitude":"6.61666670","longitude":"-1.68333330","name":"Daku"},{"id":"857335","latitude":"6.61666670","longitude":"-1.68333330","name":"Dakum"},{"id":"857365","latitude":"6.46666670","longitude":"-1.41666670","name":"Dampa"},{"id":"857366","latitude":"6.55000000","longitude":"-1.05000000","name":"Dampon"},{"id":"857367","latitude":"6.55000000","longitude":"-1.05000000","name":"Dampong"},{"id":"857368","latitude":"6.83333330","longitude":"-1.65000000","name":"Danase"},{"id":"857371","latitude":"7.51666670","longitude":"-1.66666670","name":"Dandwa"},{"id":"857379","latitude":"6.45000000","longitude":"-1.60000000","name":"Dankranya"},{"id":"857388","latitude":"6.38333330","longitude":"-1.36666670","name":"Danso"},{"id":"857392","latitude":"6.71666670","longitude":"-2.43333330","name":"Dantano"},{"id":"857394","latitude":"6.60000000","longitude":"-0.85000000","name":"Danten"},{"id":"857419","latitude":"6.28333330","longitude":"-1.96666670","name":"Datano"},{"id":"857429","latitude":"7.43333330","longitude":"-1.16666670","name":"Daudakurom Yereso"},{"id":"857437","latitude":"8.35000000","longitude":"-1.55000000","name":"Dawadawa"},{"id":"857445","latitude":"6.75000000","longitude":"-1.13333330","name":"Dawereso"},{"id":"857448","latitude":"6.75000000","longitude":"-1.13333330","name":"Dawireso"},{"id":"857453","latitude":"6.80000000","longitude":"-2.01666670","name":"Dawtiem"},{"id":"857458","latitude":"6.35000000","longitude":"-2.03333330","name":"Dawusaso"},{"id":"857478","latitude":"6.20000000","longitude":"-1.71666670","name":"Dechiwa"},{"id":"857487","latitude":"6.58333330","longitude":"-1.60000000","name":"Dedesua"},{"id":"857489","latitude":"6.55000000","longitude":"-1.45000000","name":"Deduako"},{"id":"857490","latitude":"6.55000000","longitude":"-1.45000000","name":"Deduako Number 2"},{"id":"857503","latitude":"6.56666670","longitude":"-1.71666670","name":"Deikrom"},{"id":"857504","latitude":"6.56666670","longitude":"-1.71666670","name":"Deikurom"},{"id":"857505","latitude":"6.46666670","longitude":"-1.46666670","name":"Dejanso"},{"id":"857515","latitude":"6.20000000","longitude":"-1.71666670","name":"Dekyiwa"},{"id":"857530","latitude":"6.68333330","longitude":"-1.68333330","name":"Denchem Buoso"},{"id":"857531","latitude":"6.68333330","longitude":"-1.68333330","name":"Denchen"},{"id":"857540","latitude":"7.51666670","longitude":"-1.66666670","name":"Denjua"},{"id":"857541","latitude":"7.51666670","longitude":"-1.66666670","name":"Denjwa"},{"id":"857543","latitude":"6.68333330","longitude":"-1.68333330","name":"Denkyem Mmuoso"},{"id":"857548","latitude":"7.15000000","longitude":"-0.60000000","name":"Densubon"},{"id":"857550","latitude":"7.48333330","longitude":"-1.16666670","name":"Denteso"},{"id":"857553","latitude":"6.93333330","longitude":"-1.68333330","name":"Dentin"},{"id":"857559","latitude":"6.86666670","longitude":"-1.75000000","name":"Denyamiso"},{"id":"857561","latitude":"6.45000000","longitude":"-1.60000000","name":"Denyase"},{"id":"857563","latitude":"6.45000000","longitude":"-1.60000000","name":"Denyiasi"},{"id":"857569","latitude":"6.51666670","longitude":"-1.55000000","name":"Detiedi"},{"id":"857570","latitude":"6.48333330","longitude":"-1.45000000","name":"Detieso"},{"id":"857585","latitude":"6.98333330","longitude":"-1.46666670","name":"Dewu"},{"id":"857586","latitude":"6.68333330","longitude":"-1.68333330","name":"Deyyem Booso"},{"id":"857597","latitude":"6.16666670","longitude":"-1.63333330","name":"Diawuoso"},{"id":"857605","latitude":"6.63333330","longitude":"-1.71666670","name":"Dida"},{"id":"857606","latitude":"7.08333330","longitude":"-1.28333330","name":"Didaso"},{"id":"857607","latitude":"7.03333330","longitude":"-1.38333330","name":"Diditiase"},{"id":"857608","latitude":"7.03333330","longitude":"-1.38333330","name":"Diditiasi"},{"id":"857612","latitude":"6.83333330","longitude":"-1.75000000","name":"Dienyamibeka"},{"id":"857618","latitude":"6.91666670","longitude":"-1.51666670","name":"Dikan"},{"id":"857627","latitude":"6.40000000","longitude":"-1.78333330","name":"Dinchinso"},{"id":"857630","latitude":"7.33333330","longitude":"-1.38333330","name":"Dindindusi"},{"id":"857696","latitude":"6.85000000","longitude":"-1.75000000","name":"Dodi"},{"id":"857722","latitude":"8.08333330","longitude":"-0.83333330","name":"Dogokrom"},{"id":"857723","latitude":"8.08333330","longitude":"-0.83333330","name":"Dogokurom"},{"id":"857748","latitude":"6.61666670","longitude":"-1.45000000","name":"Domase"},{"id":"857749","latitude":"6.61666670","longitude":"-1.45000000","name":"Domasi"},{"id":"857752","latitude":"6.68333330","longitude":"-1.51666670","name":"Domeabra"},{"id":"857757","latitude":"7.05000000","longitude":"-1.48333330","name":"Dome"},{"id":"857761","latitude":"6.36666670","longitude":"-2.01666670","name":"Dome Keniago"},{"id":"857766","latitude":"6.46666670","longitude":"-1.91666670","name":"Domenasi"},{"id":"857778","latitude":"6.21666670","longitude":"-1.58333330","name":"Domiabra"},{"id":"857783","latitude":"6.43333330","longitude":"-1.91666670","name":"Domi Beposo"},{"id":"857784","latitude":"6.41666670","longitude":"-1.61666670","name":"Domi"},{"id":"857786","latitude":"6.36666670","longitude":"-2.01666670","name":"Domi Keniago"},{"id":"857788","latitude":"6.51666670","longitude":"-1.65000000","name":"Dominase"},{"id":"857791","latitude":"6.20000000","longitude":"-1.68333330","name":"Dominasi"},{"id":"857795","latitude":"6.46666670","longitude":"-1.41666670","name":"Dompa"},{"id":"857805","latitude":"6.30000000","longitude":"-1.53333330","name":"Dompoase"},{"id":"857807","latitude":"6.30000000","longitude":"-1.53333330","name":"Dompoasi"},{"id":"857826","latitude":"7.43333330","longitude":"-1.65000000","name":"Donkoro Nkwanta"},{"id":"857828","latitude":"6.96666670","longitude":"-0.56666670","name":"Donkrom"},{"id":"857829","latitude":"7.43333330","longitude":"-1.65000000","name":"Donkro Nkwanta"},{"id":"857831","latitude":"7.41666670","longitude":"-1.73333330","name":"Dononso"},{"id":"857832","latitude":"7.41666670","longitude":"-1.73333330","name":"Donoso"},{"id":"857833","latitude":"7.41666670","longitude":"-1.73333330","name":"Donouso"},{"id":"857834","latitude":"6.70000000","longitude":"-1.45000000","name":"Donuaso"},{"id":"857836","latitude":"6.70000000","longitude":"-1.45000000","name":"Donuoso"},{"id":"857838","latitude":"6.63333330","longitude":"-1.50000000","name":"Donyina"},{"id":"857854","latitude":"6.88333330","longitude":"-1.78333330","name":"Dotawasi"},{"id":"857855","latitude":"6.80000000","longitude":"-2.01666670","name":"Dotiem"},{"id":"857859","latitude":"6.31666670","longitude":"-1.78333330","name":"Dotom"},{"id":"857862","latitude":"6.40000000","longitude":"-1.50000000","name":"Dotum"},{"id":"857874","latitude":"7.38333330","longitude":"-1.56666670","name":"Drabon"},{"id":"857875","latitude":"7.06666670","longitude":"-1.11666670","name":"Drabonso"},{"id":"857882","latitude":"7.76666670","longitude":"-0.60000000","name":"Drobe"},{"id":"857883","latitude":"6.98333330","longitude":"-1.30000000","name":"Drobongma"},{"id":"857885","latitude":"7.71666670","longitude":"-1.55000000","name":"Droma"},{"id":"857886","latitude":"7.66666670","longitude":"-1.60000000","name":"Droma-Kuma"},{"id":"857887","latitude":"7.71666670","longitude":"-1.55000000","name":"Dromankese"},{"id":"857888","latitude":"7.66666670","longitude":"-1.60000000","name":"Dromankuma"},{"id":"857891","latitude":"7.75000000","longitude":"-1.03333330","name":"Duabone Number 1"},{"id":"857892","latitude":"7.75000000","longitude":"-1.05000000","name":"Duabone Number 2"},{"id":"857893","latitude":"7.75000000","longitude":"-1.03333330","name":"Duaboni"},{"id":"857904","latitude":"6.56666670","longitude":"-1.71666670","name":"Duakoben"},{"id":"857905","latitude":"6.56666670","longitude":"-1.71666670","name":"Duakobin"},{"id":"857911","latitude":"6.15000000","longitude":"-1.55000000","name":"Duampompo"},{"id":"857912","latitude":"6.65000000","longitude":"-1.33333330","name":"Duampopo"},{"id":"857913","latitude":"6.51666670","longitude":"-1.73333330","name":"Duankontwi"},{"id":"857914","latitude":"6.91666670","longitude":"-1.58333330","name":"Duaponkaw"},{"id":"857915","latitude":"6.91666670","longitude":"-1.58333330","name":"Duaponko"},{"id":"857916","latitude":"6.73333330","longitude":"-1.56666670","name":"Duase"},{"id":"857920","latitude":"6.71666670","longitude":"-1.76666670","name":"Duasi"},{"id":"857928","latitude":"6.78333330","longitude":"-1.20000000","name":"Dubrim"},{"id":"857956","latitude":"6.96666670","longitude":"-0.96666670","name":"Dukusen"},{"id":"857960","latitude":"6.60000000","longitude":"-1.70000000","name":"Dumakwae"},{"id":"857961","latitude":"6.60000000","longitude":"-1.70000000","name":"Dumakwai"},{"id":"857965","latitude":"6.78333330","longitude":"-1.55000000","name":"Dumanafo"},{"id":"857966","latitude":"6.90000000","longitude":"-2.00000000","name":"Dumankuma Wadua"},{"id":"857967","latitude":"6.90000000","longitude":"-2.00000000","name":"Dumankumawodua"},{"id":"857968","latitude":"6.90000000","longitude":"-2.00000000","name":"Dumankumawudua"},{"id":"857972","latitude":"6.88333330","longitude":"-1.55000000","name":"Dumechino"},{"id":"857975","latitude":"7.13333330","longitude":"-1.71666670","name":"Dumisua"},{"id":"857976","latitude":"6.33333330","longitude":"-1.93333330","name":"Dumpaso"},{"id":"857977","latitude":"6.33333330","longitude":"-1.93333330","name":"Dumpaso Number 2"},{"id":"857981","latitude":"6.33333330","longitude":"-1.93333330","name":"Dumposo"},{"id":"857983","latitude":"7.90000000","longitude":"-1.65000000","name":"Dumso"},{"id":"857985","latitude":"6.31666670","longitude":"-1.50000000","name":"Dunchie"},{"id":"857991","latitude":"6.46666670","longitude":"-1.43333330","name":"Dunkra"},{"id":"857992","latitude":"6.46666670","longitude":"-1.43333330","name":"Dunkura"},{"id":"857995","latitude":"6.31666670","longitude":"-1.50000000","name":"Dunkyie"},{"id":"858021","latitude":"7.31666670","longitude":"-1.61666670","name":"Dwaaho"},{"id":"858023","latitude":"6.58333330","longitude":"-1.11666670","name":"Dwaaso"},{"id":"858024","latitude":"6.81666670","longitude":"-1.43333330","name":"Dwaben"},{"id":"858026","latitude":"7.68333330","longitude":"-0.63333330","name":"Dwan"},{"id":"858027","latitude":"7.68333330","longitude":"-0.63333330","name":"Dwankurom"},{"id":"858028","latitude":"6.71666670","longitude":"-1.13333330","name":"Dwansa"},{"id":"858029","latitude":"6.78333330","longitude":"-2.00000000","name":"Dwawoho"},{"id":"858030","latitude":"6.53333330","longitude":"-1.25000000","name":"Dwease"},{"id":"858034","latitude":"6.86666670","longitude":"-1.93333330","name":"Dwenyankwanta"},{"id":"858038","latitude":"6.40000000","longitude":"-1.20000000","name":"Dwindwinase"},{"id":"858039","latitude":"6.86666670","longitude":"-1.93333330","name":"Dwinyaikwanta"},{"id":"858040","latitude":"6.88333330","longitude":"-1.88333330","name":"Dwinyama"},{"id":"858045","latitude":"6.45000000","longitude":"-1.48333330","name":"Dwuaman"},{"id":"858048","latitude":"6.41666670","longitude":"-1.58333330","name":"Dwumakro"},{"id":"858091","latitude":"6.76666670","longitude":"-1.48333330","name":"Ebira"},{"id":"858092","latitude":"6.38333330","longitude":"-1.96666670","name":"Ebiram"},{"id":"858097","latitude":"6.71666670","longitude":"-1.05000000","name":"Ebisua"},{"id":"858110","latitude":"7.43333330","longitude":"-1.46666670","name":"Ebuom"},{"id":"858111","latitude":"6.93333330","longitude":"-1.90000000","name":"Eburaso"},{"id":"858113","latitude":"6.23333330","longitude":"-1.65000000","name":"Ebutumtumso"},{"id":"858115","latitude":"6.76666670","longitude":"-1.60000000","name":"Ebwia"},{"id":"858118","latitude":"6.86666670","longitude":"-1.81666670","name":"Echieso"},{"id":"858124","latitude":"6.35000000","longitude":"-2.03333330","name":"Edasneso"},{"id":"858127","latitude":"6.35000000","longitude":"-1.61666670","name":"Edibrim"},{"id":"858129","latitude":"7.25000000","longitude":"-1.40000000","name":"Edijwam"},{"id":"858130","latitude":"7.25000000","longitude":"-1.40000000","name":"Edijwan"},{"id":"858135","latitude":"6.55000000","longitude":"-1.58333330","name":"Eduabin"},{"id":"858136","latitude":"8.16666670","longitude":"-0.73333330","name":"Eduacheremu"},{"id":"858137","latitude":"6.55000000","longitude":"-1.58333330","name":"Eduadin"},{"id":"858142","latitude":"6.41666670","longitude":"-1.53333330","name":"Eduam"},{"id":"858143","latitude":"6.93333330","longitude":"-1.20000000","name":"Eduamuyao"},{"id":"858145","latitude":"6.15000000","longitude":"-1.63333330","name":"Eduaniyede"},{"id":"858146","latitude":"6.31666670","longitude":"-1.56666670","name":"Edubease"},{"id":"858148","latitude":"6.40000000","longitude":"-1.93333330","name":"Edubia"},{"id":"858150","latitude":"6.31666670","longitude":"-1.56666670","name":"Edubiasi"},{"id":"858152","latitude":"6.38333330","longitude":"-2.00000000","name":"Edubiaso"},{"id":"858154","latitude":"6.51666670","longitude":"-2.93333330","name":"Eduikrom"},{"id":"858156","latitude":"6.96666670","longitude":"-1.60000000","name":"Edukro"},{"id":"858161","latitude":"6.81666670","longitude":"-1.61666670","name":"Eduman"},{"id":"858162","latitude":"6.81666670","longitude":"-1.61666670","name":"Edumang"},{"id":"858163","latitude":"6.50000000","longitude":"-1.58333330","name":"Edumasa"},{"id":"858171","latitude":"6.76666670","longitude":"-1.88333330","name":"Edum"},{"id":"858175","latitude":"6.60000000","longitude":"-1.75000000","name":"Edu Wamasi"},{"id":"858176","latitude":"6.60000000","longitude":"-1.75000000","name":"Edu Womasi"},{"id":"858177","latitude":"6.56666670","longitude":"-1.78333330","name":"Eduyaokrom"},{"id":"858179","latitude":"6.38333330","longitude":"-1.48333330","name":"Edwenase"},{"id":"858180","latitude":"6.71666670","longitude":"-1.46666670","name":"Edweso"},{"id":"858181","latitude":"6.51666670","longitude":"-1.53333330","name":"Edwinase 2"},{"id":"858183","latitude":"6.43333330","longitude":"-1.56666670","name":"Edwinasi"},{"id":"858185","latitude":"6.83333330","longitude":"-1.55000000","name":"Edwuratia"},{"id":"858193","latitude":"6.18333330","longitude":"-1.63333330","name":"Efiamuakrom"},{"id":"858195","latitude":"6.85000000","longitude":"-1.40000000","name":"Efiduasi"},{"id":"858197","latitude":"6.85000000","longitude":"-1.40000000","name":"Efidwase"},{"id":"858201","latitude":"8.18333330","longitude":"-1.68333330","name":"Efuma"},{"id":"858218","latitude":"6.60000000","longitude":"-1.31666670","name":"Ehiaminchini"},{"id":"858220","latitude":"7.45000000","longitude":"-1.31666670","name":"Ehiawoaenwu"},{"id":"858223","latitude":"6.26666670","longitude":"-1.78333330","name":"Ehima"},{"id":"858226","latitude":"6.45000000","longitude":"-1.50000000","name":"Ehuren"},{"id":"858227","latitude":"6.68333330","longitude":"-1.66666670","name":"Ehwemase"},{"id":"858228","latitude":"6.76666670","longitude":"-1.60000000","name":"Ehwiaa"},{"id":"858229","latitude":"6.76666670","longitude":"-1.60000000","name":"Ehwia"},{"id":"858245","latitude":"6.48333330","longitude":"-1.36666670","name":"Ejeman"},{"id":"858247","latitude":"6.90000000","longitude":"-1.01666670","name":"Ejian"},{"id":"858250","latitude":"6.71666670","longitude":"-1.46666670","name":"Ejisu"},{"id":"858252","latitude":"6.38333330","longitude":"-1.81666670","name":"Ejuman"},{"id":"858254","latitude":"6.38333330","longitude":"-1.81666670","name":"Ejumon"},{"id":"858255","latitude":"7.38333330","longitude":"-1.36666670","name":"Ejura"},{"id":"858256","latitude":"6.83333330","longitude":"-1.55000000","name":"Ejuratia"},{"id":"858257","latitude":"6.38333330","longitude":"-1.48333330","name":"Ejwinasa"},{"id":"858258","latitude":"6.38333330","longitude":"-1.48333330","name":"Ejwinasi"},{"id":"858264","latitude":"6.86666670","longitude":"-1.90000000","name":"Ekorasi"},{"id":"858287","latitude":"6.86666670","longitude":"-1.81666670","name":"Ekyieso"},{"id":"858291","latitude":"6.51666670","longitude":"-2.93333330","name":"Elluokrom"},{"id":"858304","latitude":"6.83333330","longitude":"-1.70000000","name":"Emisari"},{"id":"858310","latitude":"6.93333330","longitude":"-1.83333330","name":"Enama"},{"id":"858316","latitude":"6.96666670","longitude":"-1.73333330","name":"Enianti"},{"id":"858318","latitude":"6.25000000","longitude":"-1.25000000","name":"Enikawkaw"},{"id":"858321","latitude":"6.96666670","longitude":"-1.15000000","name":"Enikawso"},{"id":"858345","latitude":"6.65000000","longitude":"-1.95000000","name":"Enyinawonsu"},{"id":"858359","latitude":"6.46666670","longitude":"-1.51666670","name":"Esaase"},{"id":"858371","latitude":"6.78333330","longitude":"-1.71666670","name":"Esanso"},{"id":"858372","latitude":"6.55000000","longitude":"-1.88333330","name":"Esase"},{"id":"858374","latitude":"6.26666670","longitude":"-1.80000000","name":"Esasi"},{"id":"858376","latitude":"6.78333330","longitude":"-1.71666670","name":"Esaso"},{"id":"858379","latitude":"6.76666670","longitude":"-1.61666670","name":"Esen"},{"id":"858386","latitude":"6.70000000","longitude":"-1.95000000","name":"Esiamakrom"},{"id":"858389","latitude":"6.45000000","longitude":"-1.81666670","name":"Esiana"},{"id":"858390","latitude":"6.35000000","longitude":"-1.56666670","name":"Esiankwanta"},{"id":"858399","latitude":"6.25000000","longitude":"-1.66666670","name":"Esikofokrom"},{"id":"858405","latitude":"6.48333330","longitude":"-1.45000000","name":"Essase"},{"id":"858406","latitude":"6.76666670","longitude":"-1.61666670","name":"Essen"},{"id":"858411","latitude":"6.48333330","longitude":"-1.55000000","name":"Essumegya"},{"id":"858412","latitude":"6.48333330","longitude":"-1.55000000","name":"Essumeja"},{"id":"858413","latitude":"6.53333330","longitude":"-1.86666670","name":"Essuowin"},{"id":"858418","latitude":"7.45000000","longitude":"-1.65000000","name":"Esuanam"},{"id":"858419","latitude":"7.45000000","longitude":"-1.65000000","name":"Esuanaw"},{"id":"858431","latitude":"6.48333330","longitude":"-1.55000000","name":"Esumeja"},{"id":"858439","latitude":"6.53333330","longitude":"-2.90000000","name":"Eteso"},{"id":"858440","latitude":"6.70000000","longitude":"-1.40000000","name":"Etia"},{"id":"858451","latitude":"6.46666670","longitude":"-1.48333330","name":"Etwereso"},{"id":"858455","latitude":"6.68333330","longitude":"-1.66666670","name":"Ewhemasi"},{"id":"858486","latitude":"7.76666670","longitude":"-1.33333330","name":"Fakwasi"},{"id":"858489","latitude":"6.96666670","longitude":"-1.93333330","name":"Famang"},{"id":"858527","latitude":"6.76666670","longitude":"-1.58333330","name":"Fawoade"},{"id":"858529","latitude":"6.83333330","longitude":"-1.36666670","name":"Fawoman"},{"id":"858534","latitude":"6.31666670","longitude":"-1.95000000","name":"Fawotirikye"},{"id":"858535","latitude":"6.31666670","longitude":"-1.95000000","name":"Fawotriche"},{"id":"858537","latitude":"6.76666670","longitude":"-1.58333330","name":"Fawubawari"},{"id":"858538","latitude":"6.83333330","longitude":"-1.36666670","name":"Fawuman"},{"id":"858539","latitude":"6.96666670","longitude":"-1.93333330","name":"Fawumang"},{"id":"858543","latitude":"6.61666670","longitude":"-1.08333330","name":"Fawutrikosie"},{"id":"858555","latitude":"6.36666670","longitude":"-1.30000000","name":"Fereboye"},{"id":"858556","latitude":"6.31666670","longitude":"-1.38333330","name":"Fereso"},{"id":"858557","latitude":"6.31666670","longitude":"-1.36666670","name":"Fereso Number 3"},{"id":"858568","latitude":"6.60000000","longitude":"-1.56666670","name":"Feyiase"},{"id":"858569","latitude":"6.60000000","longitude":"-1.56666670","name":"Feyiasi"},{"id":"858580","latitude":"6.33333330","longitude":"-1.05000000","name":"Fiakwa"},{"id":"858581","latitude":"6.33333330","longitude":"-1.05000000","name":"Fiakwai"},{"id":"858582","latitude":"7.76666670","longitude":"-1.33333330","name":"Fiakwasa"},{"id":"858586","latitude":"6.31666670","longitude":"-1.73333330","name":"Fiankuma"},{"id":"858599","latitude":"7.71666670","longitude":"-1.70000000","name":"Fiema"},{"id":"858607","latitude":"6.21666670","longitude":"-1.75000000","name":"Finaso"},{"id":"858609","latitude":"6.21666670","longitude":"-1.75000000","name":"Finaso Number 1"},{"id":"858621","latitude":"6.60000000","longitude":"-1.56666670","name":"Fiyasi"},{"id":"858640","latitude":"6.28333330","longitude":"-1.51666670","name":"Fomana"},{"id":"858641","latitude":"6.61666670","longitude":"-0.96666670","name":"Fomangkuma"},{"id":"858642","latitude":"6.61666670","longitude":"-0.96666670","name":"Fomankuma"},{"id":"858643","latitude":"6.55000000","longitude":"-1.00000000","name":"Fomanso"},{"id":"858644","latitude":"6.70000000","longitude":"-1.51666670","name":"Fomasua"},{"id":"858645","latitude":"6.28333330","longitude":"-1.51666670","name":"Fomena"},{"id":"858647","latitude":"6.28333330","longitude":"-1.51666670","name":"Fommanah"},{"id":"858667","latitude":"7.68333330","longitude":"-1.03333330","name":"Frafraso"},{"id":"858670","latitude":"6.60000000","longitude":"-0.55000000","name":"Framasi"},{"id":"858687","latitude":"6.85000000","longitude":"-1.78333330","name":"Fufuo"},{"id":"858701","latitude":"6.70000000","longitude":"-1.51666670","name":"Fumisua"},{"id":"858702","latitude":"6.18333330","longitude":"-1.40000000","name":"Fumso"},{"id":"858721","latitude":"6.71666670","longitude":"-0.81666670","name":"Fwefwe"},{"id":"858723","latitude":"6.36666670","longitude":"-1.30000000","name":"Fwere-Boi"},{"id":"858724","latitude":"6.31666670","longitude":"-1.36666670","name":"Fwereso"},{"id":"858727","latitude":"6.63333330","longitude":"-1.80000000","name":"Fwidiem"},{"id":"858730","latitude":"7.43333330","longitude":"-1.75000000","name":"Fwiriem"},{"id":"858783","latitude":"7.71666670","longitude":"-0.81666670","name":"Garadima"},{"id":"858899","latitude":"8.13333330","longitude":"-1.68333330","name":"Gbongbonyah"},{"id":"858987","latitude":"6.68333330","longitude":"-1.95000000","name":"Gogoikrom"},{"id":"858988","latitude":"6.68333330","longitude":"-1.95000000","name":"Gogoikurom"},{"id":"859174","latitude":"6.31666670","longitude":"-1.25000000","name":"Gyadamwa"},{"id":"859177","latitude":"6.43333330","longitude":"-1.93333330","name":"Gyagyukurom"},{"id":"859181","latitude":"6.35000000","longitude":"-1.66666670","name":"Gyakobu"},{"id":"859182","latitude":"6.56666670","longitude":"-1.51666670","name":"Gyakye"},{"id":"859185","latitude":"6.73333330","longitude":"-1.53333330","name":"Gyamase"},{"id":"859193","latitude":"6.63333330","longitude":"-1.81666670","name":"Gyankoba"},{"id":"859205","latitude":"7.65000000","longitude":"-1.06666670","name":"Gyato Zongo"},{"id":"859211","latitude":"7.08333330","longitude":"-1.21666670","name":"Gyeduako"},{"id":"859216","latitude":"6.75000000","longitude":"-2.28333330","name":"Gyeinso"},{"id":"859219","latitude":"6.31666670","longitude":"-1.25000000","name":"Gyemakyi"},{"id":"859222","latitude":"6.50000000","longitude":"-1.96666670","name":"Gyensiso"},{"id":"859225","latitude":"6.71666670","longitude":"-1.88333330","name":"Gyetua"},