[{"id":"852422","latitude":"10.98333330","longitude":"-0.75000000","name":"Abagamia"},{"id":"852487","latitude":"10.83333330","longitude":"-1.23333330","name":"Abelio"},{"id":"852518","latitude":"10.95000000","longitude":"-0.55000000","name":"Abeu"},{"id":"852524","latitude":"10.86666670","longitude":"-0.21666670","name":"Abilatega"},{"id":"852525","latitude":"10.86666670","longitude":"-0.21666670","name":"Abileteiga"},{"id":"852526","latitude":"10.86666670","longitude":"-0.21666670","name":"Abilitega"},{"id":"852551","latitude":"10.73472220","longitude":"-1.29055560","name":"Abliri"},{"id":"852805","latitude":"10.98333330","longitude":"-0.76666670","name":"Acharaba"},{"id":"852886","latitude":"10.90000000","longitude":"-0.71666670","name":"Adaboya"},{"id":"853091","latitude":"10.95000000","longitude":"-0.81666670","name":"Adokobisi"},{"id":"853110","latitude":"10.81666670","longitude":"-0.46666670","name":"Adonsi"},{"id":"853125","latitude":"10.96666670","longitude":"-0.71666670","name":"Adoweko"},{"id":"853187","latitude":"10.98333330","longitude":"-1.35000000","name":"Adunania"},{"id":"853188","latitude":"10.98333330","longitude":"-1.15000000","name":"Adung"},{"id":"853248","latitude":"10.95000000","longitude":"-0.81666670","name":"Aeopea"},{"id":"853352","latitude":"11.03333330","longitude":"-0.46666670","name":"Agago"},{"id":"853529","latitude":"10.86666670","longitude":"-0.91666670","name":"Agushi"},{"id":"853779","latitude":"10.86666670","longitude":"-0.95000000","name":"Akamo"},{"id":"853781","latitude":"10.91666670","longitude":"-0.76666670","name":"Akanaba"},{"id":"853926","latitude":"10.93333330","longitude":"-0.73333330","name":"Akorisi"},{"id":"854065","latitude":"10.93333330","longitude":"-0.70000000","name":"Akulmasa"},{"id":"854072","latitude":"10.80000000","longitude":"-1.01666670","name":"Akunda"},{"id":"854073","latitude":"10.80000000","longitude":"-1.01666670","name":"Akundaw"},{"id":"854074","latitude":"10.80000000","longitude":"-1.01666670","name":"Akundawi"},{"id":"854075","latitude":"10.93333330","longitude":"-0.80000000","name":"Akunduo"},{"id":"854077","latitude":"10.96666670","longitude":"-0.80000000","name":"Akunka"},{"id":"854078","latitude":"10.83333330","longitude":"-0.98333330","name":"Akunkogo"},{"id":"854079","latitude":"10.83333330","longitude":"-0.98333330","name":"Akunkongo"},{"id":"854080","latitude":"10.83333330","longitude":"-0.98333330","name":"Akunkongu"},{"id":"854091","latitude":"10.75000000","longitude":"-0.48333330","name":"Akure"},{"id":"854092","latitude":"10.75000000","longitude":"-0.48333330","name":"Akuri"},{"id":"854213","latitude":"10.90777780","longitude":"-0.80805560","name":"Alagiligobisi"},{"id":"854230","latitude":"10.90000000","longitude":"-0.55000000","name":"Alenzua"},{"id":"854233","latitude":"10.68333330","longitude":"-1.50000000","name":"Alidem"},{"id":"854238","latitude":"10.83333330","longitude":"-1.45000000","name":"Alogenia"},{"id":"854242","latitude":"10.88333330","longitude":"-0.31666670","name":"Aloko"},{"id":"854389","latitude":"10.98333330","longitude":"-0.46666670","name":"Amkpaliga"},{"id":"854423","latitude":"10.65000000","longitude":"-1.10000000","name":"Amodalga"},{"id":"854424","latitude":"10.65000000","longitude":"-1.10000000","name":"Amodalg"},{"id":"854425","latitude":"10.65000000","longitude":"-1.10000000","name":"Amodalgo"},{"id":"854426","latitude":"10.81666670","longitude":"-0.93333330","name":"Amogorebisi"},{"id":"854440","latitude":"11.00000000","longitude":"-0.96666670","name":"Amotanga"},{"id":"854494","latitude":"11.01666670","longitude":"-0.23333330","name":"Anabuya"},{"id":"854503","latitude":"10.78333330","longitude":"-1.16666670","name":"Anamansa"},{"id":"854568","latitude":"10.96666670","longitude":"-0.43333330","name":"Aniago"},{"id":"854579","latitude":"10.95000000","longitude":"-0.96666670","name":"Anieregu"},{"id":"854586","latitude":"10.95000000","longitude":"-0.26666670","name":"Anish"},{"id":"854587","latitude":"10.95000000","longitude":"-0.26666670","name":"Anishi"},{"id":"854623","latitude":"10.83333330","longitude":"-0.70000000","name":"Annabisi"},{"id":"854726","latitude":"10.91666670","longitude":"-0.36666670","name":"Anyanimatai"},{"id":"854737","latitude":"10.91666670","longitude":"-0.36666670","name":"Anyelimatega"},{"id":"854778","latitude":"10.75000000","longitude":"-0.91666670","name":"Anyukawkaw"},{"id":"854837","latitude":"10.75000000","longitude":"-0.90000000","name":"Apilga"},{"id":"854856","latitude":"10.71666670","longitude":"-0.45000000","name":"Apodabogo"},{"id":"854872","latitude":"10.71666670","longitude":"-0.45000000","name":"Appontabau"},{"id":"854893","latitude":"10.98333330","longitude":"-0.71666670","name":"Arabe"},{"id":"854894","latitude":"10.98333330","longitude":"-0.71666670","name":"Arabe Awolugu"},{"id":"854895","latitude":"11.00000000","longitude":"-0.75000000","name":"Arabe Ayelibia"},{"id":"854896","latitude":"10.98333330","longitude":"-0.71666670","name":"Arabo"},{"id":"854898","latitude":"10.78333330","longitude":"-0.46666670","name":"Aragbiri"},{"id":"854899","latitude":"10.56666670","longitude":"-0.88333330","name":"Aragu"},{"id":"854900","latitude":"10.78333330","longitude":"-0.51666670","name":"Aranga"},{"id":"854901","latitude":"10.80000000","longitude":"-1.15000000","name":"Arebinse"},{"id":"854902","latitude":"10.56666670","longitude":"-0.88333330","name":"Arigu"},{"id":"854903","latitude":"10.96666670","longitude":"-0.16666670","name":"Ariziem"},{"id":"854906","latitude":"10.93333330","longitude":"-0.55000000","name":"Aronkpe"},{"id":"854921","latitude":"10.91666670","longitude":"-0.70000000","name":"Asakanyam"},{"id":"855014","latitude":"10.98333330","longitude":"-0.80000000","name":"Asebrik"},{"id":"855017","latitude":"10.91666670","longitude":"-0.75000000","name":"Asebuga"},{"id":"855071","latitude":"10.98333330","longitude":"-0.80000000","name":"Ashebre"},{"id":"855153","latitude":"10.81666670","longitude":"-0.76666670","name":"Asong"},{"id":"855315","latitude":"10.86666670","longitude":"-0.51666670","name":"Atarakom"},{"id":"855374","latitude":"10.85000000","longitude":"-0.98333330","name":"Atiyoro"},{"id":"855548","latitude":"10.91666670","longitude":"-0.88333330","name":"Awa"},{"id":"855581","latitude":"10.81666670","longitude":"-1.40000000","name":"Awina"},{"id":"855600","latitude":"10.56666670","longitude":"-0.88333330","name":"Awrawgu"},{"id":"855634","latitude":"10.90000000","longitude":"-0.71666670","name":"Ayambare"},{"id":"855651","latitude":"11.00000000","longitude":"-0.75000000","name":"Ayelibia"},{"id":"855663","latitude":"10.95000000","longitude":"-0.81666670","name":"Ayeopian"},{"id":"855700","latitude":"10.83333330","longitude":"-0.53333330","name":"Azantole"},{"id":"855710","latitude":"10.80000000","longitude":"-0.50000000","name":"Azoawera"},{"id":"855712","latitude":"10.80000000","longitude":"-0.50000000","name":"Azuedi"},{"id":"855716","latitude":"10.88333330","longitude":"-0.53333330","name":"Azupunpun"},{"id":"855717","latitude":"10.80000000","longitude":"-0.50000000","name":"Azuwera"},{"id":"855741","latitude":"10.95000000","longitude":"-1.10000000","name":"Babili"},{"id":"855752","latitude":"11.11666670","longitude":"-0.23333330","name":"Bado"},{"id":"855754","latitude":"11.11666670","longitude":"-0.23333330","name":"Badu"},{"id":"855816","latitude":"10.71666670","longitude":"-1.33333330","name":"Balansa"},{"id":"855828","latitude":"10.63333330","longitude":"-0.86666670","name":"Baluagu"},{"id":"855830","latitude":"10.63333330","longitude":"-0.86666670","name":"Balung"},{"id":"855831","latitude":"10.91666670","longitude":"-0.85000000","name":"Balungo"},{"id":"855832","latitude":"10.63333330","longitude":"-0.86666670","name":"Balungu Akpaligabisi"},{"id":"855833","latitude":"10.63333330","longitude":"-0.86666670","name":"Balungu"},{"id":"855834","latitude":"10.91666670","longitude":"-0.85000000","name":"Balungu Gantorisi"},{"id":"855836","latitude":"10.96666670","longitude":"-0.05000000","name":"Bamamburi"},{"id":"855883","latitude":"10.71666670","longitude":"-0.41666670","name":"Bango"},{"id":"855916","latitude":"11.05000000","longitude":"-0.35000000","name":"Banshi"},{"id":"855917","latitude":"11.05000000","longitude":"-0.35000000","name":"Bansi"},{"id":"855925","latitude":"10.75000000","longitude":"-0.20000000","name":"Bantamfarigu"},{"id":"855926","latitude":"10.75000000","longitude":"-0.20000000","name":"Bantavarigu"},{"id":"855927","latitude":"10.85000000","longitude":"-0.20000000","name":"Bantirago"},{"id":"855935","latitude":"10.85000000","longitude":"-0.16666670","name":"Barabeko"},{"id":"855936","latitude":"10.85000000","longitude":"-0.16666670","name":"Baraboko"},{"id":"855940","latitude":"11.11666670","longitude":"-0.23333330","name":"Barbara"},{"id":"855942","latitude":"10.85000000","longitude":"-0.16666670","name":"Barboaka"},{"id":"855946","latitude":"10.73333330","longitude":"-0.80000000","name":"Bari"},{"id":"855947","latitude":"11.11666670","longitude":"-0.23333330","name":"Baribari"},{"id":"855953","latitude":"10.85000000","longitude":"-0.16666670","name":"Barraboko"},{"id":"855998","latitude":"10.91666670","longitude":"-1.06666670","name":"Bavugnia"},{"id":"855999","latitude":"10.91666670","longitude":"-1.06666670","name":"Bavugunia"},{"id":"856024","latitude":"11.05805560","longitude":"-0.24166670","name":"Bawku"},{"id":"856026","latitude":"11.06666670","longitude":"-0.25000000","name":"Bawkuzua"},{"id":"856035","latitude":"10.98333330","longitude":"-0.93333330","name":"Bazieng"},{"id":"856036","latitude":"10.98333330","longitude":"-0.93333330","name":"Baziengo"},{"id":"856037","latitude":"11.00000000","longitude":"-0.36666670","name":"Bazua"},{"id":"856038","latitude":"10.90000000","longitude":"-0.50000000","name":"Bazunde"},{"id":"856048","latitude":"10.65000000","longitude":"-1.45000000","name":"Bechaunsi"},{"id":"856049","latitude":"10.65000000","longitude":"-1.45000000","name":"Bechawnsi"},{"id":"856050","latitude":"10.65000000","longitude":"-1.45000000","name":"Bechawnsi Central"},{"id":"856051","latitude":"10.65000000","longitude":"-1.45000000","name":"Bechawnsi Nanyensi"},{"id":"856052","latitude":"10.65000000","longitude":"-1.43333330","name":"Bechawnsi Nyambisa"},{"id":"856053","latitude":"10.75000000","longitude":"-1.48333330","name":"Bechawnsi Vare"},{"id":"856057","latitude":"10.40000000","longitude":"-1.35000000","name":"Bechisi"},{"id":"856102","latitude":"10.91666670","longitude":"-0.25000000","name":"Belagu"},{"id":"856104","latitude":"10.78333330","longitude":"-0.20000000","name":"Belambusi"},{"id":"856106","latitude":"10.93333330","longitude":"-0.26666670","name":"Belempiis"},{"id":"856107","latitude":"10.93333330","longitude":"-0.26666670","name":"Belempinse"},{"id":"856108","latitude":"10.93333330","longitude":"-0.26666670","name":"Belempisi"},{"id":"856112","latitude":"10.63333330","longitude":"-0.86666670","name":"Belungu"},{"id":"856113","latitude":"10.98333330","longitude":"-1.08333330","name":"Beluo"},{"id":"856116","latitude":"10.91666670","longitude":"-0.95000000","name":"Bembisi"},{"id":"856134","latitude":"11.00000000","longitude":"-0.31666670","name":"Benguri"},{"id":"856143","latitude":"10.93333330","longitude":"-1.41666670","name":"Bensi"},{"id":"856160","latitude":"10.90000000","longitude":"-0.71666670","name":"Beo Adaboya"},{"id":"856161","latitude":"10.88333330","longitude":"-0.76666670","name":"Beo"},{"id":"856162","latitude":"10.88333330","longitude":"-0.78333330","name":"Beo Dua"},{"id":"856163","latitude":"10.86666670","longitude":"-0.75000000","name":"Beo Kumbusgu"},{"id":"856247","latitude":"10.91666670","longitude":"-0.53333330","name":"Bezune"},{"id":"856251","latitude":"10.60000000","longitude":"-0.80000000","name":"Biagu"},{"id":"856252","latitude":"11.01666670","longitude":"-0.36666670","name":"Biaka"},{"id":"856268","latitude":"10.56666670","longitude":"-1.33333330","name":"Bidema"},{"id":"856272","latitude":"11.01666670","longitude":"-0.36666670","name":"Bieka"},{"id":"856290","latitude":"10.76666670","longitude":"-1.25000000","name":"Bilinsa"},{"id":"856312","latitude":"11.08333330","longitude":"-0.03333330","name":"Bimpiela"},{"id":"856313","latitude":"11.08333330","longitude":"-0.03333330","name":"Bimpielega"},{"id":"856316","latitude":"10.79833330","longitude":"-0.47388890","name":"Binaba"},{"id":"856317","latitude":"10.79833330","longitude":"-0.47388890","name":"Binaba Natinga"},{"id":"856320","latitude":"10.81666670","longitude":"-0.46666670","name":"Binda Adonsi"},{"id":"856326","latitude":"10.98333330","longitude":"-0.30000000","name":"Binduri"},{"id":"856327","latitude":"10.98333330","longitude":"-0.30000000","name":"Binduri Natinga"},{"id":"856329","latitude":"11.00000000","longitude":"-0.31666670","name":"Binguri"},{"id":"856331","latitude":"10.98333330","longitude":"-0.30000000","name":"Binsuri"},{"id":"856334","latitude":"10.76666670","longitude":"-0.80000000","name":"Biong"},{"id":"856345","latitude":"10.93333330","longitude":"-0.40000000","name":"Biringo"},{"id":"856359","latitude":"10.55000000","longitude":"-0.90000000","name":"Bisiga"},{"id":"856360","latitude":"10.55000000","longitude":"-0.90000000","name":"Bisigu"},{"id":"856366","latitude":"10.76666670","longitude":"-1.11666670","name":"Biu"},{"id":"856367","latitude":"10.64277780","longitude":"-0.66361110","name":"Biung"},{"id":"856368","latitude":"10.64277780","longitude":"-0.66361110","name":"Biungu"},{"id":"856413","latitude":"11.08333330","longitude":"-0.25000000","name":"Boango"},{"id":"856456","latitude":"10.78333330","longitude":"-0.43333330","name":"Boga"},{"id":"856460","latitude":"10.78333330","longitude":"-0.43333330","name":"Bogo"},{"id":"856462","latitude":"10.90000000","longitude":"-0.76666670","name":"Bogorogo"},{"id":"856480","latitude":"10.83333330","longitude":"-0.46666670","name":"Boiya"},{"id":"856496","latitude":"11.00000000","longitude":"-0.28333330","name":"Bokko"},{"id":"856498","latitude":"10.98333330","longitude":"-0.83333330","name":"Boko"},{"id":"856510","latitude":"10.78555560","longitude":"-0.85138890","name":"Bolagatanga"},{"id":"856513","latitude":"10.80000000","longitude":"-0.86666670","name":"Bolga Bukeere"},{"id":"856514","latitude":"10.75000000","longitude":"-0.81666670","name":"Bolga Gambibigo"},{"id":"856515","latitude":"10.75000000","longitude":"-0.90000000","name":"Bolga Kalbeo"},{"id":"856516","latitude":"10.81666670","longitude":"-0.85000000","name":"Bolga Soe"},{"id":"856517","latitude":"10.78555560","longitude":"-0.85138890","name":"Bolgatanga"},{"id":"856518","latitude":"10.76666670","longitude":"-0.88333330","name":"Bolga Tindongo"},{"id":"856562","latitude":"10.91666670","longitude":"-0.43333330","name":"Bondari"},{"id":"856569","latitude":"10.90777780","longitude":"-0.80805560","name":"Bongo Alagim Giligobisi"},{"id":"856570","latitude":"10.91666670","longitude":"-0.78333330","name":"Bongo Anarorabisi"},{"id":"856572","latitude":"10.71666670","longitude":"-0.41666670","name":"Bongo"},{"id":"856575","latitude":"10.91666670","longitude":"-0.81666670","name":"Bongo Gorogo"},{"id":"856834","latitude":"10.70000000","longitude":"-0.50000000","name":"Bugaad"},{"id":"856835","latitude":"10.70000000","longitude":"-0.50000000","name":"Bugade"},{"id":"856836","latitude":"10.91666670","longitude":"-0.43333330","name":"Bugari"},{"id":"856844","latitude":"11.11666670","longitude":"-0.38333330","name":"Bugili"},{"id":"856847","latitude":"10.86666670","longitude":"-0.46666670","name":"Bugori"},{"id":"856848","latitude":"10.98333330","longitude":"-0.13333330","name":"Bugri"},{"id":"856849","latitude":"10.98333330","longitude":"-0.13333330","name":"Bugri Natinga"},{"id":"856851","latitude":"11.11666670","longitude":"-0.20000000","name":"Bugula"},{"id":"856853","latitude":"10.98333330","longitude":"-0.13333330","name":"B\u00fagur"},{"id":"856854","latitude":"10.98333330","longitude":"-0.13333330","name":"Buguri"},{"id":"856855","latitude":"10.80000000","longitude":"-0.18333330","name":"Buguwia"},{"id":"856856","latitude":"10.66666670","longitude":"-0.33333330","name":"Bugwia"},{"id":"856857","latitude":"10.91666670","longitude":"-0.53333330","name":"Bugzuni Number 1"},{"id":"856858","latitude":"10.91666670","longitude":"-0.53333330","name":"Bugzuni Number 2"},{"id":"856864","latitude":"10.80000000","longitude":"-0.86666670","name":"Bukere"},{"id":"856888","latitude":"10.68333330","longitude":"-0.41666670","name":"Buliga"},{"id":"856893","latitude":"10.91666670","longitude":"-0.85000000","name":"Bullunga"},{"id":"856898","latitude":"10.98333330","longitude":"-0.08333330","name":"Bulpielesi"},{"id":"856900","latitude":"10.98333330","longitude":"-0.08333330","name":"Bulpielisi"},{"id":"856902","latitude":"11.11666670","longitude":"-0.20000000","name":"Bulugu"},{"id":"856903","latitude":"10.68333330","longitude":"-0.41666670","name":"Bulunga"},{"id":"856989","latitude":"10.90000000","longitude":"-0.50000000","name":"Buzinaba"},{"id":"856991","latitude":"10.88333330","longitude":"-1.11666670","name":"Bwania"},{"id":"857023","latitude":"10.58333330","longitude":"-1.18333330","name":"Chana"},{"id":"857030","latitude":"10.68333330","longitude":"-1.50000000","name":"Changanesi"},{"id":"857037","latitude":"10.98333330","longitude":"-1.06666670","name":"Chania"},{"id":"857055","latitude":"10.58333330","longitude":"-1.18333330","name":"Chaza"},{"id":"857110","latitude":"10.83333330","longitude":"-1.23333330","name":"Chiana Abulo"},{"id":"857111","latitude":"10.86666670","longitude":"-1.26666670","name":"Chiana Asunia"},{"id":"857112","latitude":"10.86666670","longitude":"-1.26666670","name":"Chiana Central"},{"id":"857113","latitude":"10.86666670","longitude":"-1.26666670","name":"Chiana"},{"id":"857114","latitude":"10.85000000","longitude":"-1.23333330","name":"Chiana Gwenia"},{"id":"857115","latitude":"10.83333330","longitude":"-1.26666670","name":"Chiana Kaleveo"},{"id":"857116","latitude":"10.85000000","longitude":"-1.31666670","name":"Chiana Wurunia"},{"id":"857117","latitude":"10.85000000","longitude":"-1.30000000","name":"Chiana Yidania"},{"id":"857206","latitude":"10.81527780","longitude":"-1.18111110","name":"Chuchiliga"},{"id":"857207","latitude":"10.81527780","longitude":"-1.18111110","name":"Chuchilliga Azuguyeri Nawasa"},{"id":"857208","latitude":"10.80000000","longitude":"-1.20000000","name":"Chuchilliga Azuguyeri Teedem"},{"id":"857209","latitude":"10.86666670","longitude":"-1.18333330","name":"Chuchilliga Azuguyeri Yipala"},{"id":"857210","latitude":"10.81527780","longitude":"-1.18111110","name":"Chuchilliga Central"},{"id":"857211","latitude":"10.80000000","longitude":"-1.15000000","name":"Chuchilliga Namonsa Adabiinsa"},{"id":"857212","latitude":"10.78333330","longitude":"-1.16666670","name":"Chuchilliga Namonsa"},{"id":"857213","latitude":"10.80000000","longitude":"-1.18333330","name":"Chuchilliga Namonsa Jaata"},{"id":"857249","latitude":"11.01666670","longitude":"-0.15000000","name":"Dabia"},{"id":"857259","latitude":"10.90000000","longitude":"-0.71666670","name":"Daboya"},{"id":"857304","latitude":"10.79833330","longitude":"-0.47388890","name":"Dagbanga"},{"id":"857312","latitude":"10.70000000","longitude":"-0.41666670","name":"Dagunga"},{"id":"857325","latitude":"10.83333330","longitude":"-0.80000000","name":"Dakiu"},{"id":"857330","latitude":"10.91666670","longitude":"-1.33333330","name":"Dakrenia"},{"id":"857332","latitude":"10.91666670","longitude":"-1.33333330","name":"Dakrunia"},{"id":"857356","latitude":"10.53333330","longitude":"-1.41666670","name":"Dambrunsi"},{"id":"857374","latitude":"10.71666670","longitude":"-0.21666670","name":"D\u00e1nfoana"},{"id":"857375","latitude":"10.71666670","longitude":"-0.21666670","name":"Danfonga"},{"id":"857377","latitude":"10.70000000","longitude":"-0.41666670","name":"Danguna"},{"id":"857397","latitude":"10.73333330","longitude":"-0.23333330","name":"Danugu"},{"id":"857399","latitude":"10.71666670","longitude":"-0.21666670","name":"Danvonga"},{"id":"857400","latitude":"10.71666670","longitude":"-0.21666670","name":"Danvorga"},{"id":"857417","latitude":"10.80000000","longitude":"-0.21666670","name":"Dasubansi"},{"id":"857423","latitude":"10.68333330","longitude":"-0.63333330","name":"Datoka Zanwure"},{"id":"857424","latitude":"10.70583330","longitude":"-0.64972220","name":"Datoko"},{"id":"857425","latitude":"10.73333330","longitude":"-0.60000000","name":"Datoko Kpetabom"},{"id":"857426","latitude":"10.73333330","longitude":"-0.61666670","name":"Datoko Namawgo"},{"id":"857428","latitude":"10.70583330","longitude":"-0.64972220","name":"Datuku"},{"id":"857444","latitude":"10.86666670","longitude":"-1.03333330","name":"Dawba"},{"id":"857452","latitude":"10.71666670","longitude":"-0.26666670","name":"Dawsikom"},{"id":"857460","latitude":"10.80000000","longitude":"-0.21666670","name":"Dazubansi"},{"id":"857495","latitude":"11.05000000","longitude":"-0.20000000","name":"Dega"},{"id":"857616","latitude":"10.75000000","longitude":"-1.08333330","name":"Digongo"},{"id":"857644","latitude":"10.70000000","longitude":"-0.60000000","name":"Ditimbule"},{"id":"857647","latitude":"10.78333330","longitude":"-0.21666670","name":"Diyuri"},{"id":"857685","latitude":"10.86666670","longitude":"-1.03333330","name":"Doba"},{"id":"857711","latitude":"10.95000000","longitude":"-0.08333330","name":"Dogbale"},{"id":"857732","latitude":"10.76666670","longitude":"-0.70000000","name":"Doish"},{"id":"857814","latitude":"10.71666670","longitude":"-0.21666670","name":"Donfonga"},{"id":"857817","latitude":"10.63333330","longitude":"-1.41666670","name":"Doninga Central"},{"id":"857818","latitude":"10.61861110","longitude":"-1.42055560","name":"Doninga"},{"id":"857819","latitude":"10.61861110","longitude":"-1.42055560","name":"Doninga Dorinsa"},{"id":"857820","latitude":"10.61666670","longitude":"-1.40000000","name":"Doninga Farinsa"},{"id":"857821","latitude":"10.56666670","longitude":"-1.45000000","name":"Doninga Wupeensa"},{"id":"857842","latitude":"10.63333330","longitude":"-1.41666670","name":"Dorinsa"},{"id":"857849","latitude":"10.71666670","longitude":"-0.26666670","name":"Dorskom"},{"id":"857850","latitude":"10.76666670","longitude":"-0.88333330","name":"Dorungu"},{"id":"857853","latitude":"10.71666670","longitude":"-0.26666670","name":"Dosakum"},{"id":"857889","latitude":"10.83333330","longitude":"-0.80000000","name":"Dua-Apuongo"},{"id":"857899","latitude":"10.88333330","longitude":"-0.78333330","name":"Dua"},{"id":"857936","latitude":"10.78333330","longitude":"-0.26666670","name":"Dudungo"},{"id":"857958","latitude":"10.76666670","longitude":"-0.83333330","name":"Dulugu"},{"id":"857974","latitude":"10.75000000","longitude":"-0.23333330","name":"Dumisbuliga"},{"id":"858000","latitude":"10.78333330","longitude":"-0.21666670","name":"Duri"},{"id":"858002","latitude":"10.88333330","longitude":"-0.70000000","name":"Dusabluga"},{"id":"858003","latitude":"10.76666670","longitude":"-0.70000000","name":"Dushe"},{"id":"858004","latitude":"10.75000000","longitude":"-0.23333330","name":"Dusibuliga"},{"id":"858005","latitude":"10.76666670","longitude":"-0.70000000","name":"Dusi"},{"id":"858007","latitude":"10.75000000","longitude":"-0.70000000","name":"Dusi Gari"},{"id":"858008","latitude":"10.71666670","longitude":"-0.68333330","name":"Dusi Yale"},{"id":"858511","latitude":"10.70000000","longitude":"-0.46666670","name":"Faraga"},{"id":"858512","latitude":"10.68333330","longitude":"-1.30000000","name":"Farensa"},{"id":"858515","latitude":"10.70000000","longitude":"-0.46666670","name":"Fasaga"},{"id":"858552","latitude":"10.96666670","longitude":"-0.80000000","name":"Feo Akunka"},{"id":"858553","latitude":"10.98333330","longitude":"-0.80000000","name":"Feo Ashebre"},{"id":"858554","latitude":"11.00000000","longitude":"-0.81666670","name":"Feo Nabisi"},{"id":"858566","latitude":"11.05000000","longitude":"-0.43333330","name":"Fetiga"},{"id":"858574","latitude":"11.00000000","longitude":"-0.81666670","name":"Fiagu"},{"id":"858613","latitude":"11.00000000","longitude":"-0.81666670","name":"Fiogu"},{"id":"858615","latitude":"10.76666670","longitude":"-1.30000000","name":"Fisa"},{"id":"858651","latitude":"10.61666670","longitude":"-1.40000000","name":"Forinsa"},{"id":"858693","latitude":"10.40000000","longitude":"-1.35000000","name":"Fumbisi Bacheesa"},{"id":"858694","latitude":"10.43333330","longitude":"-1.33333330","name":"Fumbisi Central"},{"id":"858695","latitude":"10.43333330","longitude":"-1.33333330","name":"Fumbisi"},{"id":"858696","latitude":"10.43333330","longitude":"-1.33333330","name":"Fumbisi Yerinsa"},{"id":"858698","latitude":"10.43333330","longitude":"-1.33333330","name":"Fumbusi"},{"id":"858732","latitude":"10.83333330","longitude":"-1.08333330","name":"Gaani"},{"id":"858738","latitude":"10.78333330","longitude":"-0.43333330","name":"Gabuliga"},{"id":"858739","latitude":"10.80000000","longitude":"-0.45000000","name":"Gabuluga"},{"id":"858743","latitude":"10.60000000","longitude":"-1.21666670","name":"Gadem"},{"id":"858746","latitude":"10.65000000","longitude":"-0.43333330","name":"Ga"},{"id":"858748","latitude":"10.65000000","longitude":"-0.43333330","name":"Gaga"},{"id":"858751","latitude":"10.95000000","longitude":"-0.18333330","name":"Gago"},{"id":"858755","latitude":"11.08333330","longitude":"-0.36666670","name":"Galaka"},{"id":"858756","latitude":"11.08333330","longitude":"-0.36666670","name":"Galeka"},{"id":"858763","latitude":"10.75000000","longitude":"-0.81666670","name":"Gambibigo"},{"id":"858765","latitude":"10.88333330","longitude":"-0.91666670","name":"Gamborongo"},{"id":"858766","latitude":"10.86666670","longitude":"-0.91666670","name":"Gambrongo Agusi"},{"id":"858767","latitude":"10.88333330","longitude":"-0.91666670","name":"Gambrongo Azaabisi"},{"id":"858768","latitude":"10.75000000","longitude":"-0.81666670","name":"Gambugo"},{"id":"858776","latitude":"10.75000000","longitude":"-0.61666670","name":"Gangaboka"},{"id":"858777","latitude":"11.03333330","longitude":"-0.46666670","name":"Ganga"},{"id":"858778","latitude":"11.05000000","longitude":"-0.25000000","name":"Gangari"},{"id":"858779","latitude":"10.75000000","longitude":"-0.61666670","name":"Gangoboka"},{"id":"858780","latitude":"11.03333330","longitude":"-0.46666670","name":"Gango"},{"id":"858781","latitude":"10.83333330","longitude":"-1.08333330","name":"Gani"},{"id":"858784","latitude":"10.75000000","longitude":"-0.70000000","name":"Gari"},{"id":"858788","latitude":"10.85000000","longitude":"-0.18333330","name":"Garu"},{"id":"858790","latitude":"10.85000000","longitude":"-0.18333330","name":"Garu Natinga"},{"id":"858791","latitude":"11.06666670","longitude":"-0.36666670","name":"Gasongo"},{"id":"858824","latitude":"10.85000000","longitude":"-0.20000000","name":"Gbanterago"},{"id":"858825","latitude":"10.81666670","longitude":"-0.16666670","name":"Gbantirigo"},{"id":"858826","latitude":"10.78333330","longitude":"-0.51666670","name":"Gbantongo Aronga"},{"id":"858827","latitude":"10.80000000","longitude":"-0.51666670","name":"Gbantongo"},{"id":"858828","latitude":"10.81666670","longitude":"-0.51666670","name":"Gbantongo Kongo"},{"id":"858837","latitude":"10.56666670","longitude":"-1.33333330","name":"Gbedema Central"},{"id":"858838","latitude":"10.56666670","longitude":"-1.33333330","name":"Gbedema Jagsa"},{"id":"858839","latitude":"10.60000000","longitude":"-1.31666670","name":"Gbedema Kunkuak"},{"id":"858849","latitude":"10.78333330","longitude":"-0.75000000","name":"Gbega"},{"id":"858856","latitude":"10.71666670","longitude":"-0.81666670","name":"Gbego"},{"id":"858858","latitude":"10.78333330","longitude":"-0.20000000","name":"Gbeliginvusi"},{"id":"858868","latitude":"10.60000000","longitude":"-0.80000000","name":"Gbeo"},{"id":"858869","latitude":"10.60000000","longitude":"-0.80000000","name":"Gbeogo"},{"id":"858896","latitude":"10.76666670","longitude":"-0.65000000","name":"Gbongbanre"},{"id":"858897","latitude":"10.71666670","longitude":"-0.41666670","name":"Gbong Beda"},{"id":"858929","latitude":"10.91666670","longitude":"-1.13333330","name":"Gia Nangwao"},{"id":"858947","latitude":"11.11666670","longitude":"-0.30000000","name":"Ginteka"},{"id":"858970","latitude":"10.93333330","longitude":"-0.23333330","name":"Goasalaga"},{"id":"858972","latitude":"10.55000000","longitude":"-1.18333330","name":"Gobasa"},{"id":"858973","latitude":"10.55000000","longitude":"-1.18333330","name":"Gobesa"},{"id":"858976","latitude":"10.75000000","longitude":"-0.45000000","name":"Gode"},{"id":"858980","latitude":"10.75000000","longitude":"-0.45000000","name":"Godo"},{"id":"858985","latitude":"10.93333330","longitude":"-0.88333330","name":"Go"},{"id":"858986","latitude":"10.93333330","longitude":"-0.88333330","name":"Gogo"},{"id":"859007","latitude":"10.90000000","longitude":"-0.10000000","name":"Gomne"},{"id":"859022","latitude":"10.88333330","longitude":"-0.70000000","name":"Gongo"},{"id":"859026","latitude":"11.00000000","longitude":"-0.25000000","name":"Gonre"},{"id":"859031","latitude":"10.91666670","longitude":"-0.90000000","name":"Goo Abagnabisi"},{"id":"859032","latitude":"10.93333330","longitude":"-0.88333330","name":"Goo Abokobisi"},{"id":"859033","latitude":"10.95000000","longitude":"-0.90000000","name":"Goo Kadare Abagnabisi"},{"id":"859034","latitude":"10.93333330","longitude":"-0.86666670","name":"Goo Nayorogo"},{"id":"859038","latitude":"10.75000000","longitude":"-0.45000000","name":"Gori"},{"id":"859041","latitude":"10.98333330","longitude":"-0.41666670","name":"Gorogo"},{"id":"859042","latitude":"10.70000000","longitude":"-0.85000000","name":"Gorogu"},{"id":"859045","latitude":"10.98333330","longitude":"-0.41666670","name":"Goruku"},{"id":"859046","latitude":"10.95000000","longitude":"-1.00000000","name":"Goruma"},{"id":"859047","latitude":"11.03333330","longitude":"-0.21666670","name":"Goseesi"},{"id":"859050","latitude":"10.93333330","longitude":"-0.23333330","name":"Gotisalaga"},{"id":"859057","latitude":"10.85000000","longitude":"-0.81666670","name":"Gowri Yorogo"},{"id":"859059","latitude":"10.88333330","longitude":"-0.50000000","name":"Gozesi"},{"id":"859060","latitude":"10.93333330","longitude":"-0.51666670","name":"Goziesi"},{"id":"859096","latitude":"11.15000000","longitude":"-0.26666670","name":"Gumakatari"},{"id":"859097","latitude":"11.15000000","longitude":"-0.26666670","name":"Gumakateri"},{"id":"859098","latitude":"11.15000000","longitude":"-0.26666670","name":"Gumaketere"},{"id":"859101","latitude":"10.75000000","longitude":"-0.48333330","name":"Gumbari"},{"id":"859102","latitude":"10.83333330","longitude":"-0.48333330","name":"Gumbo Binaba"},{"id":"859103","latitude":"10.70000000","longitude":"-0.45000000","name":"Gumbo"},{"id":"859105","latitude":"10.90000000","longitude":"-0.10000000","name":"Gumne"},{"id":"859108","latitude":"10.90000000","longitude":"-0.35000000","name":"Gumshe"},{"id":"859109","latitude":"10.98333330","longitude":"-0.35000000","name":"Gumyoko"},{"id":"859118","latitude":"10.66666670","longitude":"-0.33333330","name":"Gungwia"},{"id":"859124","latitude":"10.98333330","longitude":"-0.35000000","name":"Gunyioko"},{"id":"859126","latitude":"10.85000000","longitude":"-0.66666670","name":"Guohe"},{"id":"859132","latitude":"10.75000000","longitude":"-0.48333330","name":"Gure"},{"id":"859136","latitude":"10.70000000","longitude":"-0.85000000","name":"Gurugu"},{"id":"859148","latitude":"11.03333330","longitude":"-0.21666670","name":"Guziesi"},{"id":"859149","latitude":"11.06666670","longitude":"-0.36666670","name":"Guzongo"},{"id":"859156","latitude":"10.85000000","longitude":"-1.23333330","name":"Gwenia"},{"id":"859166","latitude":"10.88333330","longitude":"-0.50000000","name":"Gwosheshi"},{"id":"859167","latitude":"10.70000000","longitude":"-0.46666670","name":"Gwosi"},{"id":"859192","latitude":"10.38333330","longitude":"-1.36666670","name":"Gyanasi"},{"id":"859217","latitude":"10.88333330","longitude":"-0.15000000","name":"Gyelakologo"},{"id":"859224","latitude":"11.05000000","longitude":"-0.43333330","name":"Gyetega"},{"id":"859453","latitude":"10.85000000","longitude":"-1.30000000","name":"Idonia"},{"id":"859534","latitude":"10.56666670","longitude":"-1.10000000","name":"Jakwansatambia"},{"id":"859556","latitude":"10.85000000","longitude":"-1.06666670","name":"Janania"},{"id":"859593","latitude":"10.71666670","longitude":"-1.41666670","name":"Jasa"},{"id":"859595","latitude":"10.80000000","longitude":"-1.18333330","name":"Jata"},{"id":"859626","latitude":"10.88333330","longitude":"-0.15000000","name":"Jelekologo"},{"id":"859651","latitude":"11.06666670","longitude":"-0.30000000","name":"Jentega"},{"id":"859704","latitude":"11.05000000","longitude":"-0.01666670","name":"Jingere"},{"id":"859706","latitude":"10.55000000","longitude":"-1.43333330","name":"Jiningsa"},{"id":"859821","latitude":"10.96666670","longitude":"-0.20000000","name":"Kabengo"},{"id":"859837","latitude":"10.93333330","longitude":"-0.75000000","name":"Kabre"},{"id":"859855","latitude":"10.95000000","longitude":"-0.90000000","name":"Kadare"},{"id":"859856","latitude":"10.95000000","longitude":"-0.90000000","name":"Kaddre"},{"id":"859860","latitude":"10.58333330","longitude":"-1.23333330","name":"Kadema Banyangsa"},{"id":"859861","latitude":"10.58333330","longitude":"-1.23333330","name":"Kadema Central"},{"id":"859863","latitude":"10.58333330","longitude":"-1.18333330","name":"Kadema Changsa"},{"id":"859864","latitude":"10.60000000","longitude":"-1.21666670","name":"Kadema Gaddem"},{"id":"859865","latitude":"10.55000000","longitude":"-1.18333330","name":"Kadema Gobsa"},{"id":"859866","latitude":"10.58333330","longitude":"-1.23333330","name":"Kadema"},{"id":"859867","latitude":"10.58333330","longitude":"-1.23333330","name":"Kadem"},{"id":"859872","latitude":"10.90000000","longitude":"-0.31666670","name":"Kadi"},{"id":"859874","latitude":"10.90000000","longitude":"-0.31666670","name":"Kado"},{"id":"859876","latitude":"10.96666670","longitude":"-1.16666670","name":"Kadoro"},{"id":"859887","latitude":"10.90000000","longitude":"-0.18333330","name":"Kagbiri"},{"id":"859898","latitude":"10.98333330","longitude":"-1.31666670","name":"Kaiyoro"},{"id":"859899","latitude":"10.93333330","longitude":"-1.30000000","name":"Kaiyoro-Uru"},{"id":"859915","latitude":"10.91666670","longitude":"-0.21666670","name":"Kakansiga"},{"id":"859931","latitude":"10.75000000","longitude":"-0.90000000","name":"Kalbiongo"},{"id":"859932","latitude":"10.68333330","longitude":"-0.65000000","name":"Kalboka"},{"id":"859936","latitude":"10.55000000","longitude":"-1.05000000","name":"Kalesesi"},{"id":"859937","latitude":"10.83333330","longitude":"-1.26666670","name":"Kalevio"},{"id":"859961","latitude":"10.86666670","longitude":"-0.75000000","name":"Kambozugu"},{"id":"859962","latitude":"10.86666670","longitude":"-0.51666670","name":"Kamega"},{"id":"859971","latitude":"10.96666670","longitude":"-0.51666670","name":"Kamsango"},{"id":"859972","latitude":"10.96666670","longitude":"-0.51666670","name":"Kamsaugo"},{"id":"859973","latitude":"11.03333330","longitude":"-0.05000000","name":"Kamsori"},{"id":"859981","latitude":"10.75000000","longitude":"-1.33333330","name":"Kandem"},{"id":"859984","latitude":"10.86666670","longitude":"-0.95000000","name":"Kandiga Akamo"},{"id":"859985","latitude":"10.85000000","longitude":"-0.98333330","name":"Kandiga Atyoro"},{"id":"859986","latitude":"10.91666670","longitude":"-0.95000000","name":"Kandiga Bembisi"},{"id":"859987","latitude":"10.88333330","longitude":"-0.93333330","name":"Kandiga"},{"id":"859988","latitude":"10.86666670","longitude":"-0.96666670","name":"Kandiga Kasi"},{"id":"859989","latitude":"10.88333330","longitude":"-0.93333330","name":"Kandiga Kuriba"},{"id":"859990","latitude":"10.91666670","longitude":"-0.95000000","name":"Kandiga Longo"},{"id":"859995","latitude":"10.91666670","longitude":"-0.93333330","name":"Kanga"},{"id":"859998","latitude":"11.13333330","longitude":"-0.15000000","name":"Kangberigu"},{"id":"860004","latitude":"10.51666670","longitude":"-1.36666670","name":"Kanjaga"},{"id":"860005","latitude":"10.50000000","longitude":"-1.35000000","name":"Kanjarga Central"},{"id":"860006","latitude":"10.53333330","longitude":"-1.41666670","name":"Kanjarga Daburinsa"},{"id":"860007","latitude":"10.55000000","longitude":"-1.43333330","name":"Kanjarga Jiningsa"},{"id":"860009","latitude":"10.50000000","longitude":"-1.35000000","name":"Kanjarga Nyakpiensa"},{"id":"860010","latitude":"10.55000000","longitude":"-1.38333330","name":"Kanjarga Vundem"},{"id":"860011","latitude":"11.13333330","longitude":"-0.15000000","name":"Kanjerigu"},{"id":"860029","latitude":"10.96666670","longitude":"-0.51666670","name":"Kansango"},{"id":"860034","latitude":"10.96666670","longitude":"-0.75000000","name":"Kansinga"},{"id":"860037","latitude":"10.75000000","longitude":"-0.41666670","name":"Kansongo"},{"id":"860038","latitude":"10.75000000","longitude":"-0.41666670","name":"Kansorgo"},{"id":"860043","latitude":"10.78555560","longitude":"-0.80083330","name":"Kantisabilisi"},{"id":"860056","latitude":"10.75000000","longitude":"-0.66666670","name":"Kaogo"},{"id":"860073","latitude":"11.10000000","longitude":"-0.41666670","name":"Kare"},{"id":"860087","latitude":"10.90000000","longitude":"-1.00000000","name":"Kasanongo"},{"id":"860101","latitude":"10.86666670","longitude":"-0.96666670","name":"Kasi"},{"id":"860102","latitude":"10.50000000","longitude":"-1.30000000","name":"Kasisa"},{"id":"860125","latitude":"10.68333330","longitude":"-0.61666670","name":"Katansiga"},{"id":"860138","latitude":"10.84388890","longitude":"-1.33666670","name":"Katiu"},{"id":"860147","latitude":"11.01666670","longitude":"-0.43333330","name":"Kausaungo"},{"id":"860148","latitude":"10.85000000","longitude":"-1.45000000","name":"Kauwenia"},{"id":"860163","latitude":"10.83333330","longitude":"-0.95000000","name":"Kawlogo"},{"id":"860164","latitude":"11.03333330","longitude":"-0.41666670","name":"Kawmaka"},{"id":"860176","latitude":"10.98333330","longitude":"-1.31666670","name":"Kayoro Achasongo"},{"id":"860177","latitude":"10.98333330","longitude":"-1.35000000","name":"Kayoro Adunania"},{"id":"860178","latitude":"10.98333330","longitude":"-1.31666670","name":"Kayoro"},{"id":"860179","latitude":"10.93333330","longitude":"-1.33333330","name":"Kayoro Kumbilnia"},{"id":"860180","latitude":"10.95000000","longitude":"-1.31666670","name":"Kayoro Saborinia"},{"id":"860181","latitude":"10.93333330","longitude":"-1.30000000","name":"Kayoro Wuru"},{"id":"860239","latitude":"10.84388890","longitude":"-1.33666670","name":"Ketiu Asabia"},{"id":"860240","latitude":"10.84388890","longitude":"-1.33666670","name":"Ketiu"},{"id":"860243","latitude":"10.93333330","longitude":"-1.11666670","name":"Keyilo"},{"id":"860248","latitude":"10.68333330","longitude":"-1.50000000","name":"Kiau"},{"id":"860257","latitude":"10.91666670","longitude":"-0.21666670","name":"Kikaziegu"},{"id":"860286","latitude":"11.05000000","longitude":"-0.01666670","name":"Kiyinchingu"},{"id":"860386","latitude":"10.96666670","longitude":"-0.53333330","name":"Kogo"},{"id":"860415","latitude":"11.00000000","longitude":"-0.18333330","name":"Koka"},{"id":"860439","latitude":"10.83333330","longitude":"-0.51666670","name":"Kokole"},{"id":"860488","latitude":"10.95000000","longitude":"-0.10000000","name":"Kolebur"},{"id":"860492","latitude":"10.55000000","longitude":"-1.05000000","name":"Kolesesi"},{"id":"860502","latitude":"10.95000000","longitude":"-0.10000000","name":"Kolobore"},{"id":"860504","latitude":"10.61666670","longitude":"-0.83333330","name":"Kologo Kanvawya"},{"id":"860505","latitude":"10.73055560","longitude":"-1.07888890","name":"Kologo"},{"id":"860506","latitude":"10.80000000","longitude":"-1.01666670","name":"Kologu Akundaw"},{"id":"860507","latitude":"10.65000000","longitude":"-1.10000000","name":"Kologu Amodalga"},{"id":"860508","latitude":"10.76666670","longitude":"-1.11666670","name":"Kologu Biu"},{"id":"860509","latitude":"10.75000000","longitude":"-1.08333330","name":"Kologu Digongo"},{"id":"860510","latitude":"10.60500000","longitude":"-0.85888890","name":"Kologu"},{"id":"860511","latitude":"10.73055560","longitude":"-1.07888890","name":"Kologu Nayiri"},{"id":"860512","latitude":"10.76666670","longitude":"-1.05000000","name":"Kologu Tangabisi"},{"id":"860513","latitude":"10.71666670","longitude":"-1.05000000","name":"Kologu Wingo"},{"id":"860514","latitude":"10.73333330","longitude":"-1.05000000","name":"Kologu Zuo"},{"id":"860518","latitude":"10.90000000","longitude":"-0.28333330","name":"Kolomvaga"},{"id":"860519","latitude":"10.98333330","longitude":"-0.20000000","name":"Kolpeligo"},{"id":"860520","latitude":"10.90000000","longitude":"-0.13333330","name":"Kolsabulga"},{"id":"860521","latitude":"10.90000000","longitude":"-0.13333330","name":"Kolsabuliga"},{"id":"860522","latitude":"11.11666670","longitude":"-0.15000000","name":"Koltamisi"},{"id":"860523","latitude":"11.08333330","longitude":"-0.26666670","name":"Koltanga"},{"id":"860526","latitude":"10.93333330","longitude":"-0.70000000","name":"Kolumasa"},{"id":"860527","latitude":"11.03333330","longitude":"-0.41666670","name":"Komaka"},{"id":"860556","latitude":"10.71666670","longitude":"-0.63333330","name":"Kondzua"},{"id":"860561","latitude":"10.83333330","longitude":"-0.70000000","name":"Kongo Asinabisi"},{"id":"860564","latitude":"10.81666670","longitude":"-0.51666670","name":"Kongo"},{"id":"860604","latitude":"10.75000000","longitude":"-0.43333330","name":"Kopela"},{"id":"860606","latitude":"10.75000000","longitude":"-0.43333330","name":"Kopella"},{"id":"860607","latitude":"10.73333330","longitude":"-0.65000000","name":"Kopielga"},{"id":"860617","latitude":"10.86666670","longitude":"-1.10000000","name":"Korania"},{"id":"860633","latitude":"10.55000000","longitude":"-1.08333330","name":"Korogadoni"},{"id":"860653","latitude":"11.01666670","longitude":"-0.43333330","name":"Kosongo"},{"id":"860697","latitude":"10.66666670","longitude":"-0.40000000","name":"Kpabuga"},{"id":"860712","latitude":"11.10000000","longitude":"-0.26666670","name":"Kpalaga"},{"id":"860720","latitude":"10.76666670","longitude":"-0.73333330","name":"Kpale"},{"id":"860721","latitude":"10.85000000","longitude":"-0.53333330","name":"Kpalesoko"},{"id":"860725","latitude":"11.03333330","longitude":"-0.26666670","name":"Kpaligu"},{"id":"860727","latitude":"10.68333330","longitude":"-0.43333330","name":"Kpalisako"},{"id":"860728","latitude":"10.86666670","longitude":"-0.41666670","name":"Kpalisako Tanga"},{"id":"860733","latitude":"10.71666670","longitude":"-0.31666670","name":"Kpalsako"},{"id":"860736","latitude":"10.98333330","longitude":"-0.23333330","name":"Kpalugu"},{"id":"860737","latitude":"11.05000000","longitude":"-0.05000000","name":"Kpalugu Zongo"},{"id":"860740","latitude":"11.01666670","longitude":"-0.30000000","name":"Kpalweaga"},{"id":"860784","latitude":"10.86666670","longitude":"-0.25000000","name":"Kpatua"},{"id":"860786","latitude":"10.86666670","longitude":"-0.25000000","name":"Kpatuya"},{"id":"860818","latitude":"10.73333330","longitude":"-0.60000000","name":"Kpetabon"},{"id":"860839","latitude":"10.81666670","longitude":"-0.08333330","name":"Kpikpira Natinga"},{"id":"860862","latitude":"10.75000000","longitude":"-0.21666670","name":"Kpokparago"},{"id":"860985","latitude":"10.98333330","longitude":"-0.53333330","name":"Kubogu"},{"id":"860986","latitude":"10.90000000","longitude":"-0.48333330","name":"Kuboko"},{"id":"860987","latitude":"10.90000000","longitude":"-0.48333330","name":"Kuboku"},{"id":"860990","latitude":"11.01666670","longitude":"-0.01666670","name":"Kubonga"},{"id":"860991","latitude":"10.98333330","longitude":"-0.53333330","name":"Kubongo"},{"id":"860995","latitude":"10.98333330","longitude":"-0.53333330","name":"Kubugo"},{"id":"861010","latitude":"10.96666670","longitude":"-1.40000000","name":"Kudu"},{"id":"861015","latitude":"10.91666670","longitude":"-0.10000000","name":"Kugasego Bugri"},{"id":"861022","latitude":"10.78333330","longitude":"-0.28333330","name":"Kugri"},{"id":"861023","latitude":"10.78333330","longitude":"-0.28333330","name":"Kugri Natinga"},{"id":"861024","latitude":"10.90000000","longitude":"-0.11666670","name":"Kugsabla"},{"id":"861025","latitude":"10.88333330","longitude":"-0.18333330","name":"Kuguragu"},{"id":"861026","latitude":"10.78333330","longitude":"-0.65000000","name":"Kugure"},{"id":"861028","latitude":"10.78333330","longitude":"-0.28333330","name":"Kuguri"},{"id":"861029","latitude":"10.90000000","longitude":"-0.18333330","name":"Kugurisua"},{"id":"861030","latitude":"10.91666670","longitude":"-0.10000000","name":"Kuguriziegu"},{"id":"861031","latitude":"10.90000000","longitude":"-0.11666670","name":"Kugusabliga"},{"id":"861032","latitude":"10.90000000","longitude":"-0.18333330","name":"Kuguza"},{"id":"861033","latitude":"10.90000000","longitude":"-0.18333330","name":"Kuguzua"},{"id":"861044","latitude":"11.00000000","longitude":"-0.18333330","name":"Kuka"},{"id":"861045","latitude":"10.98333330","longitude":"-0.18333330","name":"Kukdabodi"},{"id":"861048","latitude":"10.96666670","longitude":"-0.53333330","name":"Kukogo"},{"id":"861050","latitude":"10.98333330","longitude":"-0.20000000","name":"Kukosi"},{"id":"861052","latitude":"10.70000000","longitude":"-0.48333330","name":"Kukowa"},{"id":"861056","latitude":"10.75000000","longitude":"-0.21666670","name":"Kukparibuliga"},{"id":"861059","latitude":"10.88333330","longitude":"-0.18333330","name":"Kuk Raago"},{"id":"861064","latitude":"10.70000000","longitude":"-0.48333330","name":"Kukua"},{"id":"861072","latitude":"10.95000000","longitude":"-0.53333330","name":"Kukurizoga"},{"id":"861075","latitude":"10.86666670","longitude":"-0.35000000","name":"Kulaga"},{"id":"861076","latitude":"10.86666670","longitude":"-0.35000000","name":"Kulago"},{"id":"861078","latitude":"10.93333330","longitude":"-0.70000000","name":"Kulamassa"},{"id":"861080","latitude":"10.83333330","longitude":"-0.96666670","name":"Kulbia"},{"id":"861087","latitude":"10.95000000","longitude":"-0.73333330","name":"Kuliyawgo"},{"id":"861095","latitude":"10.98333330","longitude":"-0.06666670","name":"Kuloko"},{"id":"861096","latitude":"11.11666670","longitude":"-0.16666670","name":"Kulonaba"},{"id":"861100","latitude":"11.10000000","longitude":"-0.20000000","name":"Kulpielegu"},{"id":"861101","latitude":"11.11666670","longitude":"-0.15000000","name":"Kultamise"},{"id":"861102","latitude":"11.11666670","longitude":"-0.15000000","name":"Kultesi"},{"id":"861106","latitude":"10.60000000","longitude":"-0.75000000","name":"Kulugu"},{"id":"861107","latitude":"11.15000000","longitude":"-0.21666670","name":"Kulugungu"},{"id":"861108","latitude":"10.98333330","longitude":"-0.20000000","name":"Kulukpengo"},{"id":"861109","latitude":"10.93333330","longitude":"-0.70000000","name":"Kulumasa"},{"id":"861111","latitude":"11.15000000","longitude":"-0.21666670","name":"Kulungugu"},{"id":"861114","latitude":"11.13333330","longitude":"-0.18333330","name":"Kulupielegu"},{"id":"861115","latitude":"11.13333330","longitude":"-0.18333330","name":"Kulupielugu"},{"id":"861117","latitude":"10.90000000","longitude":"-0.11666670","name":"Kulusabelega"},{"id":"861118","latitude":"11.03333330","longitude":"-0.01666670","name":"Kuluwoko"},{"id":"861134","latitude":"10.93333330","longitude":"-1.33333330","name":"Kumbilnia"},{"id":"861135","latitude":"10.78333330","longitude":"-0.93333330","name":"Kumbilungu"},{"id":"861137","latitude":"10.80000000","longitude":"-0.81666670","name":"Kumbosigo"},{"id":"861138","latitude":"10.80000000","longitude":"-0.81666670","name":"Kumbosugu"},{"id":"861139","latitude":"10.65000000","longitude":"-0.61666670","name":"Kumbude"},{"id":"861140","latitude":"10.65000000","longitude":"-0.61666670","name":"Kumbudi"},{"id":"861152","latitude":"10.96666670","longitude":"-0.33333330","name":"Kumpalgoga"},{"id":"861172","latitude":"10.83333330","longitude":"-1.03333330","name":"Kungabnia"},{"id":"861175","latitude":"10.83333330","longitude":"-0.70000000","name":"Kung"},{"id":"861177","latitude":"10.56666670","longitude":"-1.03333330","name":"Kungongo"},{"id":"861179","latitude":"10.60000000","longitude":"-1.31666670","name":"Kungwak"},{"id":"861181","latitude":"10.81666670","longitude":"-0.76666670","name":"Kunkoa"},{"id":"861188","latitude":"10.83333330","longitude":"-0.63333330","name":"Kunkuzei"},{"id":"861190","latitude":"10.60000000","longitude":"-1.31666670","name":"Kunkwa"},{"id":"861220","latitude":"10.96666670","longitude":"-0.33333330","name":"Kupaligogo"},{"id":"861222","latitude":"10.75000000","longitude":"-0.66666670","name":"Kupielga Kaago"},{"id":"861223","latitude":"10.73333330","longitude":"-0.65000000","name":"Kupielga"},{"id":"861234","latitude":"10.88333330","longitude":"-0.18333330","name":"Kurawgo"},{"id":"861246","latitude":"10.73333330","longitude":"-0.46666670","name":"Kusanaba Natinga"},{"id":"861254","latitude":"10.73333330","longitude":"-0.46666670","name":"Kusinaba"},{"id":"861261","latitude":"10.80000000","longitude":"-0.25000000","name":"Kutikpema"},{"id":"861264","latitude":"10.80000000","longitude":"-0.25000000","name":"Kutiskpem"},{"id":"861297","latitude":"10.76666670","longitude":"-1.26666670","name":"Kwabidem"},{"id":"861446","latitude":"10.86666670","longitude":"-1.10000000","name":"Kwarania"},{"id":"861506","latitude":"10.73333330","longitude":"-1.21666670","name":"Kweri"},{"id":"861530","latitude":"10.86666670","longitude":"-0.75000000","name":"Kwilibolugu"},{"id":"861536","latitude":"10.80000000","longitude":"-0.81666670","name":"Kwmbosago"},{"id":"861627","latitude":"10.73333330","longitude":"-0.51666670","name":"Lambari"},{"id":"861629","latitude":"10.91666670","longitude":"-0.51666670","name":"Lamboya"},{"id":"861650","latitude":"10.78333330","longitude":"-0.26666670","name":"Langwaoranan Godun"},{"id":"861673","latitude":"11.00000000","longitude":"-0.16666670","name":"Lasaga"},{"id":"861692","latitude":"10.61666670","longitude":"-0.76666670","name":"Lawgawre"},{"id":"861759","latitude":"10.91666670","longitude":"-0.95000000","name":"Longo"},{"id":"861761","latitude":"10.63333330","longitude":"-1.28333330","name":"Longsa"},{"id":"861765","latitude":"10.61666670","longitude":"-0.76666670","name":"Lori"},{"id":"861788","latitude":"10.68333330","longitude":"-0.41666670","name":"Lunga"},{"id":"861792","latitude":"10.76666670","longitude":"-1.28333330","name":"Lungsa"},{"id":"861889","latitude":"10.35000000","longitude":"-1.40000000","name":"Mampotunbego"},{"id":"861897","latitude":"11.08333330","longitude":"-0.08333330","name":"Mandago"},{"id":"861905","latitude":"11.08333330","longitude":"-0.08333330","name":"Mandugu"},{"id":"861917","latitude":"11.01666670","longitude":"-0.26666670","name":"Manga"},{"id":"862004","latitude":"10.95000000","longitude":"-0.98333330","name":"Manyoro"},{"id":"862046","latitude":"10.95000000","longitude":"-0.98333330","name":"Mayoro"},{"id":"862061","latitude":"10.91666670","longitude":"-0.98333330","name":"Medigo"},{"id":"862066","latitude":"11.03333330","longitude":"-0.18333330","name":"Megoga"},{"id":"862073","latitude":"10.73333330","longitude":"-0.28333330","name":"Melibog"},{"id":"862087","latitude":"10.70000000","longitude":"-0.26666670","name":"Mengyam"},{"id":"862174","latitude":"10.75000000","longitude":"-0.31666670","name":"Millibongo"},{"id":"862193","latitude":"10.75000000","longitude":"-0.31666670","name":"Mirigabong"},{"id":"862194","latitude":"10.91666670","longitude":"-0.98333330","name":"Mirigu Achobise"},{"id":"862195","latitude":"10.91666670","longitude":"-0.98333330","name":"Mirigu Central"},{"id":"862196","latitude":"10.91666670","longitude":"-0.98333330","name":"Mirigu"},{"id":"862197","latitude":"10.93333330","longitude":"-0.96666670","name":"Mirigu Nabango"},{"id":"862198","latitude":"11.06666670","longitude":"-0.20000000","name":"Mishga"},{"id":"862201","latitude":"11.06666670","longitude":"-0.20000000","name":"Misiga"},{"id":"862205","latitude":"11.06666670","longitude":"-0.20000000","name":"Missiga"},{"id":"862230","latitude":"11.13222220","longitude":"-0.26500000","name":"Mogonori"},{"id":"862240","latitude":"10.35000000","longitude":"-1.40000000","name":"Mompotunbego"},{"id":"862261","latitude":"11.00000000","longitude":"-0.11666670","name":"Morgo"},{"id":"862272","latitude":"10.85000000","longitude":"-0.75000000","name":"Moshi"},{"id":"862284","latitude":"11.03333330","longitude":"-0.18333330","name":"Moyogogo"},{"id":"862379","latitude":"10.96666670","longitude":"-0.05000000","name":"Mumanbore"},{"id":"862391","latitude":"11.00000000","longitude":"-0.11666670","name":"Muogo"},{"id":"862400","latitude":"10.78333330","longitude":"-0.21666670","name":"Murugu"},{"id":"862408","latitude":"10.75000000","longitude":"-0.33333330","name":"Mwarigo"},{"id":"862420","latitude":"10.93333330","longitude":"-0.96666670","name":"Nabango"},{"id":"862431","latitude":"10.93333330","longitude":"-1.16666670","name":"Nabio"},{"id":"862432","latitude":"10.91666670","longitude":"-0.78333330","name":"Nabisi"},{"id":"862486","latitude":"10.88333330","longitude":"-0.36666670","name":"Nafkoliga"},{"id":"862487","latitude":"10.88333330","longitude":"-0.36666670","name":"Nafkuliga"},{"id":"862488","latitude":"10.60944440","longitude":"-1.02944440","name":"Naga Central"},{"id":"862489","latitude":"10.60944440","longitude":"-1.02944440","name":"Naga Chom"},{"id":"862491","latitude":"10.56666670","longitude":"-1.03333330","name":"Naga Kongongo"},{"id":"862492","latitude":"10.55000000","longitude":"-1.05000000","name":"Naga Konlogsi"},{"id":"862493","latitude":"10.88333330","longitude":"-1.10000000","name":"Nagalakinia"},{"id":"862496","latitude":"10.60944440","longitude":"-1.02944440","name":"Naga"},{"id":"862516","latitude":"10.90000000","longitude":"-1.03333330","name":"Naiagnia"},{"id":"862520","latitude":"11.01666670","longitude":"-0.25000000","name":"Naiyoko"},{"id":"862532","latitude":"11.01666670","longitude":"-0.08333330","name":"Nakambo"},{"id":"862534","latitude":"11.01666670","longitude":"-0.08333330","name":"Nakam"},{"id":"862538","latitude":"11.01666670","longitude":"-0.08333330","name":"Nakom"},{"id":"862539","latitude":"10.81166670","longitude":"-1.43055560","name":"Nakong-Atinia"},{"id":"862540","latitude":"10.85000000","longitude":"-1.45000000","name":"Nakong Kawenia"},{"id":"862541","latitude":"10.81166670","longitude":"-1.43055560","name":"Nakong"},{"id":"862542","latitude":"10.78333330","longitude":"-1.46666670","name":"Nakong Yelania"},{"id":"862574","latitude":"10.73333330","longitude":"-0.51666670","name":"Nakruguboko"},{"id":"862600","latitude":"10.83333330","longitude":"-0.16666670","name":"Namaltiega"},{"id":"862606","latitude":"10.98250000","longitude":"-0.85277780","name":"Namango Abiribisi"},{"id":"862611","latitude":"10.73333330","longitude":"-0.61666670","name":"Namawgo"},{"id":"862616","latitude":"10.90000000","longitude":"-1.03333330","name":"Nambasenia"},{"id":"862633","latitude":"10.75000000","longitude":"-0.50000000","name":"Namogo"},{"id":"862635","latitude":"10.90000000","longitude":"-1.08333330","name":"Namolo"},{"id":"862641","latitude":"10.98250000","longitude":"-0.85277780","name":"Namoo"},{"id":"862642","latitude":"10.98250000","longitude":"-0.85277780","name":"Namorgo"},{"id":"862649","latitude":"10.93333330","longitude":"-1.16666670","name":"Na"},{"id":"862671","latitude":"10.88333330","longitude":"-1.10000000","name":"Nangalkinia"},{"id":"862673","latitude":"10.75000000","longitude":"-0.50000000","name":"Nangamoga"},{"id":"862678","latitude":"10.85777780","longitude":"-0.67111110","name":"Nangauri"},{"id":"862684","latitude":"10.85777780","longitude":"-0.67111110","name":"Nangodi Kalini"},{"id":"862685","latitude":"10.85777780","longitude":"-0.67111110","name":"Nangodi"},{"id":"862687","latitude":"10.70000000","longitude":"-1.48333330","name":"Nangruma"},{"id":"862695","latitude":"10.91666670","longitude":"-1.13333330","name":"Nangwao"},{"id":"862730","latitude":"10.90000000","longitude":"-0.20000000","name":"Napaad"},{"id":"862732","latitude":"10.90000000","longitude":"-0.20000000","name":"Napari"},{"id":"862735","latitude":"10.95000000","longitude":"-0.26666670","name":"Narango"},{"id":"862736","latitude":"10.96666670","longitude":"-0.43333330","name":"Narigo"},{"id":"862737","latitude":"10.88333330","longitude":"-0.50000000","name":"Narogo"},{"id":"862739","latitude":"10.95000000","longitude":"-0.26666670","name":"Narongo"},{"id":"862764","latitude":"10.81666670","longitude":"-0.26666670","name":"Nati"},{"id":"862765","latitude":"10.81666670","longitude":"-0.08333330","name":"Natinga"},{"id":"862766","latitude":"10.81666670","longitude":"-0.26666670","name":"Nat"},{"id":"862769","latitude":"10.96666670","longitude":"-0.96666670","name":"Natugnia Sabisi"},{"id":"862770","latitude":"10.96666670","longitude":"-0.96666670","name":"Natumga"},{"id":"862771","latitude":"10.96666670","longitude":"-0.96666670","name":"Natumgo"},{"id":"862772","latitude":"10.96666670","longitude":"-0.96666670","name":"Natungnia"},{"id":"862777","latitude":"10.83333330","longitude":"-1.15000000","name":"Nauwalise"},{"id":"862780","latitude":"10.96666670","longitude":"-1.05000000","name":"Navio"},{"id":"862781","latitude":"10.89500000","longitude":"-1.09388890","name":"Navrongo"},{"id":"862782","latitude":"10.91666670","longitude":"-1.10000000","name":"Navrongo Saboro"},{"id":"862788","latitude":"10.88333330","longitude":"-1.08333330","name":"Nawgsenia"},{"id":"862797","latitude":"10.90000000","longitude":"-1.03333330","name":"Nayagnia"},{"id":"862803","latitude":"11.01666670","longitude":"-0.25000000","name":"Nayoko"},{"id":"862805","latitude":"10.93333330","longitude":"-0.86666670","name":"Nayorogo"},{"id":"862844","latitude":"11.08333330","longitude":"-0.18333330","name":"Nenkogo"},{"id":"862943","latitude":"10.81666670","longitude":"-0.15000000","name":"Niisbuliga"},{"id":"862946","latitude":"10.90000000","longitude":"-1.03333330","name":"Nimbasinia"},{"id":"862959","latitude":"10.95000000","longitude":"-0.26666670","name":"Ninsaku"},{"id":"862961","latitude":"10.86666670","longitude":"-0.15000000","name":"Nintabugsugu"},{"id":"862975","latitude":"10.95000000","longitude":"-0.26666670","name":"Nisakaw"},{"id":"862976","latitude":"10.81666670","longitude":"-0.15000000","name":"Nisibuliga"},{"id":"862978","latitude":"10.81666670","longitude":"-0.15000000","name":"Nistbulugu"},{"id":"862979","latitude":"10.86666670","longitude":"-0.15000000","name":"Nitabosigu"},{"id":"863011","latitude":"11.08333330","longitude":"-0.18333330","name":"Nkawgo"},{"id":"863157","latitude":"10.66666670","longitude":"-0.58333330","name":"Nmakoam"},{"id":"863165","latitude":"10.81666670","longitude":"-0.63333330","name":"Nobawko"},{"id":"863175","latitude":"10.88333330","longitude":"-1.08333330","name":"Nogsenia Apiaba"},{"id":"863177","latitude":"10.88333330","longitude":"-0.40000000","name":"Nohu Bode"},{"id":"863184","latitude":"10.88333330","longitude":"-0.21666670","name":"Nombokko"},{"id":"863191","latitude":"10.76666670","longitude":"-0.51666670","name":"Nosigoga"},{"id":"863192","latitude":"10.96666670","longitude":"-0.51666670","name":"Nosikluga"},{"id":"863380","latitude":"10.88333330","longitude":"-0.21666670","name":"Numboko"},{"id":"863387","latitude":"10.56666670","longitude":"-0.66666670","name":"Nungu"},{"id":"863428","latitude":"10.98333330","longitude":"-0.91666670","name":"Nyagolongo"},{"id":"863439","latitude":"10.73333330","longitude":"-1.45000000","name":"Nyambisa"},{"id":"863499","latitude":"10.65000000","longitude":"-1.43333330","name":"Nyanbisi"},{"id":"863507","latitude":"10.95000000","longitude":"-1.08333330","name":"Nyania"},{"id":"863543","latitude":"10.50000000","longitude":"-1.35000000","name":"Nyapiensi"},{"id":"863545","latitude":"10.83333330","longitude":"-0.88333330","name":"Nyarega"},{"id":"863547","latitude":"10.75000000","longitude":"-1.30000000","name":"Nyasa"},{"id":"863585","latitude":"11.01666670","longitude":"-0.20000000","name":"Nyimboko"},{"id":"863612","latitude":"10.75000000","longitude":"-0.61666670","name":"Nyoga"},{"id":"863613","latitude":"10.78333330","longitude":"-0.63333330","name":"Nyogbare"},{"id":"863614","latitude":"10.80000000","longitude":"-0.76666670","name":"Nyokoko"},{"id":"863618","latitude":"11.03333330","longitude":"-0.28333330","name":"Nyorigu"},{"id":"863619","latitude":"11.03333330","longitude":"-0.28333330","name":"Nyorugu"},{"id":"864135","latitude":"10.70000000","longitude":"-0.48333330","name":"Owosi"},{"id":"864168","latitude":"10.98333330","longitude":"-1.15000000","name":"Paga Adungu"},{"id":"864169","latitude":"10.95000000","longitude":"-1.10000000","name":"Paga Babile"},{"id":"864170","latitude":"11.00000000","longitude":"-1.05000000","name":"Paga Boania"},{"id":"864171","latitude":"10.96666670","longitude":"-1.05000000","name":"Paga Buru"},{"id":"864172","latitude":"10.98333330","longitude":"-1.06666670","name":"Paga Chania"},{"id":"864174","latitude":"10.93333330","longitude":"-1.11666670","name":"Paga Kajelo"},{"id":"864175","latitude":"10.99222220","longitude":"-1.11333330","name":"Paga Kakungu"},{"id":"864176","latitude":"10.93333330","longitude":"-1.16666670","name":"Paga Na"},{"id":"864177","latitude":"10.96666670","longitude":"-1.05000000","name":"Paga Navio"},{"id":"864178","latitude":"10.95000000","longitude":"-1.08333330","name":"Paga Nyania"},{"id":"864179","latitude":"10.99222220","longitude":"-1.11333330","name":"Paga"},{"id":"864180","latitude":"10.98333330","longitude":"-1.15000000","name":"Paga Pinda"},{"id":"864181","latitude":"10.96666670","longitude":"-1.03333330","name":"Paga Taziga"},{"id":"864182","latitude":"10.96666670","longitude":"-1.08333330","name":"Paga Zenga"},{"id":"864190","latitude":"10.60500000","longitude":"-0.85888890","name":"Palagu"},{"id":"864197","latitude":"11.01666670","longitude":"-0.30000000","name":"Palaweaga"},{"id":"864198","latitude":"11.01666670","longitude":"-0.30000000","name":"Palawego"},{"id":"864204","latitude":"11.03333330","longitude":"-0.26666670","name":"Paliga"},{"id":"864208","latitude":"10.71666670","longitude":"-0.31666670","name":"Palsoko"},{"id":"864209","latitude":"10.98333330","longitude":"-0.23333330","name":"Palugu"},{"id":"864268","latitude":"11.00000000","longitude":"-1.41666670","name":"Papwesong"},{"id":"864270","latitude":"10.60500000","longitude":"-0.85888890","name":"Paragu"},{"id":"864333","latitude":"10.81666670","longitude":"-0.08333330","name":"Pekpira"},{"id":"864339","latitude":"10.80000000","longitude":"-0.70000000","name":"Pelango"},{"id":"864342","latitude":"10.71666670","longitude":"-0.48333330","name":"Peli"},{"id":"864343","latitude":"10.80000000","longitude":"-0.70000000","name":"Pelongo"},{"id":"864345","latitude":"10.80000000","longitude":"-0.70000000","name":"Pelungo"},{"id":"864346","latitude":"10.80000000","longitude":"-0.70000000","name":"Pelungu"},{"id":"864378","latitude":"10.71666670","longitude":"-0.48333330","name":"Peri"},{"id":"864407","latitude":"10.81666670","longitude":"-0.20000000","name":"Pialaga"},{"id":"864408","latitude":"10.81666670","longitude":"-0.20000000","name":"Pialegu"},{"id":"864409","latitude":"11.05000000","longitude":"-0.11666670","name":"Pialoko"},{"id":"864410","latitude":"11.05000000","longitude":"-0.11666670","name":"Pialolok"},{"id":"864420","latitude":"10.81666670","longitude":"-0.43333330","name":"Pilbizego"},{"id":"864421","latitude":"10.81666670","longitude":"-0.43333330","name":"Pilebiziago"},{"id":"864427","latitude":"10.98333330","longitude":"-1.15000000","name":"Pinda"},{"id":"864433","latitude":"10.75000000","longitude":"-0.31666670","name":"Pinzua"},{"id":"864449","latitude":"10.83333330","longitude":"-0.73333330","name":"Piugwi"},{"id":"864468","latitude":"10.99222220","longitude":"-1.11333330","name":"Poga"},{"id":"864522","latitude":"10.85000000","longitude":"-0.26666670","name":"Potwia"},{"id":"864531","latitude":"10.81666670","longitude":"-0.20000000","name":"Pralegu"},{"id":"864564","latitude":"11.03333330","longitude":"-0.01666670","name":"Puanaba"},{"id":"864572","latitude":"10.83333330","longitude":"-0.43333330","name":"Pukinzego"},{"id":"864573","latitude":"10.83333330","longitude":"-0.43333330","name":"Pukunziego"},{"id":"864576","latitude":"11.08333330","longitude":"0.01666670","name":"Pulimakom"},{"id":"864600","latitude":"11.08166670","longitude":"-0.15527780","name":"Pusiga"},{"id":"864601","latitude":"11.08166670","longitude":"-0.15527780","name":"Pussiga"},{"id":"864605","latitude":"10.68333330","longitude":"-0.86666670","name":"Pusu-Namogo"},{"id":"864608","latitude":"10.86666670","longitude":"-0.50000000","name":"Putigore"},{"id":"864615","latitude":"10.60500000","longitude":"-0.85888890","name":"Pwalagu"},{"id":"864616","latitude":"10.60500000","longitude":"-0.85888890","name":"Pwalugu"},{"id":"864623","latitude":"10.78333330","longitude":"-0.93333330","name":"Rashiengo"},{"id":"864628","latitude":"11.00000000","longitude":"-0.48333330","name":"Saago"},{"id":"864641","latitude":"10.95000000","longitude":"-1.31666670","name":"Sabawnia"},{"id":"864649","latitude":"10.91666670","longitude":"-1.10000000","name":"Saboro"},{"id":"864658","latitude":"11.00805560","longitude":"-0.04472220","name":"Sabzundi"},{"id":"864695","latitude":"10.96666670","longitude":"-0.41666670","name":"Saka"},{"id":"864701","latitude":"10.91666670","longitude":"-0.46666670","name":"Sakom"},{"id":"864705","latitude":"10.96666670","longitude":"-0.41666670","name":"Sako"},{"id":"864711","latitude":"10.95000000","longitude":"-0.35000000","name":"Sakpari"},{"id":"864727","latitude":"10.91666670","longitude":"-0.46666670","name":"Sakum"},{"id":"864732","latitude":"10.76666670","longitude":"-0.76666670","name":"Sakwati"},{"id":"864772","latitude":"10.96666670","longitude":"-0.11666670","name":"Sambana"},{"id":"864777","latitude":"10.95000000","longitude":"-0.81666670","name":"Samboligu Ayeopia"},{"id":"864778","latitude":"10.95000000","longitude":"-0.86666670","name":"Samboligu"},{"id":"864779","latitude":"10.95000000","longitude":"-0.86666670","name":"Sambolugu"},{"id":"864782","latitude":"10.81666670","longitude":"-0.93333330","name":"Sambrungo Amogribisi"},{"id":"864783","latitude":"10.80000000","longitude":"-0.95000000","name":"Sambrungo Kologo"},{"id":"864784","latitude":"10.80000000","longitude":"-0.95000000","name":"Sambrungo-Kulugu"},{"id":"864785","latitude":"10.80000000","longitude":"-0.95000000","name":"Sambrungo"},{"id":"864786","latitude":"10.81666670","longitude":"-0.93333330","name":"Sambruno"},{"id":"864819","latitude":"10.73472220","longitude":"-1.29055560","name":"Sandema Abiliyeri"},{"id":"864820","latitude":"10.71666670","longitude":"-1.33333330","name":"Sandema Balansa"},{"id":"864821","latitude":"10.76666670","longitude":"-1.25000000","name":"Sandema Bilinsa Tankungsa"},{"id":"864822","latitude":"10.73472220","longitude":"-1.29055560","name":"Sandema Central"},{"id":"864823","latitude":"10.76666670","longitude":"-1.30000000","name":"Sandema Fiisa"},{"id":"864824","latitude":"10.75000000","longitude":"-1.33333330","name":"Sandema Kandem"},{"id":"864825","latitude":"10.76666670","longitude":"-1.26666670","name":"Sandema Kobdem"},{"id":"864826","latitude":"10.73333330","longitude":"-1.21666670","name":"Sandema Korri"},{"id":"864827","latitude":"10.76666670","longitude":"-1.28333330","name":"Sandema Longsa"},{"id":"864828","latitude":"10.75000000","longitude":"-1.30000000","name":"Sandema Nyansa"},{"id":"864829","latitude":"10.73472220","longitude":"-1.29055560","name":"Sandema"},{"id":"864830","latitude":"10.71666670","longitude":"-1.28333330","name":"Sandema Suwarensa"},{"id":"864831","latitude":"10.73472220","longitude":"-1.29055560","name":"Sandem"},{"id":"864838","latitude":"11.15000000","longitude":"-0.16666670","name":"Sangabuli"},{"id":"864844","latitude":"11.15000000","longitude":"-0.16666670","name":"Sangbulli"},{"id":"864845","latitude":"10.75000000","longitude":"-0.40000000","name":"Sangine"},{"id":"864883","latitude":"10.66666670","longitude":"-0.80000000","name":"Santienga"},{"id":"864889","latitude":"10.71666670","longitude":"-0.61666670","name":"Santoga"},{"id":"864903","latitude":"10.83333330","longitude":"-0.56666670","name":"Sapalugotili"},{"id":"864904","latitude":"10.95000000","longitude":"-0.35000000","name":"Sapari"},{"id":"864906","latitude":"10.83333330","longitude":"-0.56666670","name":"Sapawlugu"},{"id":"864908","latitude":"10.96666670","longitude":"-0.36666670","name":"Sapeliga"},{"id":"864909","latitude":"11.01666670","longitude":"-0.30000000","name":"Sapeli"},{"id":"864910","latitude":"11.07805560","longitude":"-0.41833330","name":"Sapelliga Natinga"},{"id":"864911","latitude":"10.96666670","longitude":"-0.36666670","name":"Sapelliga"},{"id":"864912","latitude":"10.83333330","longitude":"-0.56666670","name":"Sapelugu"},{"id":"864915","latitude":"10.78333330","longitude":"-0.93333330","name":"Sapiengo"},{"id":"864922","latitude":"10.86666670","longitude":"-0.73333330","name":"Sapuoro"},{"id":"864923","latitude":"10.95000000","longitude":"-0.35000000","name":"Sapuri"},{"id":"864924","latitude":"11.06666670","longitude":"-0.18333330","name":"Sarabawga"},{"id":"864925","latitude":"11.06666670","longitude":"-0.18333330","name":"Sarabogo"},{"id":"864954","latitude":"10.70000000","longitude":"-0.61666670","name":"Satoga"},{"id":"864958","latitude":"10.70000000","longitude":"-0.35000000","name":"Saundi"},{"id":"864959","latitude":"10.76666670","longitude":"-0.26666670","name":"Sauwiak"},{"id":"864971","latitude":"10.76666670","longitude":"-0.26666670","name":"Sawiegu"},{"id":"864972","latitude":"10.81666670","longitude":"-0.55000000","name":"Sawko"},{"id":"864988","latitude":"11.07805560","longitude":"-0.41833330","name":"Sebone"},{"id":"865036","latitude":"10.78333330","longitude":"-0.65000000","name":"Sekoti Benzure Kugure"},{"id":"865037","latitude":"10.75000000","longitude":"-0.61666670","name":"Sekoti Nyoga"},{"id":"865038","latitude":"10.78333330","longitude":"-0.63333330","name":"Sekoti Nyogbare"},{"id":"865039","latitude":"10.80000000","longitude":"-0.61666670","name":"Sekoti"},{"id":"865040","latitude":"10.78333330","longitude":"-0.61666670","name":"Sekoti Tankwaa"},{"id":"865104","latitude":"10.95000000","longitude":"-0.93333330","name":"Seregu"},{"id":"865111","latitude":"10.76666670","longitude":"-0.90000000","name":"Serugu"},{"id":"865121","latitude":"10.86666670","longitude":"-0.43333330","name":"Setani"},{"id":"865132","latitude":"10.66666670","longitude":"-0.80000000","name":"Shaka"},{"id":"865138","latitude":"10.70722220","longitude":"-0.71694440","name":"Shega"},{"id":"865142","latitude":"10.75000000","longitude":"-0.90000000","name":"Sherigu Apilgo"},{"id":"865143","latitude":"10.76666670","longitude":"-0.88333330","name":"Sherigu Dorungo"},{"id":"865144","latitude":"10.78333330","longitude":"-0.93333330","name":"Sherigu Kumbelingu"},{"id":"865145","latitude":"10.78333330","longitude":"-0.93333330","name":"Sherigu Sapiengo"},{"id":"865146","latitude":"10.76666670","longitude":"-0.90000000","name":"Sherigu"},{"id":"865149","latitude":"10.70722220","longitude":"-0.71694440","name":"Shia"},{"id":"865151","latitude":"10.70722220","longitude":"-0.71694440","name":"Shiega"},{"id":"865152","latitude":"10.65000000","longitude":"-0.83333330","name":"Shiega Winduri"},{"id":"865156","latitude":"10.66666670","longitude":"-0.85000000","name":"Shiga"},{"id":"865157","latitude":"10.65000000","longitude":"-0.83333330","name":"Shiga Winduri"},{"id":"865158","latitude":"10.75000000","longitude":"-0.51666670","name":"Shilaga"},{"id":"865174","latitude":"10.70722220","longitude":"-0.71694440","name":"Sia"},{"id":"865193","latitude":"10.71666670","longitude":"-0.26666670","name":"Sigure"},{"id":"865199","latitude":"10.71666670","longitude":"-0.26666670","name":"Siiguri"},{"id":"865219","latitude":"10.78333330","longitude":"-0.18333330","name":"Silitego"},{"id":"865220","latitude":"10.78333330","longitude":"-0.18333330","name":"Silutega"},{"id":"865221","latitude":"10.83333330","longitude":"-0.18333330","name":"Simaduri"},{"id":"865232","latitude":"10.68333330","longitude":"-0.28333330","name":"Sinebaga"},{"id":"865236","latitude":"10.68333330","longitude":"-0.28333330","name":"Sinibaga"},{"id":"865237","latitude":"10.68333330","longitude":"-0.28333330","name":"Siniebaga"},{"id":"865238","latitude":"10.88333330","longitude":"-1.41666670","name":"Sinisaw"},{"id":"865240","latitude":"10.68333330","longitude":"-0.28333330","name":"Sinnibaga"},{"id":"865242","latitude":"10.61666670","longitude":"-1.25000000","name":"Sinyansa"},{"id":"865243","latitude":"10.66666670","longitude":"-1.35000000","name":"Sinyensi Akpiokyeri"},{"id":"865244","latitude":"10.66666670","longitude":"-1.35000000","name":"Sinyensi Central"},{"id":"865245","latitude":"10.66666670","longitude":"-1.35000000","name":"Sinyensi"},{"id":"865246","latitude":"10.73333330","longitude":"-1.38333330","name":"Sinyensi Yikpien"},{"id":"865252","latitude":"10.98333330","longitude":"-0.93333330","name":"Sirigu Basiengo"},{"id":"865253","latitude":"10.95000000","longitude":"-0.93333330","name":"Sirigu Central"},{"id":"865254","latitude":"10.95000000","longitude":"-0.93333330","name":"Sirigu Gunwonko"},{"id":"865255","latitude":"10.96666670","longitude":"-0.91666670","name":"Sirigu Wugingo"},{"id":"865264","latitude":"10.88333330","longitude":"-1.41666670","name":"Sisinaw"},{"id":"865268","latitude":"10.86666670","longitude":"-0.43333330","name":"Sitane"},{"id":"865272","latitude":"10.80000000","longitude":"-0.25000000","name":"Sliguri"},{"id":"865275","latitude":"10.70000000","longitude":"-0.35000000","name":"Soandi"},{"id":"865280","latitude":"10.96666670","longitude":"-0.78333330","name":"Soboko"},{"id":"865288","latitude":"10.93333330","longitude":"-0.75000000","name":"Soe Kabre"},{"id":"865289","latitude":"10.96666670","longitude":"-0.75000000","name":"Soe Kanseringa"},{"id":"865290","latitude":"10.95000000","longitude":"-0.78333330","name":"Soe"},{"id":"865299","latitude":"11.05000000","longitude":"-0.30000000","name":"Sogodi"},{"id":"865307","latitude":"10.78333330","longitude":"-0.88333330","name":"Sokabisi"},{"id":"865315","latitude":"10.80000000","longitude":"-0.61666670","name":"Sokoto"},{"id":"865321","latitude":"10.76666670","longitude":"-0.76666670","name":"Sokwati"},{"id":"865328","latitude":"10.98333330","longitude":"-0.10000000","name":"Somandega"},{"id":"865343","latitude":"10.96666670","longitude":"-0.78333330","name":"Sonboko"},{"id":"865348","latitude":"10.73333330","longitude":"-0.30000000","name":"Songo"},{"id":"865350","latitude":"10.95000000","longitude":"-0.98333330","name":"Song"},{"id":"865371","latitude":"10.81666670","longitude":"-0.85000000","name":"Sore"},{"id":"865379","latitude":"10.95000000","longitude":"-0.78333330","name":"So"},{"id":"865408","latitude":"10.71666670","longitude":"-1.28333330","name":"Suarensa"},{"id":"865449","latitude":"11.06666670","longitude":"-0.10000000","name":"Sugudi"},{"id":"865473","latitude":"10.83333330","longitude":"-0.18333330","name":"Sumadure"},{"id":"865477","latitude":"10.81666670","longitude":"-0.93333330","name":"Sumbrungo Azorebisi"},{"id":"865478","latitude":"10.83333330","longitude":"-0.95000000","name":"Sumbrungo Kawlogo"},{"id":"865479","latitude":"10.83333330","longitude":"-0.96666670","name":"Sumbrungo Kilbia"},{"id":"865480","latitude":"10.80000000","longitude":"-0.88333330","name":"Sumbruno Yikene"},{"id":"865491","latitude":"11.13333330","longitude":"-0.21666670","name":"Sunkuom"},{"id":"865501","latitude":"10.66666670","longitude":"-1.38333330","name":"Sunyensi Zungdem"},{"id":"865513","latitude":"10.95000000","longitude":"-0.35000000","name":"Surarri"},{"id":"865525","latitude":"11.00000000","longitude":"-0.08333330","name":"Susudi"},{"id":"865526","latitude":"11.00000000","longitude":"-0.08333330","name":"Susuli"},{"id":"865590","latitude":"10.70000000","longitude":"-0.31666670","name":"Takkare"},{"id":"865601","latitude":"10.70000000","longitude":"-0.31666670","name":"Takori"},{"id":"865603","latitude":"10.81666670","longitude":"-0.25000000","name":"Takpasi"},{"id":"865617","latitude":"10.81666670","longitude":"-0.25000000","name":"Takwassi"},{"id":"865629","latitude":"11.06666670","longitude":"-0.15000000","name":"Talago"},{"id":"865652","latitude":"10.86666670","longitude":"-0.23333330","name":"Tambaliga"},{"id":"865654","latitude":"10.98333330","longitude":"-0.18333330","name":"Tambaligu"},{"id":"865656","latitude":"10.86666670","longitude":"-0.23333330","name":"Tambalugu"},{"id":"865658","latitude":"11.03333330","longitude":"-0.35000000","name":"Tambiigu"},{"id":"865675","latitude":"11.03333330","longitude":"-0.31666670","name":"Tampielim"},{"id":"865676","latitude":"11.03333330","longitude":"-0.35000000","name":"Tampigogo"},{"id":"865679","latitude":"10.98333330","longitude":"-0.46666670","name":"Tampisaliga"},{"id":"865680","latitude":"10.98333330","longitude":"-0.46666670","name":"Tampizalga"},{"id":"865681","latitude":"11.11666670","longitude":"-0.25000000","name":"Tampizego"},{"id":"865682","latitude":"11.11666670","longitude":"-0.25000000","name":"Tampizua"},{"id":"865684","latitude":"10.78333330","longitude":"-1.08333330","name":"Tampola"},{"id":"865695","latitude":"10.55000000","longitude":"-1.23333330","name":"Tandem"},{"id":"865703","latitude":"10.76666670","longitude":"-1.05000000","name":"Tangabisi"},{"id":"865704","latitude":"10.90000000","longitude":"-0.43333330","name":"Tanga Natinga"},{"id":"865708","latitude":"10.76666670","longitude":"-1.05000000","name":"Tanga"},{"id":"865719","latitude":"10.86666670","longitude":"-0.78333330","name":"Tankongaw"},{"id":"865721","latitude":"10.78333330","longitude":"-0.61666670","name":"Tankpaga"},{"id":"865734","latitude":"10.93333330","longitude":"-0.33333330","name":"Tansega"},{"id":"865735","latitude":"10.93333330","longitude":"-0.33333330","name":"Tanseiga"},{"id":"865736","latitude":"10.93333330","longitude":"-0.33333330","name":"Tansiya"},{"id":"865758","latitude":"10.90000000","longitude":"-0.15000000","name":"Taraganga"},{"id":"865763","latitude":"10.86666670","longitude":"-0.51666670","name":"Tarikomtili"},{"id":"865766","latitude":"11.01666670","longitude":"-0.06666670","name":"Tarivago"},{"id":"865773","latitude":"10.88333330","longitude":"-0.88333330","name":"Tarongo"},{"id":"865774","latitude":"10.88333330","longitude":"-0.88333330","name":"Tarongu Asaarebisi"},{"id":"865796","latitude":"10.96666670","longitude":"-1.03333330","name":"Taziga"},{"id":"865799","latitude":"10.96666670","longitude":"-0.40000000","name":"Teago"},{"id":"865826","latitude":"10.80000000","longitude":"-1.20000000","name":"Tedema"},{"id":"865854","latitude":"10.83333330","longitude":"-1.06666670","name":"Telania"},{"id":"865857","latitude":"10.83333330","longitude":"-1.06666670","name":"Telenia"},{"id":"865858","latitude":"10.86666670","longitude":"-0.13333330","name":"Temane Natinga"},{"id":"865866","latitude":"10.86666670","longitude":"-0.13333330","name":"Tempana"},{"id":"865868","latitude":"10.86666670","longitude":"-0.13333330","name":"Tempane"},{"id":"865879","latitude":"10.78333330","longitude":"-0.61666670","name":"Tenkpaa"},{"id":"865888","latitude":"10.68333330","longitude":"-0.81666670","name":"Tenzugu"},{"id":"865898","latitude":"10.96666670","longitude":"-0.40000000","name":"Terago"},{"id":"865904","latitude":"10.96666670","longitude":"-0.48333330","name":"Teshi Natinga"},{"id":"865906","latitude":"10.96666670","longitude":"-0.48333330","name":"Teshi"},{"id":"865908","latitude":"10.96666670","longitude":"-0.48333330","name":"Tesi"},{"id":"865913","latitude":"10.93333330","longitude":"-0.28333330","name":"Tetauko"},{"id":"865914","latitude":"10.93333330","longitude":"-0.28333330","name":"Tetawko"},{"id":"865961","latitude":"10.91666670","longitude":"-0.48333330","name":"Tiego"},{"id":"865982","latitude":"10.88333330","longitude":"-0.56666670","name":"Tili Natinga"},{"id":"865983","latitude":"10.88333330","longitude":"-0.56666670","name":"Tili"},{"id":"865994","latitude":"10.91666670","longitude":"-0.40000000","name":"Timoni"},{"id":"865995","latitude":"10.91666670","longitude":"-0.40000000","name":"Timon"},{"id":"865999","latitude":"10.95000000","longitude":"-0.25000000","name":"Tinawgo"},{"id":"866005","latitude":"10.80000000","longitude":"-0.73333330","name":"Tindonga"},{"id":"866007","latitude":"10.80000000","longitude":"-0.73333330","name":"Tindongo"},{"id":"866009","latitude":"10.80000000","longitude":"-0.73333330","name":"Tindong"},{"id":"866010","latitude":"10.76666670","longitude":"-0.88333330","name":"Tindonsablugu"},{"id":"866033","latitude":"10.83333330","longitude":"-0.36666670","name":"Tirago"},{"id":"866057","latitude":"10.81666670","longitude":"-0.08333330","name":"Tobongu"},{"id":"866111","latitude":"10.70000000","longitude":"-0.31666670","name":"Tokwari"},{"id":"866133","latitude":"10.71666670","longitude":"-0.80000000","name":"Tonga"},{"id":"866135","latitude":"10.73333330","longitude":"-0.80000000","name":"Tongo Bari"},{"id":"866138","latitude":"10.71666670","longitude":"-0.80000000","name":"Tongo"},{"id":"866139","latitude":"10.71666670","longitude":"-0.80000000","name":"Tongo Zoo"},{"id":"866141","latitude":"10.71666670","longitude":"-0.80000000","name":"Tong"},{"id":"866194","latitude":"10.96666670","longitude":"-0.88333330","name":"Towongo"},{"id":"866300","latitude":"10.60000000","longitude":"-0.61666670","name":"Tula New"},{"id":"866301","latitude":"10.60000000","longitude":"-0.61666670","name":"Tula"},{"id":"866318","latitude":"10.88333330","longitude":"-0.43333330","name":"Tune"},{"id":"866323","latitude":"10.88333330","longitude":"-0.43333330","name":"Tuni"},{"id":"866394","latitude":"10.48333330","longitude":"-1.23333330","name":"Uwasi Central"},{"id":"866395","latitude":"10.48333330","longitude":"-1.23333330","name":"Uwasi Kazengsa"},{"id":"866396","latitude":"10.48333330","longitude":"-1.23333330","name":"Uwasi"},{"id":"866397","latitude":"10.96666670","longitude":"-0.90000000","name":"Uwa"},{"id":"866405","latitude":"10.75000000","longitude":"-0.26666670","name":"Vambara"},{"id":"866415","latitude":"10.75000000","longitude":"-1.48333330","name":"Vare"},{"id":"866417","latitude":"10.71666670","longitude":"-0.35000000","name":"Varikago"},{"id":"866419","latitude":"10.86666670","longitude":"-0.85000000","name":"Veah"},{"id":"866420","latitude":"10.86666670","longitude":"-0.91666670","name":"Vea Nyarega"},{"id":"866421","latitude":"10.86666670","longitude":"-0.85000000","name":"Vea"},{"id":"866436","latitude":"10.86666670","longitude":"-0.85000000","name":"Veya"},{"id":"866457","latitude":"10.88333330","longitude":"-0.31666670","name":"Vokko"},{"id":"866460","latitude":"10.88333330","longitude":"-0.31666670","name":"Voko"},{"id":"866467","latitude":"10.85000000","longitude":"-1.08333330","name":"Vonania"},{"id":"866484","latitude":"10.55000000","longitude":"-1.38333330","name":"Vundem"},{"id":"866485","latitude":"10.55000000","longitude":"-1.38333330","name":"Vundum"},{"id":"866492","latitude":"10.85000000","longitude":"-1.08333330","name":"Vwenania"},{"id":"866494","latitude":"10.75000000","longitude":"-0.33333330","name":"Waadigu"},{"id":"866517","latitude":"10.86666670","longitude":"-0.23333330","name":"Wagdi"},{"id":"866548","latitude":"10.73333330","longitude":"-0.28333330","name":"Wamisbanuk"},{"id":"866556","latitude":"10.85777780","longitude":"-0.67111110","name":"Wangodi"},{"id":"866557","latitude":"10.78333330","longitude":"-1.41666670","name":"Wania"},{"id":"866573","latitude":"10.77916670","longitude":"-0.13750000","name":"Warikambo"},{"id":"866574","latitude":"10.88833330","longitude":"-0.06777780","name":"Warinyaga"},{"id":"866575","latitude":"10.88833330","longitude":"-0.06777780","name":"Warinyanga"},{"id":"866612","latitude":"10.68333330","longitude":"-0.76666670","name":"Wawgo"},{"id":"866619","latitude":"10.98333330","longitude":"-0.56666670","name":"Weari"},{"id":"866624","latitude":"10.88333330","longitude":"-0.46666670","name":"Weiga"},{"id":"866630","latitude":"10.93333330","longitude":"-0.11666670","name":"Wempise"},{"id":"866631","latitude":"10.93333330","longitude":"-0.11666670","name":"Wempisi Bugri"},{"id":"866632","latitude":"10.93333330","longitude":"-0.11666670","name":"Wempisi"},{"id":"866645","latitude":"10.81666670","longitude":"-0.20000000","name":"Werichingu"},{"id":"866662","latitude":"10.65000000","longitude":"-1.26666670","name":"Wiaga Central"},{"id":"866663","latitude":"10.61666670","longitude":"-1.25000000","name":"Wiaga Senyansa"},{"id":"866664","latitude":"10.55000000","longitude":"-1.23333330","name":"Wiaga Tandem Tankangsa"},{"id":"866665","latitude":"10.65000000","longitude":"-1.26666670","name":"Wiaga"},{"id":"866666","latitude":"10.65000000","longitude":"-1.28333330","name":"Wiaga Yemonsa"},{"id":"866667","latitude":"10.65000000","longitude":"-1.26666670","name":"Wiaga Yisobsa"},{"id":"866673","latitude":"10.36888890","longitude":"-1.34222220","name":"Wiasi Atong Yeri"},{"id":"866674","latitude":"10.36888890","longitude":"-1.34222220","name":"Wiasi Central"},{"id":"866676","latitude":"10.36888890","longitude":"-1.34222220","name":"Wiasi"},{"id":"866677","latitude":"10.65000000","longitude":"-1.26666670","name":"Wia"},{"id":"866683","latitude":"10.95000000","longitude":"-0.56666670","name":"Widenaba"},{"id":"866684","latitude":"10.95000000","longitude":"-0.56666670","name":"Widinaba Natinga"},{"id":"866687","latitude":"10.98333330","longitude":"-0.56666670","name":"Wiere"},{"id":"866688","latitude":"10.88333330","longitude":"-0.46666670","name":"Wiig"},{"id":"866690","latitude":"11.03333330","longitude":"-0.31666670","name":"Winaba"},{"id":"866693","latitude":"10.95000000","longitude":"-0.56666670","name":"Windenaba"},{"id":"866694","latitude":"10.65000000","longitude":"-0.83333330","name":"Winduri"},{"id":"866695","latitude":"10.71666670","longitude":"-1.05000000","name":"Wingo"},{"id":"866701","latitude":"10.71361110","longitude":"-0.86888890","name":"Winkogo Akungobisi"},{"id":"866702","latitude":"10.68333330","longitude":"-0.86666670","name":"Winkogo Pusu Namago"},{"id":"866703","latitude":"10.71361110","longitude":"-0.86888890","name":"Winkogo"},{"id":"866725","latitude":"10.96666670","longitude":"-0.91666670","name":"Wojiengo"},{"id":"866728","latitude":"10.68333330","longitude":"-0.76666670","name":"Wok"},{"id":"866738","latitude":"10.68333330","longitude":"-0.76666670","name":"Woog"},{"id":"866741","latitude":"10.77916670","longitude":"-0.13750000","name":"Woricambo"},{"id":"866742","latitude":"10.77916670","longitude":"-0.13750000","name":"Woricombo"},{"id":"866754","latitude":"10.78333330","longitude":"-0.63333330","name":"Wubare"},{"id":"866786","latitude":"10.71361110","longitude":"-0.86888890","name":"Wunkwawgu"},{"id":"866787","latitude":"10.71361110","longitude":"-0.86888890","name":"Wunkwaw"},{"id":"866790","latitude":"10.56666670","longitude":"-1.45000000","name":"Wupiensa"},{"id":"866799","latitude":"10.81666670","longitude":"-0.20000000","name":"Wurichongo"},{"id":"866800","latitude":"10.88833330","longitude":"-0.06777780","name":"Wurinyanga"},{"id":"866801","latitude":"10.88833330","longitude":"-0.06777780","name":"Wuriyanga"},{"id":"866809","latitude":"10.85000000","longitude":"-1.31666670","name":"Wurunia"},{"id":"866848","latitude":"10.88333330","longitude":"-0.40000000","name":"Yadebode"},{"id":"866849","latitude":"10.88333330","longitude":"-0.40000000","name":"Yadibori"},{"id":"866855","latitude":"10.88333330","longitude":"-1.11666670","name":"Yagwenia"},{"id":"866869","latitude":"10.73333330","longitude":"-0.40000000","name":"Yaka"},{"id":"866871","latitude":"10.73333330","longitude":"-0.40000000","name":"Yakka"},{"id":"866881","latitude":"10.85000000","longitude":"-0.21666670","name":"Yalaga"},{"id":"866883","latitude":"10.71666670","longitude":"-0.68333330","name":"Yale"},{"id":"866884","latitude":"10.85000000","longitude":"-0.21666670","name":"Yalugu"},{"id":"866904","latitude":"10.71666670","longitude":"-0.75000000","name":"Yamnega"},{"id":"866905","latitude":"10.71666670","longitude":"-0.75000000","name":"Yamnega Yamsoko"},{"id":"866911","latitude":"10.51666670","longitude":"-1.43333330","name":"Yandawa"},{"id":"866912","latitude":"10.51666670","longitude":"-1.43333330","name":"Yandowa"},{"id":"866942","latitude":"10.78333330","longitude":"-0.85000000","name":"Yaragabesi"},{"id":"866943","latitude":"10.85000000","longitude":"-0.81666670","name":"Yarago"},{"id":"866944","latitude":"11.08333330","longitude":"-0.33333330","name":"Yaragungu"},{"id":"866945","latitude":"11.08333330","longitude":"-0.33333330","name":"Yaragung"},{"id":"866946","latitude":"10.78333330","longitude":"-0.85000000","name":"Yarigabisi"},{"id":"866947","latitude":"11.08333330","longitude":"-0.05000000","name":"Yariga"},{"id":"866948","latitude":"10.95000000","longitude":"-0.40000000","name":"Yarigo"},{"id":"866949","latitude":"11.08333330","longitude":"-0.33333330","name":"Yarigungu"},{"id":"866950","latitude":"10.71666670","longitude":"-0.68333330","name":"Yari"},{"id":"866957","latitude":"10.95000000","longitude":"-0.40000000","name":"Yarugu"},{"id":"866960","latitude":"11.16666670","longitude":"-0.26666670","name":"Yasuntinga"},{"id":"866970","latitude":"10.75000000","longitude":"-0.75000000","name":"Yazore"},{"id":"866981","latitude":"10.80000000","longitude":"-0.88333330","name":"Yekenie"},{"id":"866983","latitude":"10.78333330","longitude":"-1.46666670","name":"Yelania"},{"id":"866984","latitude":"10.85000000","longitude":"-0.48333330","name":"Yeliwoko"},{"id":"866992","latitude":"10.81666670","longitude":"-0.81666670","name":"Yepala"},{"id":"866998","latitude":"10.78333330","longitude":"-0.85000000","name":"Yerigabisi"},{"id":"866999","latitude":"11.08333330","longitude":"-0.05000000","name":"Yeriga"},{"id":"867000","latitude":"10.90000000","longitude":"-1.05000000","name":"Yetonia"},{"id":"867001","latitude":"10.90000000","longitude":"-1.05000000","name":"Yetuonia"},{"id":"867010","latitude":"10.65000000","longitude":"-0.38333330","name":"Yiboni"},{"id":"867013","latitude":"10.95000000","longitude":"-0.75000000","name":"Yidongo"},{"id":"867014","latitude":"10.88333330","longitude":"-1.11666670","name":"Yigwania"},{"id":"867015","latitude":"10.80000000","longitude":"-0.88333330","name":"Yikene"},{"id":"867017","latitude":"10.96666670","longitude":"-0.46666670","name":"Yikurugu"},{"id":"867022","latitude":"10.65000000","longitude":"-1.28333330","name":"Yimunsa"},{"id":"867025","latitude":"10.86666670","longitude":"-1.18333330","name":"Yipala"},{"id":"867032","latitude":"10.73333330","longitude":"-1.38333330","name":"Yipien"},{"id":"867035","latitude":"10.60000000","longitude":"-0.76666670","name":"Yirango"},{"id":"867036","latitude":"10.60000000","longitude":"-0.76666670","name":"Yirangu"},{"id":"867065","latitude":"10.81666670","longitude":"-0.81666670","name":"Yorogo Yipala"},{"id":"867066","latitude":"10.85000000","longitude":"-0.81666670","name":"Yorogo"},{"id":"867068","latitude":"10.95000000","longitude":"-0.40000000","name":"Yorugu"},{"id":"867079","latitude":"11.01666670","longitude":"-0.20000000","name":"Yumboku"},{"id":"867088","latitude":"10.96666670","longitude":"-0.90000000","name":"Yuwa"},{"id":"867089","latitude":"10.83333330","longitude":"-0.88333330","name":"Zaare Nyarega"},{"id":"867090","latitude":"11.00000000","longitude":"-0.21666670","name":"Zabgu"},{"id":"867091","latitude":"11.00000000","longitude":"-0.21666670","name":"Zabugu"},{"id":"867093","latitude":"11.00805560","longitude":"-0.04472220","name":"Zabzundi"},{"id":"867094","latitude":"10.86666670","longitude":"-0.36666670","name":"Zaga"},{"id":"867103","latitude":"10.96666670","longitude":"-0.11666670","name":"Zambala"},{"id":"867122","latitude":"10.96666670","longitude":"-0.78333330","name":"Zangwengo"},{"id":"867128","latitude":"10.80000000","longitude":"-0.73333330","name":"Zanleregu"},{"id":"867129","latitude":"10.80000000","longitude":"-0.73333330","name":"Zanlerigu"},{"id":"867136","latitude":"10.68333330","longitude":"-0.63333330","name":"Zanwure"},{"id":"867137","latitude":"10.68333330","longitude":"-0.63333330","name":"Zanyuri"},{"id":"867140","latitude":"11.06666670","longitude":"-0.18333330","name":"Zarabogo"},{"id":"867141","latitude":"10.83333330","longitude":"-0.86666670","name":"Zare Akusiabisi"},{"id":"867143","latitude":"10.83333330","longitude":"-0.86666670","name":"Zare"},{"id":"867144","latitude":"10.78333330","longitude":"-0.13333330","name":"Zariboko"},{"id":"867145","latitude":"10.78333330","longitude":"-0.13333330","name":"Zariboku"},{"id":"867146","latitude":"10.83333330","longitude":"-0.86666670","name":"Zarie"},{"id":"867147","latitude":"11.00000000","longitude":"-0.21666670","name":"Zarigu"},{"id":"867149","latitude":"11.00000000","longitude":"-0.33333330","name":"Zaugo"},{"id":"867150","latitude":"11.00000000","longitude":"-0.33333330","name":"Zau"},{"id":"867152","latitude":"10.73333330","longitude":"-0.30000000","name":"Zawgo"},{"id":"867155","latitude":"10.73333330","longitude":"-0.30000000","name":"Zawngo"},{"id":"867156","latitude":"10.96666670","longitude":"-0.20000000","name":"Zawse Natinga"},{"id":"867157","latitude":"11.05000000","longitude":"-0.30000000","name":"Zawse"},{"id":"867161","latitude":"10.91555560","longitude":"-0.51694440","name":"Zebila"},{"id":"867162","latitude":"10.91555560","longitude":"-0.51694440","name":"Zebilla Natinga"},{"id":"867163","latitude":"10.91555560","longitude":"-0.51694440","name":"Zebilla"},{"id":"867164","latitude":"10.78333330","longitude":"-0.66666670","name":"Zebon"},{"id":"867179","latitude":"11.08333330","longitude":"-0.23333330","name":"Ziedi"},{"id":"867180","latitude":"10.93333330","longitude":"-0.43333330","name":"Ziego"},{"id":"867185","latitude":"11.08333330","longitude":"-0.41666670","name":"Zika"},{"id":"867198","latitude":"10.96666670","longitude":"-1.08333330","name":"Zinga"},{"id":"867199","latitude":"10.68333330","longitude":"-0.63333330","name":"Ziniari"},{"id":"867208","latitude":"11.15000000","longitude":"-0.18333330","name":"Zirizawga"},{"id":"867213","latitude":"11.05000000","longitude":"-0.15000000","name":"Zoabuliga"},{"id":"867214","latitude":"10.66666670","longitude":"-0.68333330","name":"Zoan Buliga"},{"id":"867216","latitude":"10.86666670","longitude":"-0.70000000","name":"Zoa"},{"id":"867230","latitude":"10.91666670","longitude":"-0.90000000","name":"Zokko"},{"id":"867232","latitude":"10.91666670","longitude":"-0.90000000","name":"Zoko"},{"id":"867235","latitude":"11.11666670","longitude":"-0.41666670","name":"Zokwema"},{"id":"867238","latitude":"10.98333330","longitude":"-0.10000000","name":"Zomandega"},{"id":"867240","latitude":"10.96666670","longitude":"-0.21666670","name":"Zombaw"},{"id":"867242","latitude":"11.03333330","longitude":"-0.05000000","name":"Zong Natinga"},{"id":"867245","latitude":"10.66138890","longitude":"-0.41694440","name":"Zongoin"},{"id":"867246","latitude":"10.66138890","longitude":"-0.41694440","name":"Zongoiri Natinga"},{"id":"867247","latitude":"10.66138890","longitude":"-0.41694440","name":"Zongoiri"},{"id":"867252","latitude":"10.81666670","longitude":"-0.51666670","name":"Zong"},{"id":"867255","latitude":"10.81666670","longitude":"-0.93333330","name":"Zorebisi"},{"id":"867256","latitude":"11.06666670","longitude":"-0.28333330","name":"Zorgo"},{"id":"867258","latitude":"10.96666670","longitude":"-0.20000000","name":"Zorsi Natinga"},{"id":"867259","latitude":"11.05000000","longitude":"-0.30000000","name":"Zorsi"},{"id":"867263","latitude":"10.70000000","longitude":"-1.40000000","name":"Zosa"},{"id":"867264","latitude":"10.78555560","longitude":"-0.80083330","name":"Zouarago"},{"id":"867267","latitude":"10.78555560","longitude":"-0.80083330","name":"Zuaragu"},{"id":"867268","latitude":"10.71666670","longitude":"-1.28333330","name":"Zuarensa"},{"id":"867269","latitude":"10.81666670","longitude":"-0.76666670","name":"Zuarungu Asonge"},{"id":"867270","latitude":"10.83333330","longitude":"-0.80000000","name":"Zuarungu Dakiu"},{"id":"867271","latitude":"10.76666670","longitude":"-0.83333330","name":"Zuarungu Dulungu"},{"id":"867272","latitude":"10.78555560","longitude":"-0.80083330","name":"Zuarungu Kantia"},{"id":"867273","latitude":"10.81666670","longitude":"-0.76666670","name":"Zuarungu Konkoa"},{"id":"867274","latitude":"10.85000000","longitude":"-0.75000000","name":"Zuarungu Moshie"},{"id":"867275","latitude":"10.80000000","longitude":"-0.76666670","name":"Zuarungu Nyokoko"},{"id":"867276","latitude":"10.78555560","longitude":"-0.80083330","name":"Zuarungu"},{"id":"867279","latitude":"10.68333330","longitude":"-0.45000000","name":"Zua"},{"id":"867280","latitude":"10.71666670","longitude":"-0.80000000","name":"Zubieng Yapalse"},{"id":"867281","latitude":"10.71666670","longitude":"-0.80000000","name":"Zubiong"},{"id":"867282","latitude":"10.95000000","longitude":"-0.20000000","name":"Zudli"},{"id":"867283","latitude":"11.01666670","longitude":"-0.11666670","name":"Zugu"},{"id":"867286","latitude":"11.06666670","longitude":"-0.28333330","name":"Zuku"},{"id":"867288","latitude":"10.95000000","longitude":"-0.20000000","name":"Zule"},{"id":"867289","latitude":"10.95000000","longitude":"-0.20000000","name":"Zuli"},{"id":"867291","latitude":"11.03333330","longitude":"-0.31666670","name":"Zulugu"},{"id":"867293","latitude":"10.96666670","longitude":"-0.21666670","name":"Zumba"},{"id":"867294","latitude":"10.66666670","longitude":"-0.68333330","name":"Zumbuliga"},{"id":"867295","latitude":"10.66666670","longitude":"-1.38333330","name":"Zundem"},{"id":"867296","latitude":"10.66138890","longitude":"-0.41694440","name":"Zungori"},{"id":"867297","latitude":"10.81666670","longitude":"-0.51666670","name":"Zuongo"},{"id":"867301","latitude":"10.73333330","longitude":"-1.05000000","name":"Zuo"},{"id":"867302","latitude":"11.01666670","longitude":"-0.50000000","name":"Zusablaga"},{"id":"867307","latitude":"10.78555560","longitude":"-0.80083330","name":"Zvarungu"}]