[{"id":"881007","latitude":"39.45222220","longitude":"20.77277780","name":"Achlad\u00e9ai"},{"id":"881009","latitude":"39.45222220","longitude":"20.77277780","name":"Achladi\u00e9s"},{"id":"881065","latitude":"40.30694440","longitude":"20.85388890","name":"A\u00ebtomil\u00edtsa"},{"id":"881066","latitude":"39.76722220","longitude":"20.54166670","name":"A\u00ebt\u00f3petra"},{"id":"881068","latitude":"39.52000000","longitude":"20.94083330","name":"A\u00ebtorr\u00e1chi"},{"id":"881069","latitude":"39.52000000","longitude":"20.94083330","name":"A\u00ebtorr\u00e1khi"},{"id":"881141","latitude":"39.56305560","longitude":"20.73833330","name":"Ag\u00eda Anastas\u00eda"},{"id":"881156","latitude":"39.72944440","longitude":"20.81750000","name":"\u00c1gia Mar\u00edna"},{"id":"881162","latitude":"40.14250000","longitude":"20.88944440","name":"Ag\u00eda Paraskev\u00ed"},{"id":"881163","latitude":"39.73333330","longitude":"20.58333330","name":"(( Ag\u00eda Paraskev\u00ed ))"},{"id":"881186","latitude":"39.43611110","longitude":"20.88694440","name":"Ag\u00eda Tri\u00e1s"},{"id":"881192","latitude":"39.73722220","longitude":"21.03527780","name":"Ag\u00eda Varv\u00e1ra"},{"id":"881199","latitude":"39.74944440","longitude":"20.79305560","name":"\u00c1gioi Ap\u00f3stoloi"},{"id":"881205","latitude":"39.56666670","longitude":"21.05166670","name":"(( \u00c1gioi P\u00e1ntes ))"},{"id":"881210","latitude":"39.43333330","longitude":"20.95000000","name":"(( \u00c1gioi The\u00f3doroi ))"},{"id":"881222","latitude":"39.47083330","longitude":"20.70861110","name":"\u00c1gios Andr\u00e9as"},{"id":"881232","latitude":"39.41416670","longitude":"20.91916670","name":"\u00c1gios Christ\u00f3fos"},{"id":"881235","latitude":"39.51722220","longitude":"20.67500000","name":"(( \u00c1gios Dim\u00edtrios ))"},{"id":"881249","latitude":"39.42194440","longitude":"20.94833330","name":"\u00c1gios Ge\u00f3rgios"},{"id":"881250","latitude":"40.12694440","longitude":"20.75166670","name":"(( \u00c1gios Ge\u00f3rgios ))"},{"id":"881267","latitude":"39.70138890","longitude":"20.80722220","name":"\u00c1gios Io\u00e1nnis"},{"id":"881277","latitude":"39.67000000","longitude":"20.58972220","name":"\u00c1gios Kosm\u00e1s"},{"id":"881282","latitude":"39.69555560","longitude":"21.02333330","name":"\u00c1gios Min\u00e1s"},{"id":"881283","latitude":"39.44638890","longitude":"20.84027780","name":"\u00c1gios Nik\u00f3laos"},{"id":"881307","latitude":"39.55000000","longitude":"20.55000000","name":"(( \u00c1gios St\u00e9fanos ))"},{"id":"881448","latitude":"40.05222220","longitude":"20.60194440","name":"A\u00efdhonokh\u00f3ri"},{"id":"881451","latitude":"40.05222220","longitude":"20.60194440","name":"A\u00efdhonokh\u00f3rion"},{"id":"881459","latitude":"40.05222220","longitude":"20.60194440","name":"A\u00efdonoch\u00f3ri"},{"id":"881461","latitude":"40.05222220","longitude":"20.60194440","name":"A\u00efdonoch\u00f3rion"},{"id":"881546","latitude":"39.45222220","longitude":"20.77277780","name":"Akhladh\u00e9ai"},{"id":"881666","latitude":"39.36194440","longitude":"20.70611110","name":"Alepoch\u00f3ri"},{"id":"881667","latitude":"39.36194440","longitude":"20.70611110","name":"Alepoch\u00f3rion"},{"id":"881672","latitude":"39.36194440","longitude":"20.70611110","name":"Alepokh\u00f3rion"},{"id":"881678","latitude":"39.36194440","longitude":"20.70611110","name":"Alepokh\u00f3rion B\u00f3tsari"},{"id":"881804","latitude":"39.53777780","longitude":"20.77861110","name":"Alpokh\u00f3ri"},{"id":"881808","latitude":"39.36194440","longitude":"20.70611110","name":"Alpokh\u00f3ri-Botsari"},{"id":"881838","latitude":"40.15833330","longitude":"20.72888890","name":"Am\u00e1randos"},{"id":"881842","latitude":"40.15833330","longitude":"20.72888890","name":"Am\u00e1rantos"},{"id":"881875","latitude":"39.56555560","longitude":"20.83361110","name":"Ambel\u00eda"},{"id":"881893","latitude":"39.52805560","longitude":"21.02944440","name":"Ambelokh\u00f3ri"},{"id":"881897","latitude":"39.52805560","longitude":"21.02944440","name":"Ambelokh\u00f3rion"},{"id":"881927","latitude":"39.68944440","longitude":"20.87111110","name":"Amfith\u00e9a"},{"id":"882012","latitude":"39.70444440","longitude":"21.06472220","name":"Ampel\u00e1kia"},{"id":"882015","latitude":"39.56555560","longitude":"20.83361110","name":"Ampele\u00eda"},{"id":"882018","latitude":"39.76305560","longitude":"21.05638890","name":"Amp\u00e9lia"},{"id":"882026","latitude":"39.52805560","longitude":"21.02944440","name":"Ampeloch\u00f3ri"},{"id":"882028","latitude":"39.52805560","longitude":"21.02944440","name":"Ampeloch\u00f3rion"},{"id":"882061","latitude":"39.66555560","longitude":"20.71194440","name":"An\u00e1rgyroi"},{"id":"882064","latitude":"39.66555560","longitude":"20.71194440","name":"An\u00e1ryiroi"},{"id":"882075","latitude":"39.63888890","longitude":"20.86527780","name":"Anatol\u00ed"},{"id":"882080","latitude":"39.62527780","longitude":"21.04027780","name":"Anatolik\u00ed"},{"id":"882235","latitude":"39.76000000","longitude":"21.18777780","name":"An\u00edlio"},{"id":"882236","latitude":"39.76000000","longitude":"21.18777780","name":"An\u00edlion"},{"id":"882449","latitude":"39.73972220","longitude":"20.76333330","name":"\u00c1no Laps\u00edsta"},{"id":"882497","latitude":"39.41333330","longitude":"20.82194440","name":"\u00c1no Mousiot\u00edtsa"},{"id":"882519","latitude":"39.87972220","longitude":"20.70750000","name":"\u00c1no Pedhin\u00e1"},{"id":"882520","latitude":"39.87972220","longitude":"20.70750000","name":"\u00c1no Pedin\u00e1"},{"id":"882548","latitude":"39.93888890","longitude":"20.60583330","name":"\u00c1no Rav\u00e9nia"},{"id":"882577","latitude":"39.87972220","longitude":"20.70750000","name":"\u00c1no Souden\u00e1"},{"id":"882628","latitude":"39.87138890","longitude":"20.75027780","name":"\u00c1no V\u00edtsa"},{"id":"882661","latitude":"39.59972220","longitude":"20.54055560","name":"Ano Z\u00e1logkon"},{"id":"882662","latitude":"39.59972220","longitude":"20.54055560","name":"\u00c1no Z\u00e1longon"},{"id":"882681","latitude":"39.52666670","longitude":"20.66444440","name":"Anthoch\u00f3ri"},{"id":"882683","latitude":"39.52666670","longitude":"20.66444440","name":"Anthoch\u00f3rion"},{"id":"882689","latitude":"39.73472220","longitude":"21.13000000","name":"Anthokh\u00f3ri"},{"id":"882694","latitude":"39.52666670","longitude":"20.66444440","name":"Anthokh\u00f3rion"},{"id":"882708","latitude":"39.76583330","longitude":"20.86750000","name":"Anthrak\u00edtis"},{"id":"882820","latitude":"39.68916670","longitude":"20.65972220","name":"Arakhov\u00edtsa"},{"id":"882873","latitude":"39.66027780","longitude":"20.93972220","name":"Ardhom\u00edsta"},{"id":"882874","latitude":"39.66027780","longitude":"20.93972220","name":"Ardhom\u00edtsa"},{"id":"882875","latitude":"39.42694440","longitude":"20.71944440","name":"\u00c1rdhosi"},{"id":"882876","latitude":"39.42694440","longitude":"20.71944440","name":"\u00c1rdhosis"},{"id":"882877","latitude":"39.42694440","longitude":"20.71944440","name":"\u00c1rdhosos"},{"id":"882878","latitude":"39.42694440","longitude":"20.71944440","name":"\u00c1rdosis"},{"id":"882886","latitude":"39.82861110","longitude":"20.58194440","name":"Aret\u00ed"},{"id":"882919","latitude":"39.95055560","longitude":"20.36083330","name":"Argyroch\u00f3ri"},{"id":"882920","latitude":"39.95055560","longitude":"20.36083330","name":"Argyroch\u00f3rion"},{"id":"882937","latitude":"39.89888890","longitude":"20.39833330","name":"Ar\u00ednista"},{"id":"882940","latitude":"39.93305560","longitude":"20.67361110","name":"Ar\u00edsti"},{"id":"882994","latitude":"39.70444440","longitude":"21.06472220","name":"Arkoudh\u00edtsi"},{"id":"882997","latitude":"39.70444440","longitude":"21.06472220","name":"Arkoud\u00edtsi"},{"id":"883003","latitude":"40.03250000","longitude":"20.96833330","name":"\u00c1rmata"},{"id":"883007","latitude":"40.03250000","longitude":"20.96833330","name":"Arm\u00e1tovon"},{"id":"883072","latitude":"39.49500000","longitude":"20.68666670","name":"Artopo\u00fala"},{"id":"883077","latitude":"39.93305560","longitude":"20.67361110","name":"Arts\u00edsta"},{"id":"883108","latitude":"39.95055560","longitude":"20.36083330","name":"Aryirokh\u00f3ri"},{"id":"883109","latitude":"39.95055560","longitude":"20.36083330","name":"Aryirokh\u00f3rion"},{"id":"883132","latitude":"39.77527780","longitude":"20.75361110","name":"Asf\u00e1ka"},{"id":"883153","latitude":"40.25750000","longitude":"20.75388890","name":"Asimoch\u00f3ri"},{"id":"883154","latitude":"40.25750000","longitude":"20.75388890","name":"Asimoch\u00f3rion"},{"id":"883155","latitude":"40.25750000","longitude":"20.75388890","name":"Asimokh\u00f3ri"},{"id":"883157","latitude":"40.25750000","longitude":"20.75388890","name":"Asimokh\u00f3rion"},{"id":"883194","latitude":"39.82222220","longitude":"20.72944440","name":"Aspr\u00e1ngeloi"},{"id":"883201","latitude":"39.52250000","longitude":"20.73527780","name":"Asproch\u00f3ri"},{"id":"883202","latitude":"39.52250000","longitude":"20.73527780","name":"Asproch\u00f3rion"},{"id":"883209","latitude":"39.52250000","longitude":"20.73527780","name":"Asprokh\u00f3ri"},{"id":"883211","latitude":"39.52250000","longitude":"20.73527780","name":"Asprokh\u00f3rion"},{"id":"883291","latitude":"39.62888890","longitude":"20.77638890","name":"Asvestoch\u00f3ri"},{"id":"883292","latitude":"39.62888890","longitude":"20.77638890","name":"Asvestoch\u00f3rion"},{"id":"883294","latitude":"39.62888890","longitude":"20.77638890","name":"Asvestokh\u00f3rion"},{"id":"883369","latitude":"39.52861110","longitude":"20.90138890","name":"Avg\u00f3"},{"id":"883370","latitude":"39.52861110","longitude":"20.90138890","name":"Avg\u00f3n"},{"id":"883442","latitude":"39.56305560","longitude":"20.73833330","name":"Ay\u00eda Anastas\u00eda"},{"id":"883477","latitude":"39.44944440","longitude":"20.68166670","name":"Ay\u00eda Kiriak\u00ed"},{"id":"883489","latitude":"39.80194440","longitude":"20.43750000","name":"Ay\u00eda Mar\u00edna"},{"id":"883515","latitude":"40.14250000","longitude":"20.88944440","name":"Ay\u00eda Paraskev\u00ed"},{"id":"883565","latitude":"39.43611110","longitude":"20.88694440","name":"Ay\u00eda Tri\u00e1s"},{"id":"883585","latitude":"40.14972220","longitude":"20.73444440","name":"Ay\u00eda Varv\u00e1ra"},{"id":"883602","latitude":"39.74944440","longitude":"20.79305560","name":"\u00c1yioi Ap\u00f3stoloi"},{"id":"883618","latitude":"39.56666670","longitude":"21.05166670","name":"\u00c1yioi P\u00e1ndes"},{"id":"883626","latitude":"39.43333330","longitude":"20.95000000","name":"\u00c1yioi The\u00f3dhoroi"},{"id":"883716","latitude":"39.51722220","longitude":"20.67500000","name":"\u00c1yios Dhim\u00edtrios"},{"id":"883753","latitude":"39.44944440","longitude":"20.68166670","name":"\u00c1yios Io\u00e1nnis"},{"id":"883812","latitude":"39.97250000","longitude":"20.56861110","name":"\u00c1yios Kosm\u00e1s"},{"id":"883830","latitude":"39.94666670","longitude":"20.66916670","name":"\u00c1yios Min\u00e1s"},{"id":"883840","latitude":"39.54305560","longitude":"20.63611110","name":"\u00c1yios Nik\u00f3laos"},{"id":"883906","latitude":"39.55000000","longitude":"20.55000000","name":"\u00c1yios St\u00e9fanos"},{"id":"883954","latitude":"39.42194440","longitude":"20.94833330","name":"\u00c1yios Ye\u00f3ryios"},{"id":"884016","latitude":"39.60000000","longitude":"20.87833330","name":"B\u00e1fra"},{"id":"884054","latitude":"39.42166670","longitude":"20.78444440","name":"B\u00e1las"},{"id":"884067","latitude":"39.42166670","longitude":"20.78444440","name":"Ball\u00e1"},{"id":"884100","latitude":"39.53777780","longitude":"20.73194440","name":"Baousio\u00ed"},{"id":"884103","latitude":"39.73333330","longitude":"21.10000000","name":"(( B\u00e1ra ))"},{"id":"884111","latitude":"39.72638890","longitude":"21.05916670","name":"Baramb\u00e1ti"},{"id":"884112","latitude":"39.72638890","longitude":"21.05916670","name":"Baramp\u00e1ti"},{"id":"884127","latitude":"39.63138890","longitude":"20.92555560","name":"Barkm\u00e1dhi"},{"id":"884159","latitude":"39.86416670","longitude":"20.79194440","name":"B\u00e1yia"},{"id":"884218","latitude":"39.58361110","longitude":"20.72416670","name":"B\u00e9rko"},{"id":"884219","latitude":"39.58361110","longitude":"20.72416670","name":"B\u00e9rkon"},{"id":"884231","latitude":"39.43555560","longitude":"20.68972220","name":"Best\u00e1"},{"id":"884232","latitude":"39.43555560","longitude":"20.68972220","name":"Besti\u00e1"},{"id":"884262","latitude":"39.43555560","longitude":"20.68972220","name":"Bisti\u00e1"},{"id":"884267","latitude":"39.95166670","longitude":"20.70666670","name":"Bitsik\u00f3n"},{"id":"884282","latitude":"40.21055560","longitude":"20.86027780","name":"Bl\u00edsdiani"},{"id":"884309","latitude":"39.67000000","longitude":"20.58972220","name":"Bondzar\u00e1"},{"id":"884329","latitude":"39.85000000","longitude":"20.68333330","name":"Bostandz\u00ed"},{"id":"884330","latitude":"39.85000000","longitude":"20.68333330","name":"(( Bostanj\u00ed ))"},{"id":"884333","latitude":"39.76805560","longitude":"21.11833330","name":"Botanos"},{"id":"884338","latitude":"39.67000000","longitude":"20.58972220","name":"Botzar\u00e1"},{"id":"884339","latitude":"39.67000000","longitude":"20.58972220","name":"Botzar\u00e1s"},{"id":"884355","latitude":"39.42000000","longitude":"20.99055560","name":"Bouk\u00e1rion"},{"id":"884365","latitude":"39.42000000","longitude":"20.99055560","name":"Bo\u00fako"},{"id":"884366","latitude":"39.42000000","longitude":"20.99055560","name":"Bouk\u00f3rion"},{"id":"884391","latitude":"39.43611110","longitude":"20.88694440","name":"Bour\u00e1tsa"},{"id":"884397","latitude":"39.74722220","longitude":"21.08694440","name":"Bo\u00faria"},{"id":"884401","latitude":"39.73416670","longitude":"20.63805560","name":"Bournd\u00e1ri"},{"id":"884402","latitude":"39.73416670","longitude":"20.63805560","name":"Bournd\u00e1rion"},{"id":"884410","latitude":"40.05555560","longitude":"20.54666670","name":"Bo\u00fatsikon"},{"id":"884451","latitude":"39.74500000","longitude":"20.79500000","name":"Br\u00e1yia"},{"id":"884551","latitude":"39.42083330","longitude":"20.84444440","name":"Ch\u00e1nia T\u00e9rovou"},{"id":"884552","latitude":"39.90722220","longitude":"20.46694440","name":"Ch\u00e1ni Delvinak\u00edou"},{"id":"884557","latitude":"39.42083330","longitude":"20.84444440","name":"Ch\u00e1ni Ter\u00f3vou"},{"id":"884567","latitude":"39.86666670","longitude":"20.39944440","name":"Charavg\u00ed"},{"id":"884571","latitude":"39.54333330","longitude":"20.77500000","name":"Charkov\u00edsta"},{"id":"884574","latitude":"39.58750000","longitude":"20.95305560","name":"Charok\u00f3pi"},{"id":"884575","latitude":"39.58750000","longitude":"20.95305560","name":"Charok\u00f3pion"},{"id":"884625","latitude":"39.61555560","longitude":"20.63611110","name":"Ch\u00ednka"},{"id":"884626","latitude":"40.26805560","longitude":"20.74277780","name":"Chion\u00e1des"},{"id":"884642","latitude":"39.42777780","longitude":"20.94777780","name":"Ch\u00f3ra"},{"id":"884675","latitude":"39.54944440","longitude":"21.00916670","name":"Chouliar\u00e1des"},{"id":"884679","latitude":"39.61472220","longitude":"21.03916670","name":"Chouto\u00famista"},{"id":"884682","latitude":"39.55611110","longitude":"21.11500000","name":"Christo\u00ed"},{"id":"884690","latitude":"39.93138890","longitude":"20.36833330","name":"Chrys\u00f3douli"},{"id":"884700","latitude":"39.77944440","longitude":"21.07305560","name":"Chrysov\u00edtsa"},{"id":"884720","latitude":"39.43444440","longitude":"21.01861110","name":"D\u00e1fni"},{"id":"884727","latitude":"39.73416670","longitude":"20.63805560","name":"Dafn\u00f3fyto"},{"id":"884728","latitude":"39.73416670","longitude":"20.63805560","name":"Dafn\u00f3fyton"},{"id":"884733","latitude":"39.60611110","longitude":"20.98916670","name":"Dafno\u00fala"},{"id":"884805","latitude":"39.93250000","longitude":"20.46611110","name":"Delvin\u00e1ki"},{"id":"884806","latitude":"39.93250000","longitude":"20.46611110","name":"Delvin\u00e1kion"},{"id":"884807","latitude":"39.66166670","longitude":"20.65555560","name":"Delvinak\u00f3poulo"},{"id":"884808","latitude":"39.66166670","longitude":"20.65555560","name":"Delvinak\u00f3poulon"},{"id":"884809","latitude":"39.73305560","longitude":"21.02194440","name":"Dem\u00e1ti"},{"id":"884810","latitude":"39.73305560","longitude":"21.02194440","name":"Dem\u00e1tion"},{"id":"884829","latitude":"40.30694440","longitude":"20.85388890","name":"D\u00e9ntsikon"},{"id":"884846","latitude":"39.39750000","longitude":"20.78222220","name":"Dervitsiana"},{"id":"884847","latitude":"39.39750000","longitude":"20.78222220","name":"Derv\u00edziana"},{"id":"884853","latitude":"39.73833330","longitude":"20.56638890","name":"Despotik\u00f3"},{"id":"884855","latitude":"39.73833330","longitude":"20.56638890","name":"Despotik\u00f3n"},{"id":"884874","latitude":"39.43444440","longitude":"21.01861110","name":"Dh\u00e1fni"},{"id":"884892","latitude":"39.73416670","longitude":"20.63805560","name":"Dhafn\u00f3fiton"},{"id":"884907","latitude":"39.60611110","longitude":"20.98916670","name":"Dhafno\u00fala"},{"id":"885002","latitude":"39.66166670","longitude":"20.65555560","name":"Dhelvik\u00f3poulon"},{"id":"885003","latitude":"39.93250000","longitude":"20.46611110","name":"Dhelvin\u00e1kion"},{"id":"885004","latitude":"39.66166670","longitude":"20.65555560","name":"Dhelvinak\u00f3poulon"},{"id":"885005","latitude":"39.73305560","longitude":"21.02194440","name":"Dhem\u00e1ti"},{"id":"885007","latitude":"39.73305560","longitude":"21.02194440","name":"Dhem\u00e1tion"},{"id":"885049","latitude":"40.05944440","longitude":"20.44111110","name":"Dh\u00ebrm"},{"id":"885064","latitude":"39.39750000","longitude":"20.78222220","name":"Dherv\u00edziana"},{"id":"885074","latitude":"39.73833330","longitude":"20.56638890","name":"Dhespotik\u00f3n"},{"id":"885136","latitude":"39.57305560","longitude":"20.58861110","name":"Dhikho\u00fani"},{"id":"885137","latitude":"39.57305560","longitude":"20.58861110","name":"Dhikho\u00fanion"},{"id":"885139","latitude":"39.78666670","longitude":"20.80138890","name":"Dh\u00edkorfon"},{"id":"885140","latitude":"39.78666670","longitude":"20.80138890","name":"Dhik\u00f3rifon"},{"id":"885149","latitude":"39.85611110","longitude":"20.76527780","name":"Dh\u00edlofon"},{"id":"885176","latitude":"39.83250000","longitude":"20.50166670","name":"Dhim\u00f3kori"},{"id":"885177","latitude":"39.83250000","longitude":"20.50166670","name":"Dhimok\u00f3rion"},{"id":"885206","latitude":"39.78972220","longitude":"20.87722220","name":"Dhip\u00f3tamon"},{"id":"885219","latitude":"40.02611110","longitude":"21.01611110","name":"Dh\u00edstraton"},{"id":"885234","latitude":"39.54333330","longitude":"20.77500000","name":"Dhodh\u00f3ni"},{"id":"885246","latitude":"39.90194440","longitude":"20.57944440","name":"Dholian\u00e1"},{"id":"885249","latitude":"39.82305560","longitude":"20.95416670","name":"Dh\u00f3liani"},{"id":"885253","latitude":"39.98861110","longitude":"20.44194440","name":"Dhol\u00f3n"},{"id":"885254","latitude":"39.98861110","longitude":"20.44194440","name":"Dhol\u00f3s"},{"id":"885265","latitude":"39.58194440","longitude":"20.62333330","name":"Dhomoless\u00e1"},{"id":"885266","latitude":"39.58194440","longitude":"20.62333330","name":"Dhomol\u00f3ssa"},{"id":"885289","latitude":"40.13333330","longitude":"21.13333330","name":"Dhotsik\u00f3n"},{"id":"885314","latitude":"40.13333330","longitude":"21.13333330","name":"Dho\u00fatsikon"},{"id":"885318","latitude":"39.57277780","longitude":"20.54944440","name":"Dhovl\u00e1"},{"id":"885335","latitude":"39.69694440","longitude":"20.63500000","name":"Dhragom\u00ed"},{"id":"885336","latitude":"39.59722220","longitude":"20.68583330","name":"Dhragops\u00e1"},{"id":"885340","latitude":"39.69694440","longitude":"20.63500000","name":"Dhragoum\u00ed"},{"id":"885342","latitude":"39.43916670","longitude":"20.72750000","name":"Dhragov\u00e9tsi"},{"id":"885368","latitude":"39.55027780","longitude":"20.76666670","name":"Dhramesio\u00ed"},{"id":"885370","latitude":"39.55027780","longitude":"20.76666670","name":"Dhrameso\u00fa"},{"id":"885410","latitude":"40.05944440","longitude":"20.44111110","name":"Dhrim\u00e1dhes"},{"id":"885473","latitude":"39.62666670","longitude":"20.97222220","name":"Dhrosokh\u00f3rion"},{"id":"885475","latitude":"40.21027780","longitude":"20.91333330","name":"Dhrosopiy\u00ed"},{"id":"885504","latitude":"39.57305560","longitude":"20.58861110","name":"Dicho\u00fani"},{"id":"885505","latitude":"39.57305560","longitude":"20.58861110","name":"Dicho\u00fanion"},{"id":"885516","latitude":"39.78666670","longitude":"20.80138890","name":"Dik\u00f3ryfo"},{"id":"885517","latitude":"39.78666670","longitude":"20.80138890","name":"Dik\u00f3ryfon"},{"id":"885519","latitude":"39.86777780","longitude":"20.98638890","name":"D\u00edlakko"},{"id":"885520","latitude":"39.86777780","longitude":"20.98638890","name":"D\u00edlakkon"},{"id":"885522","latitude":"39.85611110","longitude":"20.76527780","name":"D\u00edlofo"},{"id":"885524","latitude":"39.85611110","longitude":"20.76527780","name":"D\u00edlofon"},{"id":"885531","latitude":"39.83250000","longitude":"20.50166670","name":"Dimok\u00f3ri"},{"id":"885532","latitude":"39.83250000","longitude":"20.50166670","name":"Dimok\u00f3rion"},{"id":"885545","latitude":"39.78972220","longitude":"20.87722220","name":"Dip\u00f3tamo"},{"id":"885546","latitude":"39.78972220","longitude":"20.87722220","name":"Dip\u00f3tamon"},{"id":"885552","latitude":"40.02611110","longitude":"21.01611110","name":"D\u00edstrato"},{"id":"885554","latitude":"40.02611110","longitude":"21.01611110","name":"D\u00edstraton"},{"id":"885563","latitude":"39.54333330","longitude":"20.77500000","name":"Dod\u00f3ni"},{"id":"885569","latitude":"39.90194440","longitude":"20.57944440","name":"Dolian\u00e1"},{"id":"885572","latitude":"39.82305560","longitude":"20.95416670","name":"D\u00f3liani"},{"id":"885575","latitude":"39.98861110","longitude":"20.44194440","name":"Dol\u00f3"},{"id":"885576","latitude":"39.98861110","longitude":"20.44194440","name":"Dol\u00f3n"},{"id":"885584","latitude":"39.58194440","longitude":"20.62333330","name":"Domoless\u00e1"},{"id":"885600","latitude":"39.54916670","longitude":"21.10833330","name":"Do\u00fanavos"},{"id":"885611","latitude":"39.57277780","longitude":"20.54944440","name":"Dovl\u00e1"},{"id":"885613","latitude":"39.82222220","longitude":"20.72944440","name":"D\u00f3vra"},{"id":"885617","latitude":"39.98000000","longitude":"20.91250000","name":"Dovrin\u00f3vou"},{"id":"885624","latitude":"39.85111110","longitude":"20.95694440","name":"Drag\u00e1ri"},{"id":"885628","latitude":"39.59722220","longitude":"20.68583330","name":"Dragops\u00e1"},{"id":"885641","latitude":"39.55027780","longitude":"20.76666670","name":"Dramesio\u00ed"},{"id":"885651","latitude":"39.79277780","longitude":"21.00250000","name":"Drestin\u00edkon"},{"id":"885670","latitude":"39.62666670","longitude":"20.97222220","name":"Drosoch\u00f3ri"},{"id":"885672","latitude":"39.62666670","longitude":"20.97222220","name":"Drosoch\u00f3rion"},{"id":"885674","latitude":"40.21027780","longitude":"20.91333330","name":"Drosopig\u00ed"},{"id":"885678","latitude":"40.05944440","longitude":"20.44111110","name":"Drym\u00e1des"},{"id":"885740","latitude":"39.70194440","longitude":"20.57361110","name":"Ekklisiokh\u00f3ri"},{"id":"885741","latitude":"39.70194440","longitude":"20.57361110","name":"Ekklisiokh\u00f3ri Kour\u00e9ndon"},{"id":"885743","latitude":"39.70194440","longitude":"20.57361110","name":"Ekklisoch\u00f3ri"},{"id":"885745","latitude":"39.70194440","longitude":"20.57361110","name":"Ekklisoch\u00f3rion"},{"id":"885747","latitude":"39.70194440","longitude":"20.57361110","name":"Ekklisokh\u00f3rion"},{"id":"885749","latitude":"39.70194440","longitude":"20.57361110","name":"Ekklissiokh\u00f3ri Kour\u00e9ndon"},{"id":"885760","latitude":"39.43916670","longitude":"20.72750000","name":"\u00c9lafos"},{"id":"885762","latitude":"39.90027780","longitude":"20.69000000","name":"Elaf\u00f3topoe"},{"id":"885763","latitude":"39.90027780","longitude":"20.69000000","name":"Elaf\u00f3topos"},{"id":"885765","latitude":"39.89083330","longitude":"20.62250000","name":"Ela\u00eda"},{"id":"885805","latitude":"39.82777780","longitude":"20.75055560","name":"El\u00e1ti"},{"id":"885810","latitude":"39.87388890","longitude":"20.98250000","name":"Elatoch\u00f3ri"},{"id":"885812","latitude":"39.87388890","longitude":"20.98250000","name":"Elatoch\u00f3rion"},{"id":"885814","latitude":"39.87388890","longitude":"20.98250000","name":"Elatokh\u00f3ri"},{"id":"885816","latitude":"39.87388890","longitude":"20.98250000","name":"Elatokh\u00f3rion"},{"id":"885835","latitude":"39.56222220","longitude":"20.70000000","name":"Eleftheroch\u00f3ri"},{"id":"885839","latitude":"39.56222220","longitude":"20.70000000","name":"Eleftheroch\u00f3rion"},{"id":"885843","latitude":"40.05583330","longitude":"20.85472220","name":"El\u00e9fthero"},{"id":"885844","latitude":"40.05583330","longitude":"20.85472220","name":"El\u00e9ftheron"},{"id":"885854","latitude":"39.70638890","longitude":"20.79250000","name":"Eleo\u00fasa"},{"id":"885874","latitude":"39.56222220","longitude":"20.70000000","name":"Elevtherokh\u00f3rion"},{"id":"885881","latitude":"40.05583330","longitude":"20.85472220","name":"El\u00e9vtheron"},{"id":"885883","latitude":"39.49500000","longitude":"20.68666670","name":"\u00c9lezna"},{"id":"885908","latitude":"39.54916670","longitude":"20.95416670","name":"Ellinik\u00f3"},{"id":"885911","latitude":"39.54916670","longitude":"20.95416670","name":"Ellinik\u00f3n"},{"id":"886047","latitude":"39.54083330","longitude":"20.85500000","name":"Episkopik\u00f3"},{"id":"886048","latitude":"39.54083330","longitude":"20.85500000","name":"Episkopik\u00f3n"},{"id":"886072","latitude":"40.05555560","longitude":"20.54666670","name":"Ere\u00edpia Pogon\u00edskos"},{"id":"886140","latitude":"39.42166670","longitude":"20.78444440","name":"Evangel\u00edstria"},{"id":"886195","latitude":"40.09750000","longitude":"20.74027780","name":"Exoch\u00ed"},{"id":"886205","latitude":"40.09750000","longitude":"20.74027780","name":"Exokh\u00ed"},{"id":"886278","latitude":"39.94888890","longitude":"20.43444440","name":"Far\u00e1ngi"},{"id":"886281","latitude":"39.94888890","longitude":"20.43444440","name":"Far\u00e1ngion"},{"id":"886409","latitude":"40.23666670","longitude":"20.85111110","name":"Fit\u00f3kon"},{"id":"886415","latitude":"39.85611110","longitude":"20.99138890","name":"Flambour\u00e1rion"},{"id":"886432","latitude":"39.85611110","longitude":"20.99138890","name":"Flampour\u00e1ri"},{"id":"886433","latitude":"39.85611110","longitude":"20.99138890","name":"Flampour\u00e1rion"},{"id":"886502","latitude":"39.51277780","longitude":"20.98194440","name":"Fort\u00f3si"},{"id":"886503","latitude":"39.51277780","longitude":"20.98194440","name":"Fort\u00f3sion"},{"id":"886514","latitude":"39.75194440","longitude":"20.53611110","name":"Fotein\u00f3"},{"id":"886517","latitude":"39.75194440","longitude":"20.53611110","name":"Fotein\u00f3n"},{"id":"886527","latitude":"39.75194440","longitude":"20.53611110","name":"Fotin\u00f3n"},{"id":"886548","latitude":"40.15833330","longitude":"20.94472220","name":"Fo\u00farka"},{"id":"886572","latitude":"39.82916670","longitude":"20.88361110","name":"Fragk\u00e1des"},{"id":"886579","latitude":"39.82916670","longitude":"20.88361110","name":"Frang\u00e1dhes"},{"id":"886605","latitude":"40.01722220","longitude":"20.52250000","name":"Frastan\u00e1"},{"id":"886615","latitude":"39.49277780","longitude":"21.04250000","name":"Fr\u00e1xos"},{"id":"886617","latitude":"39.49277780","longitude":"21.04250000","name":"Fr\u00e1xou"},{"id":"886657","latitude":"39.58611110","longitude":"20.54777780","name":"Ft\u00e9ri"},{"id":"886707","latitude":"40.30694440","longitude":"20.85388890","name":"Galatari\u00e1s"},{"id":"886755","latitude":"40.12750000","longitude":"20.82416670","name":"Ganadhi\u00f3"},{"id":"886756","latitude":"40.12750000","longitude":"20.82416670","name":"Ganadhi\u00f3n"},{"id":"886757","latitude":"40.12750000","longitude":"20.82416670","name":"Ganadi\u00f3"},{"id":"886758","latitude":"40.12750000","longitude":"20.82416670","name":"Ganadi\u00f3n"},{"id":"886782","latitude":"39.70916670","longitude":"20.77722220","name":"Gardhik\u00f3poulon"},{"id":"886788","latitude":"39.70916670","longitude":"20.77722220","name":"Gardik\u00f3poulon"},{"id":"886830","latitude":"39.80583330","longitude":"20.69416670","name":"Gavrisio\u00ed"},{"id":"886831","latitude":"39.80583330","longitude":"20.69416670","name":"Gavrissio\u00ed"},{"id":"886859","latitude":"39.41277780","longitude":"20.78861110","name":"Georg\u00e1noi"},{"id":"886869","latitude":"39.61833330","longitude":"20.98638890","name":"Gerak\u00e1ri"},{"id":"886873","latitude":"39.61833330","longitude":"20.98638890","name":"Gerak\u00e1rion"},{"id":"886892","latitude":"39.96916670","longitude":"20.62694440","name":"Geropl\u00e1tanos"},{"id":"886909","latitude":"39.74694440","longitude":"21.10500000","name":"Giarak\u00e1ri"},{"id":"886910","latitude":"39.74694440","longitude":"21.10500000","name":"Giarak\u00e1rion"},{"id":"886923","latitude":"39.65055560","longitude":"20.62638890","name":"Giourg\u00e1nista"},{"id":"886934","latitude":"39.86222220","longitude":"20.55638890","name":"Gkorits\u00e1"},{"id":"886935","latitude":"39.42888890","longitude":"20.75500000","name":"Gkoulem\u00ed"},{"id":"886939","latitude":"39.66666670","longitude":"20.55000000","name":"Gkr\u00edmpovo"},{"id":"886940","latitude":"39.66666670","longitude":"20.55000000","name":"Gkr\u00edmpovon"},{"id":"886979","latitude":"39.78138890","longitude":"20.61083330","name":"Gl\u00edziani"},{"id":"887042","latitude":"40.26888890","longitude":"20.76583330","name":"Gorgop\u00f3tamos"},{"id":"887050","latitude":"40.00861110","longitude":"20.68916670","name":"Gor\u00edtsa"},{"id":"887081","latitude":"39.42888890","longitude":"20.75500000","name":"Goulem\u00ed"},{"id":"887095","latitude":"39.75750000","longitude":"21.04138890","name":"Go\u00fanari"},{"id":"887101","latitude":"39.55222220","longitude":"21.03722220","name":"Go\u00fara"},{"id":"887122","latitude":"39.58277780","longitude":"20.91972220","name":"Go\u00farista"},{"id":"887152","latitude":"39.94888890","longitude":"20.43444440","name":"Gouv\u00e9rion"},{"id":"887191","latitude":"39.65527780","longitude":"20.71277780","name":"Gramm\u00e9no"},{"id":"887192","latitude":"39.65527780","longitude":"20.71277780","name":"Gramm\u00e9non"},{"id":"887198","latitude":"39.61111110","longitude":"20.59000000","name":"Gran\u00edtsa"},{"id":"887206","latitude":"39.72166670","longitude":"20.53083330","name":"Granitsopo\u00fala"},{"id":"887207","latitude":"39.48138890","longitude":"20.66277780","name":"Gr\u00e1sdani"},{"id":"887210","latitude":"39.52250000","longitude":"20.73527780","name":"Gratsan\u00e1s"},{"id":"887226","latitude":"39.80722220","longitude":"21.00361110","name":"Greven\u00edti"},{"id":"887228","latitude":"39.80722220","longitude":"21.00361110","name":"Greven\u00edtion"},{"id":"887233","latitude":"39.66666670","longitude":"20.55000000","name":"Gr\u00edbovon"},{"id":"887249","latitude":"39.82861110","longitude":"20.58194440","name":"Gr\u00edmbiani"},{"id":"887251","latitude":"39.66666670","longitude":"20.55000000","name":"Gr\u00edmbovon"},{"id":"887256","latitude":"40.05583330","longitude":"20.85472220","name":"Gr\u00edspiani"},{"id":"887392","latitude":"39.77250000","longitude":"20.57750000","name":"Ieromn\u00edmi"},{"id":"887410","latitude":"39.98000000","longitude":"20.91250000","name":"Ilioch\u00f3ri"},{"id":"887411","latitude":"39.98000000","longitude":"20.91250000","name":"Ilioch\u00f3rion"},{"id":"887416","latitude":"39.61833330","longitude":"20.97361110","name":"Ili\u00f3kali"},{"id":"887418","latitude":"39.98000000","longitude":"20.91250000","name":"Iliokh\u00f3ri"},{"id":"887419","latitude":"39.98000000","longitude":"20.91250000","name":"Iliokh\u00f3rion"},{"id":"887425","latitude":"40.05611110","longitude":"20.70500000","name":"Ili\u00f3rrachi"},{"id":"887426","latitude":"40.05611110","longitude":"20.70500000","name":"Ili\u00f3rrakhi"},{"id":"887456","latitude":"39.66750000","longitude":"20.85083330","name":"Io\u00e4a"},{"id":"887457","latitude":"39.66750000","longitude":"20.85083330","name":"Io\u00e1nnina"},{"id":"887546","latitude":"40.15833330","longitude":"20.72888890","name":"\u00cdsvoron"},{"id":"887553","latitude":"39.76638890","longitude":"21.00888890","name":"It\u00e9a"},{"id":"887576","latitude":"39.66750000","longitude":"20.85083330","name":"Janina"},{"id":"887650","latitude":"40.03694440","longitude":"20.47027780","name":"Kak\u00f3lakkon"},{"id":"887651","latitude":"40.03694440","longitude":"20.47027780","name":"Kak\u00f3lakkos"},{"id":"887780","latitude":"39.58305560","longitude":"21.12361110","name":"Kalar\u00edtai"},{"id":"887781","latitude":"39.58305560","longitude":"21.12361110","name":"Kalar\u00edtes"},{"id":"887782","latitude":"39.58305560","longitude":"21.12361110","name":"Kalarr\u00edtai"},{"id":"887783","latitude":"39.58305560","longitude":"21.12361110","name":"Kalarrytae"},{"id":"887800","latitude":"39.49166670","longitude":"20.98333330","name":"Kal\u00e9ndzi"},{"id":"887804","latitude":"39.49166670","longitude":"20.98333330","name":"Kal\u00e9nji"},{"id":"887808","latitude":"39.49166670","longitude":"20.98333330","name":"Kal\u00e9ntzi"},{"id":"887810","latitude":"39.49166670","longitude":"20.98333330","name":"Kal\u00e9ntzion"},{"id":"887877","latitude":"39.92888890","longitude":"20.64500000","name":"Kal\u00edvia Ar\u00edstis"},{"id":"887889","latitude":"39.90444440","longitude":"20.64805560","name":"Kal\u00edvia Elafot\u00f3pou"},{"id":"887896","latitude":"39.90444440","longitude":"20.64805560","name":"Kal\u00edvia"},{"id":"887928","latitude":"39.80194440","longitude":"20.43750000","name":"Kal\u00edvia Kosov\u00edtsis"},{"id":"887935","latitude":"39.97750000","longitude":"20.66888890","name":"Kal\u00edvia Litoniav\u00edsta"},{"id":"887950","latitude":"39.87888890","longitude":"20.64388890","name":"(( Kal\u00edvia Soudheni\u00f3tika ))"},{"id":"887972","latitude":"39.58305560","longitude":"21.12361110","name":"Kallar\u00edtai"},{"id":"888018","latitude":"40.00861110","longitude":"20.68916670","name":"Kallith\u00e9a"},{"id":"888062","latitude":"39.67694440","longitude":"20.61638890","name":"Kaloch\u00f3ri"},{"id":"888067","latitude":"39.67694440","longitude":"20.61638890","name":"Kaloch\u00f3rion"},{"id":"888073","latitude":"39.50805560","longitude":"21.04388890","name":"Kalog\u00e9roi"},{"id":"888093","latitude":"39.67694440","longitude":"20.61638890","name":"Kalokh\u00f3ri"},{"id":"888104","latitude":"39.67694440","longitude":"20.61638890","name":"Kalokh\u00f3rion"},{"id":"888145","latitude":"39.78138890","longitude":"20.83527780","name":"Kalot\u00e1"},{"id":"888157","latitude":"39.78138890","longitude":"20.83527780","name":"Kalout\u00e1s"},{"id":"888161","latitude":"40.07861110","longitude":"20.61861110","name":"Kal\u00f3vrisi"},{"id":"888163","latitude":"40.07861110","longitude":"20.61861110","name":"Kal\u00f3vrysi"},{"id":"888181","latitude":"39.88777780","longitude":"20.62388890","name":"Kalp\u00e1ki"},{"id":"888184","latitude":"39.88777780","longitude":"20.62388890","name":"Kalp\u00e1kion"},{"id":"888195","latitude":"39.92888890","longitude":"20.64500000","name":"Kal\u00fdvia Ar\u00edstis"},{"id":"888201","latitude":"39.90444440","longitude":"20.64805560","name":"Kal\u00fdvia"},{"id":"888287","latitude":"39.33333330","longitude":"20.71666670","name":"K\u00e1mbos"},{"id":"888321","latitude":"39.76583330","longitude":"20.86750000","name":"Kamini\u00e1"},{"id":"888336","latitude":"39.76583330","longitude":"20.86750000","name":"Kamni\u00e1"},{"id":"888337","latitude":"39.76583330","longitude":"20.86750000","name":"Kamnl\u00e1"},{"id":"888348","latitude":"39.33333330","longitude":"20.71666670","name":"(( K\u00e1mpos ))"},{"id":"888349","latitude":"39.42638890","longitude":"20.70666670","name":"K\u00e1mpos"},{"id":"888406","latitude":"40.21027780","longitude":"20.91333330","name":"Kands\u00edkon"},{"id":"888411","latitude":"39.48833330","longitude":"20.86972220","name":"Kan\u00e9tta"},{"id":"888431","latitude":"40.21027780","longitude":"20.91333330","name":"Kantzik\u00f3n"},{"id":"888452","latitude":"39.88861110","longitude":"20.78277780","name":"Kap\u00e9sovon"},{"id":"888686","latitude":"39.73444440","longitude":"20.93305560","name":"Karia\u00ed"},{"id":"888714","latitude":"39.73444440","longitude":"20.93305560","name":"Karidhi\u00e9s"},{"id":"888747","latitude":"39.73611110","longitude":"20.66361110","name":"Kar\u00edtsa"},{"id":"888821","latitude":"39.47361110","longitude":"20.83583330","name":"Karropo\u00fala"},{"id":"888862","latitude":"39.73444440","longitude":"20.93305560","name":"Karya\u00ed"},{"id":"888872","latitude":"39.73444440","longitude":"20.93305560","name":"Kary\u00e9s"},{"id":"888877","latitude":"39.71250000","longitude":"21.07027780","name":"Kary\u00f3fyto"},{"id":"888878","latitude":"39.71250000","longitude":"21.07027780","name":"Kary\u00f3fyton"},{"id":"888920","latitude":"40.18722220","longitude":"20.84027780","name":"Kastan\u00e9a"},{"id":"888934","latitude":"40.18722220","longitude":"20.84027780","name":"Kastani\u00e1"},{"id":"888943","latitude":"39.83500000","longitude":"20.42972220","name":"Kast\u00e1niani"},{"id":"888946","latitude":"39.83500000","longitude":"20.42972220","name":"Kastan\u00ed"},{"id":"888953","latitude":"39.85111110","longitude":"20.95694440","name":"Kastan\u00f3nas"},{"id":"888954","latitude":"39.85111110","longitude":"20.95694440","name":"Kastan\u00f3n"},{"id":"889007","latitude":"39.71805560","longitude":"21.06777780","name":"Kastr\u00ed"},{"id":"889022","latitude":"39.71805560","longitude":"21.06777780","name":"Kastri\u00f3n"},{"id":"889034","latitude":"39.63138890","longitude":"20.92555560","name":"Kastr\u00edtsa"},{"id":"889124","latitude":"39.48138890","longitude":"20.66277780","name":"Katam\u00e1chi"},{"id":"889125","latitude":"39.48138890","longitude":"20.66277780","name":"Katam\u00e1khi"},{"id":"889134","latitude":"39.78138890","longitude":"20.61083330","name":"Katarr\u00e1ktis"},{"id":"889384","latitude":"39.75361110","longitude":"20.74944440","name":"K\u00e1to Laps\u00edsta"},{"id":"889385","latitude":"39.77222220","longitude":"20.47888890","name":"K\u00e1to L\u00e1vdani"},{"id":"889386","latitude":"39.77222220","longitude":"20.47888890","name":"K\u00e1to L\u00e1vdhani"},{"id":"889394","latitude":"39.47361110","longitude":"20.75555560","name":"K\u00e1to L\u00edpa"},{"id":"889399","latitude":"39.47361110","longitude":"20.75555560","name":"K\u00e1to L\u00edppa"},{"id":"889400","latitude":"39.73361110","longitude":"21.06777780","name":"K\u00e1to Liv\u00e1dhi"},{"id":"889401","latitude":"39.73361110","longitude":"21.06777780","name":"K\u00e1to Liv\u00e1di"},{"id":"889402","latitude":"39.73361110","longitude":"21.06777780","name":"K\u00e1to Liv\u00e1dion"},{"id":"889437","latitude":"40.01722220","longitude":"20.52250000","name":"K\u00e1to Mer\u00f3pi"},{"id":"889451","latitude":"39.39750000","longitude":"20.81722220","name":"K\u00e1to Mousiot\u00edtsa"},{"id":"889482","latitude":"39.87916670","longitude":"20.67694440","name":"K\u00e1to Pedhin\u00e1"},{"id":"889483","latitude":"39.87916670","longitude":"20.67694440","name":"K\u00e1to Pedin\u00e1"},{"id":"889521","latitude":"39.90805560","longitude":"20.56666670","name":"K\u00e1to Rav\u00e9nia"},{"id":"889549","latitude":"39.87916670","longitude":"20.67694440","name":"K\u00e1to Souden\u00e1"},{"id":"889611","latitude":"39.86666670","longitude":"20.75000000","name":"(( K\u00e1to V\u00edtsa ))"},{"id":"889633","latitude":"39.61638890","longitude":"20.53305560","name":"K\u00e1to Z\u00e1logko"},{"id":"889634","latitude":"39.61638890","longitude":"20.53305560","name":"K\u00e1to Z\u00e1logkon"},{"id":"889635","latitude":"39.61638890","longitude":"20.53305560","name":"K\u00e1to Z\u00e1longon"},{"id":"889640","latitude":"39.44944440","longitude":"20.68166670","name":"K\u00e1to Zotik\u00f3"},{"id":"889641","latitude":"39.44944440","longitude":"20.68166670","name":"K\u00e1to Zotik\u00f3n"},{"id":"889668","latitude":"39.62250000","longitude":"20.88750000","name":"Katsik\u00e1"},{"id":"889671","latitude":"39.62250000","longitude":"20.88750000","name":"Katsik\u00e1s"},{"id":"889708","latitude":"39.50000000","longitude":"21.03333330","name":"Kav\u00e1kia"},{"id":"889723","latitude":"39.74305560","longitude":"20.91527780","name":"Kavall\u00e1ri"},{"id":"889725","latitude":"39.74305560","longitude":"20.91527780","name":"Kavall\u00e1rion"},{"id":"889728","latitude":"39.74305560","longitude":"20.91527780","name":"Kavall\u00e1ris"},{"id":"889739","latitude":"40.08527780","longitude":"20.71361110","name":"Kav\u00e1sila"},{"id":"889743","latitude":"40.08527780","longitude":"20.71361110","name":"Kav\u00e1silla"},{"id":"889787","latitude":"39.57000000","longitude":"20.99250000","name":"K\u00e9dhros"},{"id":"889791","latitude":"39.57000000","longitude":"20.99250000","name":"K\u00e9dros"},{"id":"889818","latitude":"40.24083330","longitude":"20.88500000","name":"Kefaloch\u00f3ri"},{"id":"889831","latitude":"40.01444440","longitude":"20.56250000","name":"Kefal\u00f3vrison"},{"id":"889838","latitude":"40.01444440","longitude":"20.56250000","name":"Kefal\u00f3vryso"},{"id":"889842","latitude":"39.68916670","longitude":"20.65972220","name":"Kefal\u00f3vryson"},{"id":"889906","latitude":"39.88861110","longitude":"20.78277780","name":"Kep\u00e9sovo"},{"id":"889907","latitude":"39.88861110","longitude":"20.78277780","name":"Kep\u00e9sovon"},{"id":"889953","latitude":"39.55694440","longitude":"20.60750000","name":"Keras\u00e9a"},{"id":"889963","latitude":"39.55694440","longitude":"20.60750000","name":"Kerasi\u00e1"},{"id":"889987","latitude":"39.88444440","longitude":"20.46916670","name":"Ker\u00e1sovo"},{"id":"889989","latitude":"39.55694440","longitude":"20.60750000","name":"Ker\u00e1sovon"},{"id":"890004","latitude":"39.57000000","longitude":"20.99250000","name":"K\u00e9rdos"},{"id":"890162","latitude":"39.90722220","longitude":"20.46694440","name":"Kh\u00e1ni Dhelvinak\u00edou"},{"id":"890171","latitude":"39.42083330","longitude":"20.84444440","name":"Kh\u00e1ni Ter\u00f3vou"},{"id":"890172","latitude":"39.42083330","longitude":"20.84444440","name":"Kh\u00e1ni Tirovo\u00fa"},{"id":"890189","latitude":"39.58750000","longitude":"20.95305560","name":"Kharak\u00f3pi"},{"id":"890219","latitude":"39.58750000","longitude":"20.95305560","name":"Kharok\u00f3pion"},{"id":"890309","latitude":"39.61555560","longitude":"20.63611110","name":"Kh\u00ednga"},{"id":"890310","latitude":"39.61555560","longitude":"20.63611110","name":"Kh\u00ednka"},{"id":"890312","latitude":"40.26805560","longitude":"20.74277780","name":"Khion\u00e1dhes"},{"id":"890322","latitude":"39.55611110","longitude":"21.11500000","name":"Khisto\u00ed"},{"id":"890368","latitude":"39.42777780","longitude":"20.94777780","name":"Kh\u00f3ra"},{"id":"890428","latitude":"39.54944440","longitude":"21.00916670","name":"Khouliar\u00e1dhes"},{"id":"890443","latitude":"39.61472220","longitude":"21.03916670","name":"Khoutoum\u00edsta"},{"id":"890453","latitude":"40.16666670","longitude":"21.21666670","name":"Khrisavy\u00ed"},{"id":"890458","latitude":"39.93138890","longitude":"20.36833330","name":"Khris\u00f3dhouli"},{"id":"890479","latitude":"39.83138890","longitude":"20.61583330","name":"Khrisorr\u00e1khi"},{"id":"890487","latitude":"39.77944440","longitude":"21.07305560","name":"Khrisov\u00edtsa"},{"id":"890499","latitude":"39.55611110","longitude":"21.11500000","name":"Khristo\u00ed"},{"id":"890511","latitude":"39.83138890","longitude":"20.61583330","name":"Khrysorr\u00e1chi"},{"id":"890591","latitude":"39.57694440","longitude":"20.93277780","name":"Kipar\u00edssia"},{"id":"890619","latitude":"39.86416670","longitude":"20.79194440","name":"K\u00edpoi"},{"id":"890622","latitude":"39.86416670","longitude":"20.79194440","name":"K\u00edpo"},{"id":"890625","latitude":"39.86416670","longitude":"20.79194440","name":"K\u00edpos"},{"id":"890744","latitude":"39.62666670","longitude":"20.97222220","name":"Klazi\u00e1dhes"},{"id":"890749","latitude":"39.97250000","longitude":"20.67861110","name":"Kleidoni\u00e1"},{"id":"890773","latitude":"39.97250000","longitude":"20.67861110","name":"Klidhoni\u00e1"},{"id":"890774","latitude":"39.97250000","longitude":"20.67861110","name":"Klidhoni\u00e1vista"},{"id":"890779","latitude":"39.68333330","longitude":"20.53333330","name":"(( Kl\u00edma ))"},{"id":"890792","latitude":"39.70472220","longitude":"20.67361110","name":"Klimati\u00e1"},{"id":"890902","latitude":"39.66666670","longitude":"20.53333330","name":"(( Kokkini\u00e1tika ))"},{"id":"890911","latitude":"39.68416670","longitude":"20.65944440","name":"Kokkin\u00f3choma"},{"id":"890915","latitude":"39.68416670","longitude":"20.65944440","name":"Kokkin\u00f3khoma"},{"id":"890968","latitude":"39.81527780","longitude":"20.55583330","name":"Koklio\u00ed"},{"id":"891014","latitude":"39.45138890","longitude":"20.75972220","name":"Kolla\u00ed\u00efka"},{"id":"891036","latitude":"39.57805560","longitude":"20.88805560","name":"Koloni\u00e1tes"},{"id":"891037","latitude":"39.57805560","longitude":"20.88805560","name":"Koloni\u00e1ti"},{"id":"891038","latitude":"39.57805560","longitude":"20.88805560","name":"Koloni\u00e1tion"},{"id":"891087","latitude":"39.51722220","longitude":"21.08055560","name":"Kommat\u00e1kia"},{"id":"891117","latitude":"39.32638890","longitude":"20.70638890","name":"Kond\u00e1tes"},{"id":"891122","latitude":"39.59111110","longitude":"20.97444440","name":"Kondino\u00ed"},{"id":"891123","latitude":"39.59111110","longitude":"20.97444440","name":"Kond\u00ednous"},{"id":"891144","latitude":"39.50361110","longitude":"20.92250000","name":"Kond\u00f3s"},{"id":"891151","latitude":"39.60611110","longitude":"20.98916670","name":"Kondovr\u00e1ki"},{"id":"891153","latitude":"39.60611110","longitude":"20.98916670","name":"Kondovr\u00e1kion"},{"id":"891162","latitude":"39.85527780","longitude":"20.57388890","name":"K\u00f3ndra"},{"id":"891165","latitude":"39.64111110","longitude":"20.75833330","name":"K\u00f3ndsika"},{"id":"891189","latitude":"40.04861110","longitude":"20.75666670","name":"K\u00f3nitsa"},{"id":"891190","latitude":"39.64111110","longitude":"20.75833330","name":"K\u00f3nitska"},{"id":"891208","latitude":"39.32638890","longitude":"20.70638890","name":"Kont\u00e1tes"},{"id":"891209","latitude":"39.59111110","longitude":"20.97444440","name":"Kontino\u00ed"},{"id":"891213","latitude":"39.50361110","longitude":"20.92250000","name":"Kont\u00f3s"},{"id":"891216","latitude":"39.85527780","longitude":"20.57388890","name":"K\u00f3ntra"},{"id":"891217","latitude":"39.64111110","longitude":"20.75833330","name":"K\u00f3ntsika"},{"id":"891222","latitude":"39.47472220","longitude":"20.84638890","name":"Kop\u00e1ni"},{"id":"891228","latitude":"39.88861110","longitude":"20.78277780","name":"Kop\u00e9sovon"},{"id":"891237","latitude":"39.52666670","longitude":"20.66444440","name":"K\u00f3pra"},{"id":"891312","latitude":"39.49444440","longitude":"20.94777780","name":"Kor\u00edtiani"},{"id":"891355","latitude":"40.13333330","longitude":"20.68333330","name":"Kors\u00e1tsi"},{"id":"891386","latitude":"39.59055560","longitude":"20.80388890","name":"Kosmir\u00e1"},{"id":"891396","latitude":"39.58944440","longitude":"20.75555560","name":"Kost\u00e1niani"},{"id":"891424","latitude":"39.61472220","longitude":"21.03916670","name":"Kotom\u00edsta"},{"id":"891425","latitude":"39.61472220","longitude":"21.03916670","name":"Kotom\u00edtsa"},{"id":"891485","latitude":"39.50527780","longitude":"20.91000000","name":"Koufovos"},{"id":"891498","latitude":"39.86944440","longitude":"20.77583330","name":"Koukko\u00fali"},{"id":"891499","latitude":"39.86944440","longitude":"20.77583330","name":"Koukko\u00falion"},{"id":"891503","latitude":"39.37583330","longitude":"20.85027780","name":"Koukl\u00e9si"},{"id":"891504","latitude":"39.37583330","longitude":"20.85027780","name":"Koukl\u00e9sion"},{"id":"891505","latitude":"39.81527780","longitude":"20.55583330","name":"Kouklio\u00ed"},{"id":"891512","latitude":"39.86944440","longitude":"20.77583330","name":"Kouko\u00fali"},{"id":"891518","latitude":"39.86944440","longitude":"20.77583330","name":"Kouko\u00falion"},{"id":"891555","latitude":"39.41805560","longitude":"20.91833330","name":"Kouloura\u00ed\u00efka"},{"id":"891581","latitude":"39.54500000","longitude":"20.68166670","name":"Koumari\u00e1"},{"id":"891594","latitude":"39.50000000","longitude":"21.03333330","name":"(( Koumaro\u00fasa ))"},{"id":"891596","latitude":"39.54500000","longitude":"20.68166670","name":"Koumbari\u00e9s"},{"id":"891658","latitude":"39.65194440","longitude":"20.61305560","name":"Ko\u00farenda"},{"id":"891659","latitude":"39.65194440","longitude":"20.61305560","name":"Ko\u00farenta"},{"id":"891668","latitude":"39.74305560","longitude":"20.52500000","name":"Kournorr\u00e1chi"},{"id":"891669","latitude":"39.74305560","longitude":"20.52500000","name":"Kournorr\u00e1khi"},{"id":"891739","latitude":"39.75000000","longitude":"20.63333330","name":"(( Koutourl\u00e1des ))"},{"id":"891740","latitude":"39.75000000","longitude":"20.63333330","name":"Koutourl\u00e1dhes"},{"id":"891751","latitude":"39.58888890","longitude":"20.91416670","name":"Koutseli\u00f3"},{"id":"891752","latitude":"39.58888890","longitude":"20.91416670","name":"Kouts\u00e9lion"},{"id":"891759","latitude":"39.58888890","longitude":"20.91416670","name":"Koutsili\u00f3"},{"id":"891774","latitude":"39.58888890","longitude":"20.91416670","name":"Koutsoli\u00f3"},{"id":"891788","latitude":"40.05611110","longitude":"20.70500000","name":"Koutso\u00fafliani"},{"id":"891879","latitude":"39.74500000","longitude":"20.79500000","name":"Krano\u00fala"},{"id":"891882","latitude":"39.64555560","longitude":"21.03027780","name":"Kr\u00e1psi"},{"id":"891913","latitude":"39.73833330","longitude":"20.56638890","name":"Kretso\u00fanista"},{"id":"891918","latitude":"39.72166670","longitude":"20.83916670","name":"Kr\u00eda"},{"id":"891937","latitude":"39.50527780","longitude":"20.91000000","name":"Krifov\u00f3n"},{"id":"891969","latitude":"39.88555560","longitude":"20.50111110","name":"Krion\u00e9ri"},{"id":"891978","latitude":"39.88555560","longitude":"20.50111110","name":"Krion\u00e9rion"},{"id":"892004","latitude":"39.70027780","longitude":"20.94777780","name":"Kri\u00f3vrisi"},{"id":"892069","latitude":"39.72166670","longitude":"20.83916670","name":"Kr\u00fda"},{"id":"892074","latitude":"39.50527780","longitude":"20.91000000","name":"Kryfov\u00f3"},{"id":"892075","latitude":"39.50527780","longitude":"20.91000000","name":"Kryfov\u00f3n"},{"id":"892077","latitude":"39.88555560","longitude":"20.50111110","name":"Kryon\u00e9ri"},{"id":"892082","latitude":"39.88555560","longitude":"20.50111110","name":"Kryon\u00e9rion"},{"id":"892089","latitude":"39.70027780","longitude":"20.94777780","name":"Kry\u00f3vrysi"},{"id":"892100","latitude":"39.89888890","longitude":"20.39833330","name":"Kt\u00edsmata"},{"id":"892136","latitude":"40.05611110","longitude":"20.70500000","name":"Kuts\u00fafliani"},{"id":"892156","latitude":"39.57694440","longitude":"20.93277780","name":"Kypar\u00edssia"},{"id":"892202","latitude":"39.46583330","longitude":"20.89194440","name":"Lag\u00e1tora"},{"id":"892205","latitude":"40.21055560","longitude":"20.86027780","name":"Lagk\u00e1da"},{"id":"892217","latitude":"39.46416670","longitude":"20.85166670","name":"Lagki\u00f3tissa"},{"id":"892230","latitude":"39.72388890","longitude":"21.03055560","name":"Lago\u00fa"},{"id":"892243","latitude":"39.97333330","longitude":"20.95277780","name":"Laista"},{"id":"892244","latitude":"39.97333330","longitude":"20.95277780","name":"Laitsa"},{"id":"892255","latitude":"39.98611110","longitude":"20.55250000","name":"Lakhan\u00f3kastron"},{"id":"892351","latitude":"40.21055560","longitude":"20.86027780","name":"Lang\u00e1dha"},{"id":"892376","latitude":"39.46416670","longitude":"20.85166670","name":"Langi\u00f3tissa"},{"id":"892394","latitude":"39.75361110","longitude":"20.74944440","name":"Laps\u00edsta"},{"id":"892449","latitude":"39.81166670","longitude":"20.51583330","name":"L\u00e1vdani"},{"id":"892452","latitude":"39.81166670","longitude":"20.51583330","name":"L\u00e1vdhani"},{"id":"892469","latitude":"39.51888890","longitude":"20.95333330","name":"L\u00e1zaina"},{"id":"892470","latitude":"39.51888890","longitude":"20.95333330","name":"Lazan\u00e1"},{"id":"892497","latitude":"39.68916670","longitude":"20.65972220","name":"Lefkoth\u00e9a"},{"id":"892555","latitude":"39.43444440","longitude":"20.78305560","name":"Lep\u00e1dhion"},{"id":"892556","latitude":"39.43444440","longitude":"20.78305560","name":"Lep\u00e1di"},{"id":"892557","latitude":"39.43444440","longitude":"20.78305560","name":"Lep\u00e1dion"},{"id":"892566","latitude":"39.43444440","longitude":"20.78305560","name":"Lep\u00eddhi"},{"id":"892577","latitude":"39.82527780","longitude":"20.91555560","name":"Leptokari\u00e1"},{"id":"892585","latitude":"39.82527780","longitude":"20.91555560","name":"Leptokary\u00e1"},{"id":"892596","latitude":"39.66750000","longitude":"21.04000000","name":"Lero\u00fasika"},{"id":"892597","latitude":"39.66750000","longitude":"21.04000000","name":"Lero\u00fasko"},{"id":"892600","latitude":"39.99916670","longitude":"20.88472220","name":"Lesin\u00edtsa"},{"id":"892601","latitude":"40.25750000","longitude":"20.75388890","name":"Lesk\u00e1tsi"},{"id":"892713","latitude":"39.76638890","longitude":"21.00888890","name":"Li\u00e1pi"},{"id":"892720","latitude":"39.77888890","longitude":"21.09833330","name":"Li\u00e1tena"},{"id":"892721","latitude":"40.02277780","longitude":"20.66916670","name":"Liatovo\u00fani"},{"id":"892742","latitude":"39.69361110","longitude":"20.88944440","name":"Ligki\u00e1des"},{"id":"892743","latitude":"39.80638890","longitude":"20.66361110","name":"Ligops\u00e1"},{"id":"892779","latitude":"40.26444440","longitude":"20.89861110","name":"Lik\u00f3rrakhi"},{"id":"892784","latitude":"39.63083330","longitude":"20.69611110","name":"Likost\u00e1ni"},{"id":"892791","latitude":"39.72944440","longitude":"20.81750000","name":"Likotr\u00edkhi"},{"id":"892792","latitude":"39.72944440","longitude":"20.81750000","name":"Likotr\u00edkhion"},{"id":"892855","latitude":"39.91416670","longitude":"20.53916670","name":"L\u00edmni"},{"id":"892856","latitude":"39.75583330","longitude":"21.04333330","name":"(( L\u00edmni ))"},{"id":"892875","latitude":"39.86222220","longitude":"20.55638890","name":"Limpo\u00fasda"},{"id":"892886","latitude":"39.69361110","longitude":"20.88944440","name":"Lingi\u00e1dhes"},{"id":"892887","latitude":"39.60972220","longitude":"20.73638890","name":"L\u00edngos"},{"id":"892895","latitude":"39.62888890","longitude":"20.77638890","name":"Li\u00f3kon"},{"id":"892906","latitude":"39.47111110","longitude":"20.74666670","name":"L\u00edpa"},{"id":"892913","latitude":"39.47111110","longitude":"20.74666670","name":"L\u00edppa"},{"id":"892935","latitude":"39.97250000","longitude":"20.67861110","name":"Listoniav\u00edsta"},{"id":"892951","latitude":"39.76583330","longitude":"20.60694440","name":"L\u00edthino"},{"id":"892952","latitude":"39.76583330","longitude":"20.60694440","name":"L\u00edthinon"},{"id":"892970","latitude":"39.97250000","longitude":"20.67861110","name":"Litoniav\u00edsta"},{"id":"893036","latitude":"39.41416670","longitude":"20.76222220","name":"Liv\u00e1di"},{"id":"893040","latitude":"39.41416670","longitude":"20.76222220","name":"Liv\u00e1dion"},{"id":"893062","latitude":"39.47083330","longitude":"20.70861110","name":"Livi\u00e1chovon"},{"id":"893063","latitude":"39.47083330","longitude":"20.70861110","name":"Livi\u00e1khovon"},{"id":"893064","latitude":"39.45777780","longitude":"20.67666670","name":"Liv\u00edkista"},{"id":"893078","latitude":"39.66000000","longitude":"20.71888890","name":"Lof\u00edskos"},{"id":"893104","latitude":"39.66027780","longitude":"20.93972220","name":"Long\u00e1des"},{"id":"893105","latitude":"39.66027780","longitude":"20.93972220","name":"Long\u00e1dhes"},{"id":"893176","latitude":"40.26444440","longitude":"20.89861110","name":"Loups\u00edkon"},{"id":"893271","latitude":"39.54722220","longitude":"20.58805560","name":"Lozan\u00e1"},{"id":"893274","latitude":"39.54916670","longitude":"20.95416670","name":"Loz\u00e9tsi"},{"id":"893285","latitude":"39.69361110","longitude":"20.88944440","name":"Lygkades"},{"id":"893288","latitude":"40.26444440","longitude":"20.89861110","name":"Lyk\u00f3rrachi"},{"id":"893289","latitude":"39.63083330","longitude":"20.69611110","name":"Lykost\u00e1ni"},{"id":"893290","latitude":"39.72944440","longitude":"20.81750000","name":"Lykotr\u00edchi"},{"id":"893291","latitude":"39.72944440","longitude":"20.81750000","name":"Lykotr\u00edchion"},{"id":"893293","latitude":"39.60972220","longitude":"20.73638890","name":"L\u00fdngos"},{"id":"893294","latitude":"39.69361110","longitude":"20.88944440","name":"Lynkades"},{"id":"893405","latitude":"39.86805560","longitude":"20.96694440","name":"Makr\u00edno"},{"id":"893406","latitude":"39.86805560","longitude":"20.96694440","name":"Makr\u00ednon"},{"id":"893506","latitude":"39.75944440","longitude":"21.02694440","name":"Malts\u00e1"},{"id":"893522","latitude":"39.79194440","longitude":"20.82222220","name":"Manas\u00ed"},{"id":"893524","latitude":"39.79194440","longitude":"20.82222220","name":"Manass\u00ed"},{"id":"893525","latitude":"39.79194440","longitude":"20.82222220","name":"Manass\u00eds"},{"id":"893562","latitude":"39.53777780","longitude":"20.77861110","name":"Mand\u00edon"},{"id":"893597","latitude":"39.52722220","longitude":"20.72388890","name":"Mandso\u00faka"},{"id":"893649","latitude":"39.52361110","longitude":"20.82222220","name":"Manoli\u00e1sa"},{"id":"893654","latitude":"39.53777780","longitude":"20.77861110","name":"Mante\u00edo"},{"id":"893655","latitude":"39.53777780","longitude":"20.77861110","name":"Mante\u00edon"},{"id":"893669","latitude":"39.52722220","longitude":"20.72388890","name":"Mantzo\u00fakas"},{"id":"893788","latitude":"39.65555560","longitude":"20.79694440","name":"M\u00e1rmara"},{"id":"893892","latitude":"39.75944440","longitude":"21.02694440","name":"M\u00e1tsa"},{"id":"893895","latitude":"39.56750000","longitude":"21.16250000","name":"Matso\u00faki"},{"id":"893896","latitude":"39.56750000","longitude":"21.16250000","name":"Matso\u00fakion"},{"id":"893978","latitude":"39.85361110","longitude":"20.53472220","name":"Mavron\u00f3ros"},{"id":"893984","latitude":"39.92222220","longitude":"20.38194440","name":"Mavr\u00f3poulo"},{"id":"893985","latitude":"39.92222220","longitude":"20.38194440","name":"Mavr\u00f3poulon"},{"id":"894002","latitude":"39.95000000","longitude":"20.61638890","name":"Mavrovo\u00fani"},{"id":"894005","latitude":"39.95000000","longitude":"20.61638890","name":"Mavrovo\u00fanion"},{"id":"894027","latitude":"39.80555560","longitude":"20.60833330","name":"Mazar\u00e1ki"},{"id":"894031","latitude":"39.80555560","longitude":"20.60833330","name":"Mazar\u00e1kion"},{"id":"894038","latitude":"39.63666670","longitude":"20.56611110","name":"M\u00e1zia"},{"id":"894039","latitude":"40.03861110","longitude":"20.66750000","name":"M\u00e1zi"},{"id":"894047","latitude":"40.03861110","longitude":"20.66750000","name":"M\u00e1zion"},{"id":"894054","latitude":"39.70638890","longitude":"20.79250000","name":"Mega Bisdho\u00fani"},{"id":"894055","latitude":"39.70638890","longitude":"20.79250000","name":"M\u00e9ga Bisdho\u00fanion"},{"id":"894056","latitude":"39.70638890","longitude":"20.79250000","name":"M\u00e9ga Bisdo\u00fani"},{"id":"894071","latitude":"39.71611110","longitude":"20.75527780","name":"M\u00e9ga Gardh\u00edkion"},{"id":"894072","latitude":"39.71611110","longitude":"20.75527780","name":"M\u00e9ga Gard\u00edkion"},{"id":"894099","latitude":"39.68444440","longitude":"21.04250000","name":"Meg\u00e1li G\u00f3tista"},{"id":"894114","latitude":"39.49583330","longitude":"21.04222220","name":"Meg\u00e1li R\u00e1chi"},{"id":"894115","latitude":"39.49583330","longitude":"21.04222220","name":"Meg\u00e1li R\u00e1khi"},{"id":"894136","latitude":"39.71611110","longitude":"20.75527780","name":"Meg\u00e1lo Gardh\u00edki"},{"id":"894137","latitude":"39.71611110","longitude":"20.75527780","name":"Meg\u00e1lo Gard\u00edki"},{"id":"894162","latitude":"39.72333330","longitude":"21.06194440","name":"Meg\u00e1lo Perist\u00e9ri"},{"id":"894179","latitude":"39.72333330","longitude":"21.06194440","name":"M\u00e9ga Perist\u00e9ri"},{"id":"894180","latitude":"39.72333330","longitude":"21.06194440","name":"M\u00e9ga Perist\u00e9rion"},{"id":"894237","latitude":"39.45222220","longitude":"20.84416670","name":"Meli\u00e1"},{"id":"894260","latitude":"39.52083330","longitude":"20.80166670","name":"Melingo\u00ed"},{"id":"894262","latitude":"39.52083330","longitude":"20.80166670","name":"Melingo\u00fas"},{"id":"894302","latitude":"40.06527780","longitude":"20.61527780","name":"Meliss\u00f3petra"},{"id":"894376","latitude":"40.03027780","longitude":"20.48000000","name":"Mer\u00f3pi"},{"id":"894558","latitude":"39.93861110","longitude":"20.64222220","name":"Mesovo\u00fani"},{"id":"894561","latitude":"39.93861110","longitude":"20.64222220","name":"Mesovo\u00fanion"},{"id":"894708","latitude":"39.76944440","longitude":"21.18222220","name":"M\u00e9tsovo"},{"id":"894709","latitude":"39.76944440","longitude":"21.18222220","name":"M\u00e9tsovon"},{"id":"894710","latitude":"40.01444440","longitude":"20.56250000","name":"Metziti\u00e9"},{"id":"894711","latitude":"40.02777780","longitude":"20.48666670","name":"Mevd\u00e9za"},{"id":"894727","latitude":"39.55666670","longitude":"21.05361110","name":"Michal\u00edtsi"},{"id":"894730","latitude":"39.55666670","longitude":"21.05361110","name":"Michal\u00edtsion"},{"id":"894745","latitude":"39.55666670","longitude":"21.05361110","name":"Mikhal\u00edtsion"},{"id":"894759","latitude":"39.69138890","longitude":"21.03833330","name":"Mikr\u00e1 G\u00f3tista"},{"id":"894777","latitude":"39.69138890","longitude":"21.03833330","name":"Mikr\u00ed G\u00f3tista"},{"id":"894788","latitude":"39.70138890","longitude":"20.80722220","name":"Mikr\u00f3 Bisdho\u00fani"},{"id":"894789","latitude":"39.57611110","longitude":"20.61527780","name":"Mikroch\u00f3ri"},{"id":"894790","latitude":"39.57611110","longitude":"20.61527780","name":"Mikroch\u00f3rion"},{"id":"894810","latitude":"39.57611110","longitude":"20.61527780","name":"Mikrokh\u00f3rion"},{"id":"894830","latitude":"39.70138890","longitude":"20.80722220","name":"Mikr\u00f3n Bisdho\u00fanion"},{"id":"894842","latitude":"39.70916670","longitude":"20.77722220","name":"Mikr\u00f3n Gard\u00edkion"},{"id":"894854","latitude":"39.73916670","longitude":"21.08944440","name":"Mikr\u00f3n Perist\u00e9rion"},{"id":"894862","latitude":"39.71777780","longitude":"20.59833330","name":"Mikr\u00f3n Soul\u00f3poulon"},{"id":"894867","latitude":"39.73916670","longitude":"21.08944440","name":"Mikr\u00f3 Perist\u00e9ri"},{"id":"894870","latitude":"39.73916670","longitude":"21.08944440","name":"Mikr\u00f3 Prosg\u00f3li"},{"id":"894872","latitude":"39.71777780","longitude":"20.59833330","name":"Mikr\u00f3 Souli\u00f3poulon"},{"id":"894893","latitude":"39.73000000","longitude":"21.06777780","name":"Mil\u00e9ai"},{"id":"894903","latitude":"39.85333330","longitude":"21.23027780","name":"Mil\u00e9a"},{"id":"894924","latitude":"39.85333330","longitude":"21.23027780","name":"Mili\u00e1"},{"id":"894940","latitude":"39.73000000","longitude":"21.06777780","name":"Mili\u00e9s"},{"id":"894978","latitude":"39.50583330","longitude":"21.04805560","name":"Milokopi\u00f3n"},{"id":"895026","latitude":"39.46583330","longitude":"20.89194440","name":"Mirodh\u00e1fni"},{"id":"895150","latitude":"40.12333330","longitude":"20.81722220","name":"M\u00f3lista"},{"id":"895151","latitude":"40.06222220","longitude":"20.57361110","name":"Molivdhosk\u00e9pastos"},{"id":"895160","latitude":"40.06222220","longitude":"20.57361110","name":"Molyvdosk\u00e9pastos"},{"id":"895193","latitude":"40.11833330","longitude":"20.80638890","name":"Monast\u00edri"},{"id":"895195","latitude":"40.11833330","longitude":"20.80638890","name":"Monast\u00edrion"},{"id":"895208","latitude":"39.88166670","longitude":"20.74833330","name":"Monod\u00e9ndri"},{"id":"895209","latitude":"39.88166670","longitude":"20.74833330","name":"Monod\u00e9ndrion"},{"id":"895210","latitude":"39.42361110","longitude":"20.72138890","name":"Mon\u00f3dendro"},{"id":"895211","latitude":"39.42361110","longitude":"20.72138890","name":"Mon\u00f3dendron"},{"id":"895213","latitude":"39.88166670","longitude":"20.74833330","name":"Monodh\u00e9ndhrion"},{"id":"895215","latitude":"39.88166670","longitude":"20.74833330","name":"Monodh\u00e9ndrion"},{"id":"895225","latitude":"39.44500000","longitude":"21.02083330","name":"Monol\u00edthi"},{"id":"895227","latitude":"39.44500000","longitude":"21.02083330","name":"Monol\u00edthion"},{"id":"895285","latitude":"39.60972220","longitude":"20.73638890","name":"Mosp\u00edna"},{"id":"895286","latitude":"39.86916670","longitude":"20.52527780","name":"M\u00f3ssiori"},{"id":"895299","latitude":"39.44583330","longitude":"20.70722220","name":"Moukov\u00edna"},{"id":"895302","latitude":"39.47638890","longitude":"20.88416670","name":"Mo\u00falai"},{"id":"895305","latitude":"39.47638890","longitude":"20.88416670","name":"Mo\u00fales"},{"id":"895373","latitude":"39.60972220","longitude":"20.73638890","name":"Mousp\u00edna"},{"id":"895389","latitude":"39.57500000","longitude":"20.95111110","name":"Mouzaka\u00edoi"},{"id":"895435","latitude":"39.77888890","longitude":"21.09833330","name":"M\u00fdloi"},{"id":"895439","latitude":"39.50583330","longitude":"21.04805560","name":"Mylokopei\u00f3"},{"id":"895440","latitude":"39.50583330","longitude":"21.04805560","name":"Mylokopei\u00f3n"},{"id":"895449","latitude":"39.46583330","longitude":"20.89194440","name":"Myrod\u00e1fni"},{"id":"895458","latitude":"39.56500000","longitude":"21.11194440","name":"Mystr\u00e1s"},{"id":"895540","latitude":"40.24083330","longitude":"20.88500000","name":"N\u00e9ai Lyk\u00f3rrachi"},{"id":"895557","latitude":"39.90000000","longitude":"20.37916670","name":"N\u00e9a Kato\u00fana"},{"id":"895611","latitude":"39.41444440","longitude":"20.83888890","name":"N\u00e9a Mousiot\u00edtsa"},{"id":"895694","latitude":"39.86416670","longitude":"20.84805560","name":"Neg\u00e1des"},{"id":"895695","latitude":"39.86416670","longitude":"20.84805560","name":"Neg\u00e1dhes"},{"id":"895698","latitude":"39.85000000","longitude":"20.66083330","name":"Negr\u00e1des"},{"id":"895699","latitude":"39.85000000","longitude":"20.66083330","name":"Negr\u00e1dhes"},{"id":"895713","latitude":"39.56916670","longitude":"20.87222220","name":"N\u00e9o Biz\u00e1ni"},{"id":"895721","latitude":"39.74777780","longitude":"20.71277780","name":"Neoch\u00f3ri"},{"id":"895731","latitude":"39.74777780","longitude":"20.71277780","name":"Neoch\u00f3rion"},{"id":"895743","latitude":"39.62861110","longitude":"20.83416670","name":"Neochor\u00f3poulo"},{"id":"895745","latitude":"39.62861110","longitude":"20.83416670","name":"Neochor\u00f3poulon"},{"id":"895754","latitude":"39.58666670","longitude":"20.87777780","name":"Neokais\u00e1reia"},{"id":"895756","latitude":"39.58666670","longitude":"20.87777780","name":"Neokais\u00e1ria"},{"id":"895779","latitude":"39.62861110","longitude":"20.83416670","name":"Neokh\u00f3ri"},{"id":"895807","latitude":"39.74777780","longitude":"20.71277780","name":"Neokh\u00f3rion"},{"id":"895836","latitude":"39.62861110","longitude":"20.83416670","name":"Neokhor\u00f3poulon"},{"id":"895841","latitude":"39.82305560","longitude":"20.95416670","name":"N\u00e9o Maro\u00fasi"},{"id":"895846","latitude":"39.82305560","longitude":"20.95416670","name":"N\u00e9on Amaro\u00fasion"},{"id":"895850","latitude":"39.56916670","longitude":"20.87222220","name":"N\u00e9on Biz\u00e1nion"},{"id":"896033","latitude":"40.08888890","longitude":"20.78111110","name":"Nik\u00e1nor"},{"id":"896035","latitude":"39.78361110","longitude":"21.09166670","name":"N\u00edkaros"},{"id":"896108","latitude":"39.67888890","longitude":"20.87500000","name":"Nis\u00ed"},{"id":"896121","latitude":"39.67888890","longitude":"20.87500000","name":"N\u00edsos Ioann\u00ednon"},{"id":"896125","latitude":"39.50666670","longitude":"20.96750000","name":"N\u00edstora"},{"id":"896275","latitude":"39.98611110","longitude":"20.55250000","name":"Orai\u00f3kastron"},{"id":"896277","latitude":"39.98611110","longitude":"20.55250000","name":"Orai\u00f3kastro"},{"id":"896281","latitude":"39.96888890","longitude":"20.34222220","name":"Orein\u00f3n"},{"id":"896282","latitude":"39.96888890","longitude":"20.34222220","name":"Orein\u00f3"},{"id":"896307","latitude":"39.96888890","longitude":"20.34222220","name":"Orin\u00f3n"},{"id":"896391","latitude":"40.24250000","longitude":"20.81888890","name":"Oxi\u00e1"},{"id":"896400","latitude":"40.24250000","longitude":"20.81888890","name":"Oxy\u00e1"},{"id":"896408","latitude":"40.04055560","longitude":"20.90916670","name":"P\u00e1des"},{"id":"896410","latitude":"40.04055560","longitude":"20.90916670","name":"P\u00e1dhes"},{"id":"896432","latitude":"39.82666670","longitude":"20.54777780","name":"Paidoni\u00e1"},{"id":"896434","latitude":"39.82666670","longitude":"20.54777780","name":"Paitouni\u00e1"},{"id":"896449","latitude":"39.66750000","longitude":"20.74222220","name":"Palai\u00e1 Al\u00f3nia"},{"id":"896503","latitude":"39.34638890","longitude":"20.71222220","name":"Palaioch\u00f3rion"},{"id":"896511","latitude":"39.59361110","longitude":"21.05222220","name":"Palaioch\u00f3rion Sir\u00e1kou"},{"id":"896513","latitude":"39.34638890","longitude":"20.71222220","name":"Palaioch\u00f3ri"},{"id":"896562","latitude":"39.34638890","longitude":"20.71222220","name":"Palaiokh\u00f3ri B\u00f3tsari"},{"id":"896563","latitude":"39.34638890","longitude":"20.71222220","name":"Palaiokh\u00f3rion-B\u00f3tsari"},{"id":"896570","latitude":"39.34638890","longitude":"20.71222220","name":"Palaiokh\u00f3rion"},{"id":"896586","latitude":"39.59361110","longitude":"21.05222220","name":"Palaiokh\u00f3rion Sir\u00e1kou"},{"id":"896587","latitude":"39.59361110","longitude":"21.05222220","name":"Palaiokh\u00f3rion Sirrakou"},{"id":"896590","latitude":"39.34638890","longitude":"20.71222220","name":"Palaiokh\u00f3ri"},{"id":"896617","latitude":"39.47555560","longitude":"21.03638890","name":"Palaiomocho\u00fastion"},{"id":"896618","latitude":"39.47555560","longitude":"21.03638890","name":"Palaiomocho\u00fasti"},{"id":"896621","latitude":"39.47555560","longitude":"21.03638890","name":"Palaiomokho\u00fastion"},{"id":"896669","latitude":"40.02777780","longitude":"20.48666670","name":"Palai\u00f3pirgos"},{"id":"896678","latitude":"40.02777780","longitude":"20.48666670","name":"Palai\u00f3pyrgos"},{"id":"896684","latitude":"40.04138890","longitude":"20.88694440","name":"Palaios\u00e9lion"},{"id":"896685","latitude":"40.04138890","longitude":"20.88694440","name":"Palaios\u00e9llion"},{"id":"896686","latitude":"40.04138890","longitude":"20.88694440","name":"Palaios\u00e9lli"},{"id":"896747","latitude":"39.72444440","longitude":"21.08611110","name":"Palioch\u00f3rion"},{"id":"896777","latitude":"39.72444440","longitude":"21.08611110","name":"Paliokh\u00f3ri"},{"id":"896851","latitude":"39.69694440","longitude":"20.63500000","name":"Paliour\u00ed"},{"id":"896863","latitude":"39.48972220","longitude":"21.03388890","name":"Pallik\u00e1rion"},{"id":"896864","latitude":"39.48972220","longitude":"21.03388890","name":"Pallik\u00e1ri"},{"id":"896887","latitude":"39.77694440","longitude":"20.52527780","name":"Panag\u00eda"},{"id":"896919","latitude":"39.77694440","longitude":"20.52527780","name":"Panay\u00eda"},{"id":"897061","latitude":"39.96777780","longitude":"20.72750000","name":"P\u00e1pigkon"},{"id":"897062","latitude":"39.96777780","longitude":"20.72750000","name":"P\u00e1pingon"},{"id":"897110","latitude":"39.86027780","longitude":"20.56944440","name":"Parak\u00e1lamon"},{"id":"897111","latitude":"39.86027780","longitude":"20.56944440","name":"Parak\u00e1lamos"},{"id":"897178","latitude":"39.49611110","longitude":"20.64472220","name":"Pardal\u00edtsa"},{"id":"897179","latitude":"39.49611110","longitude":"20.64472220","name":"P\u00e1rdhala"},{"id":"897182","latitude":"39.49611110","longitude":"20.64472220","name":"Pardhal\u00edtsa"},{"id":"897244","latitude":"39.50000000","longitude":"21.00000000","name":"P\u00e1teron"},{"id":"897307","latitude":"39.59972220","longitude":"20.84333330","name":"Pedhin\u00ed"},{"id":"897313","latitude":"39.59972220","longitude":"20.84333330","name":"Pedin\u00ed"},{"id":"897338","latitude":"40.06805560","longitude":"20.78361110","name":"Pekl\u00e1rion"},{"id":"897339","latitude":"40.06805560","longitude":"20.78361110","name":"Pekl\u00e1ri"},{"id":"897392","latitude":"39.44111110","longitude":"20.81694440","name":"Pend\u00f3lakkos"},{"id":"897408","latitude":"39.44111110","longitude":"20.81694440","name":"Pent\u00f3lakkos"},{"id":"897435","latitude":"39.69527780","longitude":"20.84861110","name":"P\u00e9rama"},{"id":"897453","latitude":"39.64583330","longitude":"20.72694440","name":"Per\u00e1ti"},{"id":"897454","latitude":"39.64583330","longitude":"20.72694440","name":"Per\u00e1tis"},{"id":"897461","latitude":"39.47638890","longitude":"20.88416670","name":"P\u00e9rdhika"},{"id":"897480","latitude":"39.47638890","longitude":"20.88416670","name":"P\u00e9rdika"},{"id":"897512","latitude":"39.87416670","longitude":"20.46222220","name":"Perist\u00e9rion"},{"id":"897519","latitude":"39.87416670","longitude":"20.46222220","name":"Perist\u00e9ri"},{"id":"897537","latitude":"39.76444440","longitude":"20.77916670","name":"Per\u00edvleptos"},{"id":"897604","latitude":"39.46138890","longitude":"20.91833330","name":"Pest\u00e1"},{"id":"897628","latitude":"39.82666670","longitude":"20.54777780","name":"Petouni\u00e1"},{"id":"897641","latitude":"39.66750000","longitude":"20.74222220","name":"Petr\u00e1lona"},{"id":"897649","latitude":"39.77194440","longitude":"21.02638890","name":"P\u00e9tra"},{"id":"897731","latitude":"39.57388890","longitude":"21.00638890","name":"Petrovo\u00fanion"},{"id":"897735","latitude":"39.57388890","longitude":"21.00638890","name":"Petrovo\u00fani"},{"id":"897743","latitude":"39.78638890","longitude":"20.71833330","name":"Pets\u00e1lion"},{"id":"897744","latitude":"39.78638890","longitude":"20.71833330","name":"Pets\u00e1li"},{"id":"897804","latitude":"39.46166670","longitude":"20.96750000","name":"Pig\u00e1dhia"},{"id":"897820","latitude":"39.46166670","longitude":"20.96750000","name":"Pig\u00e1dia"},{"id":"897830","latitude":"40.06805560","longitude":"20.78361110","name":"Pig\u00ed"},{"id":"897878","latitude":"39.49611110","longitude":"20.64472220","name":"Pil\u00f3s"},{"id":"897887","latitude":"39.45388890","longitude":"21.00388890","name":"Pinako\u00falia"},{"id":"897924","latitude":"40.15888890","longitude":"20.78472220","name":"P\u00edrgos"},{"id":"897955","latitude":"40.07861110","longitude":"20.61861110","name":"Pirov\u00edtsika"},{"id":"897960","latitude":"40.21166670","longitude":"20.80944440","name":"Pirs\u00f3yianni"},{"id":"898042","latitude":"40.12083330","longitude":"20.70972220","name":"Pixari\u00e1"},{"id":"898052","latitude":"40.06805560","longitude":"20.78361110","name":"Piy\u00ed"},{"id":"898062","latitude":"40.23388890","longitude":"20.93222220","name":"Plagi\u00e1"},{"id":"898073","latitude":"39.49138890","longitude":"20.97111110","name":"Pla\u00edsia"},{"id":"898082","latitude":"39.46194440","longitude":"21.03111110","name":"Pl\u00e1ka"},{"id":"898141","latitude":"39.49500000","longitude":"20.74416670","name":"Platani\u00e1"},{"id":"898204","latitude":"39.41750000","longitude":"21.01055560","name":"Platano\u00fasa"},{"id":"898205","latitude":"39.41750000","longitude":"21.01055560","name":"Platano\u00fassa"},{"id":"898244","latitude":"40.14972220","longitude":"20.73444440","name":"Pl\u00e1vali"},{"id":"898247","latitude":"40.23388890","longitude":"20.93222220","name":"Playi\u00e1"},{"id":"898268","latitude":"39.56305560","longitude":"20.73833330","name":"Pl\u00e9ssa"},{"id":"898273","latitude":"39.49138890","longitude":"20.97111110","name":"Pli\u00e1"},{"id":"898276","latitude":"40.29416670","longitude":"20.77027780","name":"Plik\u00e1tion"},{"id":"898277","latitude":"40.29416670","longitude":"20.77027780","name":"Plik\u00e1ti"},{"id":"898313","latitude":"39.63083330","longitude":"20.69611110","name":"Pogdh\u00f3ra"},{"id":"898314","latitude":"40.00277780","longitude":"20.42444440","name":"Pogonian\u00ed"},{"id":"898316","latitude":"39.93250000","longitude":"20.46611110","name":"Pog\u00f3nion"},{"id":"898317","latitude":"40.05555560","longitude":"20.54666670","name":"Pogon\u00edsko"},{"id":"898318","latitude":"40.05555560","longitude":"20.54666670","name":"Pogon\u00edskos"},{"id":"898358","latitude":"39.63666670","longitude":"20.56611110","name":"Pol\u00eddhoron"},{"id":"898379","latitude":"39.63361110","longitude":"20.71361110","name":"Pol\u00edlofon"},{"id":"898428","latitude":"39.57638890","longitude":"20.66888890","name":"Pol\u00edyiros"},{"id":"898436","latitude":"39.63666670","longitude":"20.56611110","name":"Pol\u00fddoron"},{"id":"898437","latitude":"39.63666670","longitude":"20.56611110","name":"Pol\u00fddoro"},{"id":"898447","latitude":"39.57638890","longitude":"20.66888890","name":"Pol\u00fdgyros"},{"id":"898454","latitude":"39.63361110","longitude":"20.71361110","name":"Pol\u00fdlofon"},{"id":"898455","latitude":"39.63361110","longitude":"20.71361110","name":"Pol\u00fdlofo"},{"id":"898474","latitude":"39.96777780","longitude":"20.38416670","name":"Pondik\u00e1tai"},{"id":"898475","latitude":"39.96777780","longitude":"20.38416670","name":"Pondik\u00e1tes"},{"id":"898490","latitude":"39.96777780","longitude":"20.38416670","name":"Pontik\u00e1tai"},{"id":"898491","latitude":"39.96777780","longitude":"20.38416670","name":"Pontik\u00e1tes"},{"id":"898562","latitude":"39.72138890","longitude":"20.97000000","name":"Potami\u00e1"},{"id":"898597","latitude":"39.58472220","longitude":"21.02944440","name":"Potistik\u00e1"},{"id":"898616","latitude":"39.51388890","longitude":"21.01055560","name":"Poul\u00edtsa"},{"id":"898640","latitude":"40.12250000","longitude":"20.84611110","name":"Pourni\u00e1"},{"id":"898654","latitude":"39.52305560","longitude":"21.10138890","name":"Pr\u00e1manda"},{"id":"898655","latitude":"39.52305560","longitude":"21.10138890","name":"Pr\u00e1manta"},{"id":"898695","latitude":"39.49444440","longitude":"21.03861110","name":"Pr\u00e9veza"},{"id":"898722","latitude":"39.83333330","longitude":"20.55000000","name":"(( Prits\u00edkovo ))"},{"id":"898759","latitude":"39.43527780","longitude":"20.94222220","name":"Prof\u00edtis Il\u00edas"},{"id":"898787","latitude":"39.72333330","longitude":"21.06194440","name":"Prosg\u00f3li"},{"id":"898788","latitude":"39.74194440","longitude":"21.07944440","name":"Pros\u00edlia"},{"id":"898795","latitude":"39.52277780","longitude":"21.07666670","name":"Pros\u00edlion"},{"id":"898796","latitude":"40.13333330","longitude":"20.68333330","name":"(( Pros\u00edlion ))"},{"id":"898803","latitude":"39.52277780","longitude":"21.07666670","name":"Pros\u00edlio"},{"id":"898826","latitude":"39.77972220","longitude":"20.68750000","name":"Prot\u00f3papa"},{"id":"898827","latitude":"39.77972220","longitude":"20.68750000","name":"Prot\u00f3pappa"},{"id":"898828","latitude":"39.77972220","longitude":"20.68750000","name":"Prot\u00f3pappas"},{"id":"898829","latitude":"39.77972220","longitude":"20.68750000","name":"Prot\u00f3ppapa"},{"id":"898901","latitude":"39.84083330","longitude":"20.49138890","name":"Psil\u00f3kastron"},{"id":"898902","latitude":"39.84083330","longitude":"20.49138890","name":"Psil\u00f3kastro"},{"id":"898909","latitude":"39.58250000","longitude":"20.69750000","name":"Ps\u00edna"},{"id":"898943","latitude":"39.58611110","longitude":"20.54777780","name":"Pt\u00e9ri"},{"id":"898970","latitude":"40.15888890","longitude":"20.78472220","name":"P\u00fdrgos"},{"id":"898980","latitude":"40.21166670","longitude":"20.80944440","name":"Pyrs\u00f3gianni"},{"id":"898986","latitude":"40.12083330","longitude":"20.70972220","name":"Pyxari\u00e1"},{"id":"898990","latitude":"39.42416670","longitude":"20.92416670","name":"R\u00e1chi"},{"id":"898993","latitude":"39.73750000","longitude":"21.09444440","name":"Racho\u00fala"},{"id":"899005","latitude":"39.59305560","longitude":"20.57888890","name":"Radhov\u00edzion"},{"id":"899006","latitude":"39.59305560","longitude":"20.57888890","name":"Radhov\u00edzi"},{"id":"899007","latitude":"39.59305560","longitude":"20.57888890","name":"Radhov\u00edz"},{"id":"899013","latitude":"39.59305560","longitude":"20.57888890","name":"Radov\u00edzion"},{"id":"899014","latitude":"39.59305560","longitude":"20.57888890","name":"Radov\u00edzi"},{"id":"899021","latitude":"39.50750000","longitude":"21.03472220","name":"Raftana\u00edoi"},{"id":"899034","latitude":"39.73388890","longitude":"20.61777780","name":"R\u00e1\u00efkon"},{"id":"899035","latitude":"39.73388890","longitude":"20.61777780","name":"R\u00e1iko"},{"id":"899056","latitude":"39.73750000","longitude":"21.09444440","name":"Rakho\u00fala"},{"id":"899088","latitude":"39.37916670","longitude":"20.89638890","name":"Rapsa\u00edoi"},{"id":"899090","latitude":"39.41750000","longitude":"21.01055560","name":"Raps\u00edsta"},{"id":"899110","latitude":"39.48888890","longitude":"20.91611110","name":"Rav\u00e9nia"},{"id":"899150","latitude":"39.84527780","longitude":"20.58055560","name":"Repet\u00edsta"},{"id":"899174","latitude":"39.48888890","longitude":"20.91611110","name":"Rev\u00e9nia"},{"id":"899186","latitude":"39.79777780","longitude":"20.59250000","name":"Ri\u00e1chovon"},{"id":"899187","latitude":"39.79777780","longitude":"20.59250000","name":"Ri\u00e1chovo"},{"id":"899188","latitude":"39.79777780","longitude":"20.59250000","name":"Ri\u00e1khovon"},{"id":"899242","latitude":"39.70416670","longitude":"21.03527780","name":"Riz\u00e1"},{"id":"899273","latitude":"39.70500000","longitude":"20.53194440","name":"Riz\u00f3n"},{"id":"899277","latitude":"39.70500000","longitude":"20.53194440","name":"Riz\u00f3"},{"id":"899332","latitude":"39.70833330","longitude":"20.72583330","name":"Rodhot\u00f3pion"},{"id":"899333","latitude":"39.70833330","longitude":"20.72583330","name":"Rodhot\u00f3pi"},{"id":"899334","latitude":"39.70833330","longitude":"20.72583330","name":"Rodhot\u00f3vi"},{"id":"899344","latitude":"39.70833330","longitude":"20.72583330","name":"Rodot\u00f3pion"},{"id":"899345","latitude":"39.70833330","longitude":"20.72583330","name":"Rodot\u00f3pi"},{"id":"899366","latitude":"39.38388890","longitude":"20.70083330","name":"Roman\u00f3n"},{"id":"899368","latitude":"39.38388890","longitude":"20.70083330","name":"Roman\u00f3s"},{"id":"899377","latitude":"40.03027780","longitude":"20.48000000","name":"Romb\u00e1tes"},{"id":"899389","latitude":"40.05000000","longitude":"20.68333330","name":"(( R\u00f3ngia ))"},{"id":"899436","latitude":"39.96888890","longitude":"20.58361110","name":"Roupsi\u00e1"},{"id":"899495","latitude":"39.65555560","longitude":"20.79694440","name":"Sadov\u00edtsa"},{"id":"899531","latitude":"39.75027780","longitude":"21.10000000","name":"(( Sala\u00f3ra ))"},{"id":"899598","latitude":"40.04583330","longitude":"20.64777780","name":"S\u00e1novon"},{"id":"899779","latitude":"39.66833330","longitude":"20.56666670","name":"S\u00e9ltsana"},{"id":"899780","latitude":"40.24250000","longitude":"20.81888890","name":"S\u00e9ltsa"},{"id":"899782","latitude":"39.66833330","longitude":"20.56666670","name":"S\u00e9ltsiana"},{"id":"899796","latitude":"39.56500000","longitude":"20.63277780","name":"Sen\u00edkon"},{"id":"899797","latitude":"39.56500000","longitude":"20.63277780","name":"Sen\u00edko"},{"id":"899807","latitude":"39.30333330","longitude":"20.68833330","name":"Serizian\u00e1"},{"id":"899821","latitude":"39.55916670","longitude":"20.90333330","name":"Servian\u00e1"},{"id":"899828","latitude":"39.30333330","longitude":"20.68833330","name":"Serzian\u00e1"},{"id":"899829","latitude":"39.86777780","longitude":"20.98638890","name":"S\u00e9sa"},{"id":"899830","latitude":"39.86777780","longitude":"20.98638890","name":"S\u00e9sio"},{"id":"899836","latitude":"39.86777780","longitude":"20.98638890","name":"S\u00e9ssa"},{"id":"899966","latitude":"39.91333330","longitude":"20.85055560","name":"Sikamini\u00e9s"},{"id":"900103","latitude":"39.42166670","longitude":"20.78444440","name":"Sinoikism\u00f3s B\u00e1la"},{"id":"900132","latitude":"39.63777780","longitude":"20.73666670","name":"Sinoikism\u00f3s K\u00f3ndsikas"},{"id":"900133","latitude":"39.63777780","longitude":"20.73666670","name":"Sinoikism\u00f3s K\u00f3nitskas"},{"id":"900156","latitude":"39.48972220","longitude":"21.03388890","name":"Sinoikism\u00f3s Palik\u00e1ri"},{"id":"900162","latitude":"40.06555560","longitude":"20.74361110","name":"Sinoikism\u00f3s Peklar\u00edou"},{"id":"900170","latitude":"39.46194440","longitude":"21.03111110","name":"Sinoikism\u00f3s Pl\u00e1kas"},{"id":"900173","latitude":"39.49444440","longitude":"21.03861110","name":"Sinoikism\u00f3s Pr\u00e9veza"},{"id":"900208","latitude":"39.47944440","longitude":"21.02555560","name":"Sinoikism\u00f3s V\u00edndria"},{"id":"900209","latitude":"39.47944440","longitude":"21.02555560","name":"Sinoikism\u00f3s Vin\u00f3ria"},{"id":"900219","latitude":"39.75305560","longitude":"21.07722220","name":"Siol\u00e1des"},{"id":"900221","latitude":"39.71722220","longitude":"21.04138890","name":"Sio\u00fatsos"},{"id":"900226","latitude":"39.59361110","longitude":"21.10638890","name":"Sir\u00e1kon"},{"id":"900227","latitude":"39.59361110","longitude":"21.10638890","name":"Sir\u00e1ko"},{"id":"900231","latitude":"39.55916670","longitude":"20.90333330","name":"Sirian\u00e1"},{"id":"900241","latitude":"39.59361110","longitude":"21.10638890","name":"Sirr\u00e1kon"},{"id":"900256","latitude":"39.77027780","longitude":"21.06777780","name":"Sist\u00edna"},{"id":"900257","latitude":"39.41111110","longitude":"20.69805560","name":"Sistro\u00fanion"},{"id":"900258","latitude":"39.41111110","longitude":"20.69805560","name":"Sistro\u00fani"},{"id":"900267","latitude":"39.86916670","longitude":"20.52527780","name":"Sitari\u00e1"},{"id":"900278","latitude":"39.76194440","longitude":"21.04472220","name":"S\u00edtsaina"},{"id":"900318","latitude":"39.50361110","longitude":"20.92250000","name":"Sk\u00e1la Krif\u00f3vou"},{"id":"900319","latitude":"39.50361110","longitude":"20.92250000","name":"Sk\u00e1la Kryf\u00f3vou"},{"id":"900387","latitude":"39.91333330","longitude":"20.85055560","name":"Skamn\u00e9li"},{"id":"900388","latitude":"39.91333330","longitude":"20.85055560","name":"Skamn\u00e9llion"},{"id":"900389","latitude":"39.91333330","longitude":"20.85055560","name":"Skamn\u00e9lli"},{"id":"900392","latitude":"39.45416670","longitude":"20.96027780","name":"Skandala\u00ed\u00efka"},{"id":"900529","latitude":"39.41750000","longitude":"20.94250000","name":"Skl\u00edvani"},{"id":"900533","latitude":"39.52805560","longitude":"21.02944440","name":"Sklo\u00fapa"},{"id":"900660","latitude":"39.42888890","longitude":"20.75500000","name":"Smirti\u00e1"},{"id":"900670","latitude":"39.42888890","longitude":"20.75500000","name":"Smyrti\u00e1"},{"id":"900770","latitude":"39.71472220","longitude":"20.60583330","name":"Soul\u00f3poulon"},{"id":"900771","latitude":"39.71472220","longitude":"20.60583330","name":"Soul\u00f3poulo"},{"id":"900794","latitude":"39.75000000","longitude":"20.56666670","name":"(( Sout\u00edsta ))"},{"id":"900879","latitude":"39.65000000","longitude":"20.67194440","name":"Sp\u00edlaion"},{"id":"900894","latitude":"39.65000000","longitude":"20.67194440","name":"Sp\u00edlios"},{"id":"900921","latitude":"39.65000000","longitude":"20.67194440","name":"Sp\u00fdlaion"},{"id":"900922","latitude":"39.65000000","longitude":"20.67194440","name":"Sp\u00fdlaio"},{"id":"900951","latitude":"39.43333330","longitude":"20.91666670","name":"(( St\u00e1ra ))"},{"id":"900953","latitude":"40.12250000","longitude":"20.84611110","name":"Star\u00edtsiani"},{"id":"900968","latitude":"39.42083330","longitude":"20.84444440","name":"Stathm\u00f3s Ter\u00f3vou"},{"id":"900975","latitude":"39.65583330","longitude":"20.81750000","name":"Stavr\u00e1kion"},{"id":"900976","latitude":"39.65583330","longitude":"20.81750000","name":"Stavr\u00e1ki"},{"id":"900989","latitude":"39.93305560","longitude":"20.41388890","name":"Stavrodhr\u00f3mion"},{"id":"900994","latitude":"39.93305560","longitude":"20.41388890","name":"Stavrodhr\u00f3mi"},{"id":"900997","latitude":"39.93305560","longitude":"20.41388890","name":"Stavrodr\u00f3mion"},{"id":"900999","latitude":"39.93305560","longitude":"20.41388890","name":"Stavrodr\u00f3mi"},{"id":"901018","latitude":"40.03361110","longitude":"20.43611110","name":"Stavroski\u00e1dhion"},{"id":"901019","latitude":"40.03361110","longitude":"20.43611110","name":"Stavroski\u00e1dhi"},{"id":"901020","latitude":"40.03361110","longitude":"20.43611110","name":"Stavroski\u00e1dion"},{"id":"901021","latitude":"40.03361110","longitude":"20.43611110","name":"Stavroski\u00e1di"},{"id":"901025","latitude":"39.41750000","longitude":"20.93083330","name":"Stavr\u00f3s"},{"id":"901146","latitude":"39.45222220","longitude":"21.00138890","name":"Sto\u00fala"},{"id":"901173","latitude":"39.45388890","longitude":"20.85888890","name":"Stratige\u00edon"},{"id":"901174","latitude":"39.85555560","longitude":"20.48305560","name":"Strat\u00ednista"},{"id":"901182","latitude":"40.15888890","longitude":"20.78472220","name":"Str\u00e1tsani"},{"id":"901183","latitude":"40.15888890","longitude":"20.78472220","name":"Str\u00e1tsiani"},{"id":"901230","latitude":"39.68944440","longitude":"20.87111110","name":"Stro\u00fanion"},{"id":"901231","latitude":"39.68944440","longitude":"20.87111110","name":"Stro\u00fani"},{"id":"901257","latitude":"39.71472220","longitude":"20.60583330","name":"S\u00fali-D\u00ednu"},{"id":"901304","latitude":"39.63777780","longitude":"20.73666670","name":"Synoikism\u00f3s K\u00f3nitskas"},{"id":"901312","latitude":"40.06555560","longitude":"20.74361110","name":"Synoikism\u00f3s Pig\u00eds"},{"id":"901346","latitude":"39.74722220","longitude":"21.08694440","name":"Tampo\u00faria"},{"id":"901364","latitude":"39.50000000","longitude":"21.00000000","name":"T\u00e1teron"},{"id":"901377","latitude":"39.76666670","longitude":"21.05000000","name":"(( Taxi\u00e1rchis ))"},{"id":"901387","latitude":"39.76666670","longitude":"21.05000000","name":"Taxi\u00e1rkhis"},{"id":"901416","latitude":"39.93000000","longitude":"20.39722220","name":"Teri\u00e1chion"},{"id":"901417","latitude":"39.93000000","longitude":"20.39722220","name":"Teri\u00e1chio"},{"id":"901418","latitude":"39.93000000","longitude":"20.39722220","name":"Teri\u00e1khion"},{"id":"901429","latitude":"39.41111110","longitude":"20.87416670","name":"T\u00e9rovon"},{"id":"901430","latitude":"39.41111110","longitude":"20.87416670","name":"T\u00e9rovo"},{"id":"901442","latitude":"39.41111110","longitude":"20.87416670","name":"T\u00e9rrovon"},{"id":"901499","latitude":"40.23666670","longitude":"20.85111110","name":"Theot\u00f3kos"},{"id":"901504","latitude":"39.50666670","longitude":"20.86472220","name":"Theriak\u00edsion"},{"id":"901506","latitude":"39.50666670","longitude":"20.86472220","name":"Theriak\u00edsio"},{"id":"901683","latitude":"39.57611110","longitude":"20.61527780","name":"Tosker\u00e1ti"},{"id":"901684","latitude":"39.57611110","longitude":"20.61527780","name":"Toskes\u00e1kion"},{"id":"901685","latitude":"39.57611110","longitude":"20.61527780","name":"Toskes\u00e1ti"},{"id":"901686","latitude":"39.45222220","longitude":"20.77277780","name":"Tosk\u00e9sion"},{"id":"901687","latitude":"39.45222220","longitude":"20.77277780","name":"T\u00f3skesi"},{"id":"901774","latitude":"40.10861110","longitude":"20.75916670","name":"Tr\u00e1peza"},{"id":"901779","latitude":"39.48138890","longitude":"20.66277780","name":"Trasdh\u00e1ni"},{"id":"901923","latitude":"39.79277780","longitude":"21.00250000","name":"Tr\u00edstenon"},{"id":"901925","latitude":"39.79277780","longitude":"21.00250000","name":"Tr\u00edsteno"},{"id":"901926","latitude":"39.79277780","longitude":"21.00250000","name":"Tr\u00edstinon"},{"id":"902025","latitude":"40.00805560","longitude":"20.60000000","name":"Tsaraplan\u00e1"},{"id":"902059","latitude":"39.90611110","longitude":"20.82027780","name":"Tsep\u00e9lovon"},{"id":"902060","latitude":"39.90611110","longitude":"20.82027780","name":"Tsep\u00e9lovo"},{"id":"902062","latitude":"39.77805560","longitude":"21.10972220","name":"Tsepri\u00e9s"},{"id":"902071","latitude":"39.49500000","longitude":"20.74416670","name":"Tser\u00edtsana"},{"id":"902072","latitude":"39.49500000","longitude":"20.74416670","name":"Tser\u00edtsiana"},{"id":"902079","latitude":"39.87388890","longitude":"20.98250000","name":"Ts\u00e9rnesi"},{"id":"902087","latitude":"39.90027780","longitude":"20.69000000","name":"Tserv\u00e1ri"},{"id":"902090","latitude":"39.66000000","longitude":"20.71888890","name":"Ts\u00e9ryiani"},{"id":"902091","latitude":"39.66000000","longitude":"20.71888890","name":"Ts\u00e9ryianni"},{"id":"902185","latitude":"39.52583330","longitude":"21.12361110","name":"Ts\u00f3pela"},{"id":"902306","latitude":"39.42916670","longitude":"20.76750000","name":"Vadh\u00edstra"},{"id":"902307","latitude":"39.42916670","longitude":"20.76750000","name":"Vad\u00edstra"},{"id":"902319","latitude":"39.64527780","longitude":"20.71277780","name":"Vagen\u00edtion"},{"id":"902320","latitude":"39.64527780","longitude":"20.71277780","name":"Vagen\u00edti"},{"id":"902352","latitude":"39.52000000","longitude":"20.63444440","name":"Valanidhi\u00e1"},{"id":"902356","latitude":"39.52000000","longitude":"20.63444440","name":"Valanidi\u00e1"},{"id":"902383","latitude":"39.86666670","longitude":"20.39944440","name":"Vallcista"},{"id":"902407","latitude":"39.86666670","longitude":"20.39944440","name":"V\u00e1ltista"},{"id":"902433","latitude":"39.70722220","longitude":"21.04055560","name":"Valtsini\u00e1"},{"id":"902435","latitude":"39.46166670","longitude":"20.96750000","name":"Valtsi\u00f3ra"},{"id":"902437","latitude":"39.46166670","longitude":"20.96750000","name":"Valtsk\u00f3ra"},{"id":"902470","latitude":"39.55222220","longitude":"21.03722220","name":"Vaptist\u00eds"},{"id":"902478","latitude":"39.45083330","longitude":"20.73194440","name":"V\u00e1rdas"},{"id":"902484","latitude":"39.45083330","longitude":"20.73194440","name":"V\u00e1rdha"},{"id":"902495","latitude":"39.46555560","longitude":"20.81388890","name":"Vargi\u00e1des"},{"id":"902527","latitude":"39.42000000","longitude":"20.89361110","name":"Varla\u00e1m"},{"id":"902536","latitude":"39.58611110","longitude":"20.54777780","name":"V\u00e1rpova"},{"id":"902558","latitude":"39.74944440","longitude":"20.79305560","name":"V\u00e1rvea"},{"id":"902559","latitude":"39.74944440","longitude":"20.79305560","name":"V\u00e1rvesi"},{"id":"902561","latitude":"39.46555560","longitude":"20.81388890","name":"Varyi\u00e1dhes"},{"id":"902566","latitude":"39.48277780","longitude":"20.88166670","name":"Vasa\u00ed\u00efka"},{"id":"902594","latitude":"39.64333330","longitude":"20.95166670","name":"Vasilik\u00ed"},{"id":"902600","latitude":"40.00805560","longitude":"20.60000000","name":"Vasilik\u00f3n"},{"id":"902617","latitude":"40.00805560","longitude":"20.60000000","name":"Vasilk\u00f3n"},{"id":"902619","latitude":"39.76722220","longitude":"20.59194440","name":"Vasil\u00f3poulon"},{"id":"902622","latitude":"39.76722220","longitude":"20.59194440","name":"Vasil\u00f3poulo"},{"id":"902632","latitude":"39.80055560","longitude":"20.51694440","name":"Vastrov\u00e1"},{"id":"902633","latitude":"39.81305560","longitude":"20.65250000","name":"Vatat\u00e1des"},{"id":"902634","latitude":"39.81305560","longitude":"20.65250000","name":"Vatat\u00e1dhes"},{"id":"902658","latitude":"39.62972220","longitude":"21.06055560","name":"Vath\u00edpedhon"},{"id":"902684","latitude":"39.62972220","longitude":"21.06055560","name":"Vath\u00fdpedon"},{"id":"902686","latitude":"39.62972220","longitude":"21.06055560","name":"Vath\u00fdpedo"},{"id":"902715","latitude":"39.80194440","longitude":"20.43750000","name":"Vatsouni\u00e1"},{"id":"902725","latitude":"39.64527780","longitude":"20.71277780","name":"Vayen\u00edtion"},{"id":"902726","latitude":"39.64527780","longitude":"20.71277780","name":"Vayen\u00edti"},{"id":"902813","latitude":"39.70472220","longitude":"20.67361110","name":"Velts\u00edstas"},{"id":"902814","latitude":"39.70472220","longitude":"20.67361110","name":"Velts\u00edsta"},{"id":"902840","latitude":"39.55638890","longitude":"20.54916670","name":"Veren\u00edki"},{"id":"902901","latitude":"39.95166670","longitude":"20.70666670","name":"Vetsik\u00f3n"},{"id":"902921","latitude":"39.95166670","longitude":"20.70666670","name":"V\u00edkos"},{"id":"902938","latitude":"39.47944440","longitude":"21.02555560","name":"Vindhri\u00e1"},{"id":"902957","latitude":"39.94361110","longitude":"20.53333330","name":"V\u00edsani"},{"id":"902961","latitude":"39.94361110","longitude":"20.53333330","name":"V\u00edssani"},{"id":"902981","latitude":"39.40944440","longitude":"20.92222220","name":"Vitar\u00edni"},{"id":"902998","latitude":"39.87138890","longitude":"20.75027780","name":"V\u00edtsa"},{"id":"902999","latitude":"39.40944440","longitude":"20.92222220","name":"Vitser\u00edni"},{"id":"903000","latitude":"39.95166670","longitude":"20.70666670","name":"Vitsik\u00f3n"},{"id":"903002","latitude":"39.40944440","longitude":"20.92222220","name":"Vitsir\u00edni"},{"id":"903018","latitude":"39.82500000","longitude":"20.63861110","name":"Vlach\u00e1tanon"},{"id":"903019","latitude":"39.82500000","longitude":"20.63861110","name":"Vlach\u00e1tano"},{"id":"903032","latitude":"39.82500000","longitude":"20.63861110","name":"Vlakh\u00e1tanon"},{"id":"903034","latitude":"39.82500000","longitude":"20.63861110","name":"Vlakh\u00e1tovo"},{"id":"903077","latitude":"39.77583330","longitude":"21.08750000","name":"Vlas\u00e1gkos"},{"id":"903079","latitude":"39.77583330","longitude":"21.08750000","name":"Vlas\u00e1ngos"},{"id":"903154","latitude":"39.44500000","longitude":"21.02083330","name":"Vordh\u00f3"},{"id":"903156","latitude":"39.44500000","longitude":"21.02083330","name":"Vord\u00f3"},{"id":"903175","latitude":"39.46555560","longitude":"20.81388890","name":"Voryi\u00e1dhes"},{"id":"903187","latitude":"40.00277780","longitude":"20.42444440","name":"Vost\u00edna"},{"id":"903207","latitude":"39.76805560","longitude":"21.11833330","name":"Voton\u00e1si"},{"id":"903208","latitude":"39.76805560","longitude":"21.11833330","name":"Voton\u00f3sion"},{"id":"903209","latitude":"39.76805560","longitude":"21.11833330","name":"Voton\u00f3si"},{"id":"903229","latitude":"39.42638890","longitude":"20.83472220","name":"Vouli\u00e1sta"},{"id":"903263","latitude":"39.69166670","longitude":"20.78583330","name":"Vounoplagi\u00e1"},{"id":"903265","latitude":"39.69166670","longitude":"20.78583330","name":"Vounoplayi\u00e1"},{"id":"903266","latitude":"39.47944440","longitude":"21.02555560","name":"Voun\u00f3reia"},{"id":"903267","latitude":"39.47944440","longitude":"21.02555560","name":"Voun\u00f3ria"},{"id":"903274","latitude":"40.23861110","longitude":"20.78722220","name":"Vo\u00farbiani"},{"id":"903275","latitude":"39.73333330","longitude":"21.10000000","name":"(( Vourdhan\u00e9li ))"},{"id":"903286","latitude":"40.23861110","longitude":"20.78722220","name":"Vo\u00farmpiani"},{"id":"903292","latitude":"39.48333330","longitude":"21.03333330","name":"(( Vourt\u00e1pa ))"},{"id":"903302","latitude":"39.72777780","longitude":"21.00694440","name":"Voutansa\u00edoi"},