[{"id":"904269","latitude":"14.58333330","longitude":"-89.51666670","name":"Aceitillal"},{"id":"904288","latitude":"14.73333330","longitude":"-89.33333330","name":"Agua Blanca"},{"id":"904297","latitude":"14.46666670","longitude":"-89.48333330","name":"Agua Caliente"},{"id":"904309","latitude":"14.68333330","longitude":"-89.38333330","name":"Aguacate"},{"id":"904322","latitude":"14.86666670","longitude":"-89.35000000","name":"Agua Fr\u00eda"},{"id":"904327","latitude":"14.48333330","longitude":"-89.41666670","name":"Aguajal"},{"id":"904335","latitude":"14.56666670","longitude":"-89.56666670","name":"Agua Tibia"},{"id":"904341","latitude":"14.68333330","longitude":"-89.53333330","name":"Agua Zarca"},{"id":"904351","latitude":"14.55000000","longitude":"-89.45000000","name":"Ahorcado"},{"id":"904353","latitude":"14.55000000","longitude":"-89.30000000","name":"Ainatal"},{"id":"904356","latitude":"14.43333330","longitude":"-89.46666670","name":"Alambradas"},{"id":"904369","latitude":"14.55000000","longitude":"-89.30000000","name":"Amatal"},{"id":"904373","latitude":"14.61666670","longitude":"-89.60000000","name":"Amates"},{"id":"904375","latitude":"14.53333330","longitude":"-89.60000000","name":"Amatillo"},{"id":"904390","latitude":"14.41666670","longitude":"-89.45000000","name":"Anguiat\u00fa"},{"id":"904392","latitude":"14.41666670","longitude":"-89.45000000","name":"Anguiat\u00fa Arriba"},{"id":"904393","latitude":"14.86666670","longitude":"-89.25000000","name":"Anicillo"},{"id":"904395","latitude":"14.86666670","longitude":"-89.25000000","name":"Anisillo"},{"id":"904396","latitude":"14.55000000","longitude":"-89.55000000","name":"Anonas"},{"id":"904404","latitude":"14.55000000","longitude":"-89.41666670","name":"Apantes"},{"id":"904408","latitude":"14.60000000","longitude":"-89.16666670","name":"Aradona"},{"id":"904427","latitude":"14.55000000","longitude":"-89.55000000","name":"Arrozales"},{"id":"904446","latitude":"14.56666670","longitude":"-89.31666670","name":"Atulapa"},{"id":"904453","latitude":"14.66666670","longitude":"-89.43333330","name":"Azacualpa"},{"id":"904486","latitude":"14.75000000","longitude":"-89.20000000","name":"Barrancas"},{"id":"904519","latitude":"14.60000000","longitude":"-89.35000000","name":"Bel\u00e9n"},{"id":"904521","latitude":"14.80000000","longitude":"-89.58333330","name":"Bella Vista"},{"id":"904552","latitude":"14.58333330","longitude":"-89.28333330","name":"Bojorjes"},{"id":"904561","latitude":"14.86666670","longitude":"-89.26666670","name":"Bordo"},{"id":"904564","latitude":"14.56666670","longitude":"-89.46666670","name":"Boyero"},{"id":"904565","latitude":"14.56666670","longitude":"-89.46666670","name":"Boyeros"},{"id":"904569","latitude":"14.83333330","longitude":"-89.35000000","name":"Brasilar"},{"id":"904582","latitude":"14.63333330","longitude":"-89.56666670","name":"Buena Vista"},{"id":"904619","latitude":"14.53333330","longitude":"-89.55000000","name":"Cacaguatepeque"},{"id":"904620","latitude":"14.53333330","longitude":"-89.55000000","name":"Cacahuatepeque"},{"id":"904623","latitude":"14.53333330","longitude":"-89.55000000","name":"Cacaotepeque"},{"id":"904633","latitude":"14.61666670","longitude":"-89.16666670","name":"Cafetales"},{"id":"904643","latitude":"14.81666670","longitude":"-89.26666670","name":"Caj\u00f3n del R\u00edo"},{"id":"904667","latitude":"14.73333330","longitude":"-89.26666670","name":"Camalote"},{"id":"904683","latitude":"14.88333330","longitude":"-89.33333330","name":"Camino Real"},{"id":"904689","latitude":"14.81666670","longitude":"-89.36666670","name":"Camot\u00e1n"},{"id":"904700","latitude":"14.46666670","longitude":"-89.43333330","name":"Ca\u00f1ada"},{"id":"904701","latitude":"14.73333330","longitude":"-89.20000000","name":"Ca\u00f1ada del Pino"},{"id":"904705","latitude":"14.80000000","longitude":"-89.56666670","name":"Can\u00e1n"},{"id":"904707","latitude":"14.76666670","longitude":"-89.38333330","name":"Canapar\u00e1"},{"id":"904709","latitude":"14.63333330","longitude":"-89.25000000","name":"Ca\u00f1as"},{"id":"904713","latitude":"14.56666670","longitude":"-89.56666670","name":"Ca\u00f1a Vieja"},{"id":"904735","latitude":"14.81666670","longitude":"-89.26666670","name":"Canj\u00f3n del R\u00edo"},{"id":"904737","latitude":"14.56666670","longitude":"-89.26666670","name":"Canoas"},{"id":"904760","latitude":"14.85000000","longitude":"-89.23333330","name":"Caparj\u00e1"},{"id":"904765","latitude":"14.55000000","longitude":"-89.43333330","name":"Capul\u00edn"},{"id":"904777","latitude":"14.51666670","longitude":"-89.56666670","name":"Carboneras"},{"id":"904789","latitude":"14.65000000","longitude":"-89.16666670","name":"Carrizal"},{"id":"904797","latitude":"14.70000000","longitude":"-89.23333330","name":"Carrizalito"},{"id":"904804","latitude":"14.55000000","longitude":"-89.43333330","name":"Casa Quemada"},{"id":"904811","latitude":"14.53333330","longitude":"-89.30000000","name":"Cascajal"},{"id":"904824","latitude":"14.78333330","longitude":"-89.65000000","name":"Catocha"},{"id":"904826","latitude":"14.65000000","longitude":"-89.45000000","name":"Caulote"},{"id":"904828","latitude":"14.65000000","longitude":"-89.45000000","name":"Caulotes"},{"id":"904839","latitude":"14.70000000","longitude":"-89.31666670","name":"Cayur"},{"id":"904842","latitude":"14.58333330","longitude":"-89.41666670","name":"Cebollas"},{"id":"904844","latitude":"14.68333330","longitude":"-89.61666670","name":"Cececapa"},{"id":"904845","latitude":"14.88333330","longitude":"-89.33333330","name":"Cedral"},{"id":"904850","latitude":"14.73333330","longitude":"-89.45000000","name":"Ceiba"},{"id":"904853","latitude":"14.61666670","longitude":"-89.26666670","name":"Ceibita"},{"id":"904856","latitude":"14.63333330","longitude":"-89.56666670","name":"Cen\u00edceras"},{"id":"904877","latitude":"14.68333330","longitude":"-89.55000000","name":"Cerro de Cal"},{"id":"904908","latitude":"14.63333330","longitude":"-89.58333330","name":"Chag\u00fcite"},{"id":"904916","latitude":"14.55000000","longitude":"-89.38333330","name":"Chag\u00fcit\u00f3n"},{"id":"904920","latitude":"14.50000000","longitude":"-89.30000000","name":"Chahuit\u00e1n"},{"id":"904921","latitude":"14.63333330","longitude":"-89.58333330","name":"Chahuite"},{"id":"904955","latitude":"14.71666670","longitude":"-89.45000000","name":"Chanc\u00f3"},{"id":"904959","latitude":"14.61666670","longitude":"-89.20000000","name":"Chanmagua"},{"id":"904960","latitude":"14.85000000","longitude":"-89.28333330","name":"Chantiago"},{"id":"904963","latitude":"14.56666670","longitude":"-89.65000000","name":"Chaparroncito"},{"id":"904972","latitude":"14.80000000","longitude":"-89.20000000","name":"Chapul\u00edn"},{"id":"904977","latitude":"14.66666670","longitude":"-89.36666670","name":"Charag\u00fc\u00edn"},{"id":"904979","latitude":"14.71666670","longitude":"-89.45000000","name":"Chauc\u00f3"},{"id":"904980","latitude":"14.61666670","longitude":"-89.20000000","name":"Chaumagua"},{"id":"905089","latitude":"14.71666670","longitude":"-89.65000000","name":"Chilar"},{"id":"905181","latitude":"14.80000000","longitude":"-89.55000000","name":"Chiquimula"},{"id":"905192","latitude":"14.61666670","longitude":"-89.36666670","name":"Chiramay"},{"id":"905215","latitude":"14.75000000","longitude":"-89.63333330","name":"Chisc\u00fa"},{"id":"905219","latitude":"14.80000000","longitude":"-89.41666670","name":"Chisj\u00e1"},{"id":"905221","latitude":"14.70000000","longitude":"-89.40000000","name":"Chispan"},{"id":"905223","latitude":"14.70000000","longitude":"-89.40000000","name":"Chisp\u00e1n Jaral"},{"id":"905263","latitude":"14.80000000","longitude":"-89.33333330","name":"Chiy\u00f3"},{"id":"905291","latitude":"14.76666670","longitude":"-89.58333330","name":"Chororagua"},{"id":"905343","latitude":"14.58333330","longitude":"-89.16666670","name":"Chuctal"},{"id":"905365","latitude":"14.73333330","longitude":"-89.40000000","name":"Chuirisch\u00e1n"},{"id":"905399","latitude":"14.73333330","longitude":"-89.40000000","name":"Churisch\u00e1n"},{"id":"905418","latitude":"14.68333330","longitude":"-89.45000000","name":"Cimarr\u00f3n"},{"id":"905428","latitude":"14.65000000","longitude":"-89.46666670","name":"Ciracil"},{"id":"905429","latitude":"14.56666670","longitude":"-89.50000000","name":"Ciracilito"},{"id":"905435","latitude":"14.80000000","longitude":"-89.55000000","name":"Ciudad Pr\u00f3cer"},{"id":"905465","latitude":"14.76666670","longitude":"-89.23333330","name":"Colmenas"},{"id":"905490","latitude":"14.66666670","longitude":"-89.40000000","name":"Com\u00fan"},{"id":"905497","latitude":"14.45000000","longitude":"-89.46666670","name":"Conacaste"},{"id":"905502","latitude":"14.51666670","longitude":"-89.45000000","name":"Concepci\u00f3n"},{"id":"905515","latitude":"14.51666670","longitude":"-89.45000000","name":"Concepci\u00f3n Las Minas"},{"id":"905540","latitude":"14.61666670","longitude":"-89.58333330","name":"Coronado"},{"id":"905547","latitude":"14.70000000","longitude":"-89.45000000","name":"Corral de Piedra"},{"id":"905558","latitude":"14.80000000","longitude":"-89.21666670","name":"Coyoles"},{"id":"905560","latitude":"14.80000000","longitude":"-89.21666670","name":"Coyote"},{"id":"905563","latitude":"14.70000000","longitude":"-89.43333330","name":"Coyotes"},{"id":"905582","latitude":"14.63333330","longitude":"-89.56666670","name":"Cruces"},{"id":"905586","latitude":"14.56666670","longitude":"-89.38333330","name":"Cruz Alta"},{"id":"905588","latitude":"14.48333330","longitude":"-89.46666670","name":"Cruz Calle"},{"id":"905594","latitude":"14.76666670","longitude":"-89.33333330","name":"Cruz de Charm\u00e1"},{"id":"905597","latitude":"14.51666670","longitude":"-89.46666670","name":"Cruz de Ocote"},{"id":"905598","latitude":"14.66666670","longitude":"-89.45000000","name":"Cruz de Piedra"},{"id":"905613","latitude":"14.56666670","longitude":"-89.48333330","name":"Cubiletes"},{"id":"905625","latitude":"14.85000000","longitude":"-89.30000000","name":"Cucurj\u00e1 Segundo"},{"id":"905626","latitude":"14.58333330","longitude":"-89.55000000","name":"Cuernavaca"},{"id":"905629","latitude":"14.51666670","longitude":"-89.43333330","name":"Cuesta del Horno"},{"id":"905630","latitude":"14.55000000","longitude":"-89.40000000","name":"Cuesta del Paxte"},{"id":"905631","latitude":"14.46666670","longitude":"-89.43333330","name":"Cuesta El Pito"},{"id":"905632","latitude":"14.83333330","longitude":"-89.60000000","name":"Cuesta San Antonio"},{"id":"905636","latitude":"14.63333330","longitude":"-89.30000000","name":"Cuevita"},{"id":"905637","latitude":"14.50000000","longitude":"-89.56666670","name":"Cuevitas"},{"id":"905640","latitude":"14.58333330","longitude":"-89.53333330","name":"Cuje"},{"id":"905655","latitude":"14.70000000","longitude":"-89.28333330","name":"Cumbre Piedra de Amolar"},{"id":"905663","latitude":"14.55000000","longitude":"-89.38333330","name":"Curruche"},{"id":"905685","latitude":"14.81666670","longitude":"-89.40000000","name":"Despoblado"},{"id":"905688","latitude":"14.51666670","longitude":"-89.51666670","name":"Dolores"},{"id":"905701","latitude":"14.80000000","longitude":"-89.33333330","name":"Dos Quebrada"},{"id":"905702","latitude":"14.73333330","longitude":"-89.60000000","name":"Dos Quebradas"},{"id":"905705","latitude":"14.51666670","longitude":"-89.36666670","name":"Duraznal"},{"id":"905712","latitude":"14.61666670","longitude":"-89.51666670","name":"El Achiote"},{"id":"905718","latitude":"14.73333330","longitude":"-89.65000000","name":"El Aguacate"},{"id":"905731","latitude":"14.68333330","longitude":"-89.51666670","name":"El Ahorcado"},{"id":"905741","latitude":"14.53333330","longitude":"-89.60000000","name":"El Amatillo"},{"id":"905768","latitude":"14.70000000","longitude":"-89.15000000","name":"El Bailadero"},{"id":"905769","latitude":"14.70000000","longitude":"-89.21666670","name":"El Baj\u00edo"},{"id":"905774","latitude":"14.80000000","longitude":"-89.66666670","name":"El Barrial"},{"id":"905801","latitude":"14.61666670","longitude":"-89.61666670","name":"El Calvario"},{"id":"905813","latitude":"14.86666670","longitude":"-89.41666670","name":"El Candelero"},{"id":"905818","latitude":"14.55000000","longitude":"-89.43333330","name":"El Capul\u00edn"},{"id":"905820","latitude":"14.63333330","longitude":"-89.48333330","name":"El Caracol"},{"id":"905835","latitude":"14.65000000","longitude":"-89.16666670","name":"El Carrizal"},{"id":"905842","latitude":"14.75000000","longitude":"-89.58333330","name":"El Carrizo"},{"id":"905849","latitude":"14.55000000","longitude":"-89.66666670","name":"El Caulote"},{"id":"905867","latitude":"14.71666670","longitude":"-89.60000000","name":"El Cerr\u00f3n"},{"id":"905870","latitude":"14.63333330","longitude":"-89.58333330","name":"El Chag\u00fcite"},{"id":"905884","latitude":"14.71666670","longitude":"-89.51666670","name":"El Chilar"},{"id":"905887","latitude":"14.61666670","longitude":"-89.40000000","name":"El Chile"},{"id":"905900","latitude":"14.60000000","longitude":"-89.35000000","name":"El Chorro"},{"id":"905903","latitude":"14.78333330","longitude":"-89.33333330","name":"El Chucte"},{"id":"905909","latitude":"14.83333330","longitude":"-89.46666670","name":"El Cimarr\u00f3n"},{"id":"905925","latitude":"14.56666670","longitude":"-89.68333330","name":"El Cofrad\u00edas"},{"id":"905931","latitude":"14.86666670","longitude":"-89.66666670","name":"El Colocho"},{"id":"905935","latitude":"14.68333330","longitude":"-89.46666670","name":"El Com\u00fan"},{"id":"905962","latitude":"14.53333330","longitude":"-89.58333330","name":"El Cuje"},{"id":"905977","latitude":"14.83333330","longitude":"-89.66666670","name":"El Durazno"},{"id":"905999","latitude":"14.85000000","longitude":"-89.23333330","name":"El Florido"},{"id":"906012","latitude":"14.50000000","longitude":"-89.58333330","name":"El Guachipil\u00edn"},{"id":"906020","latitude":"14.70000000","longitude":"-89.38333330","name":"El Guayabo"},{"id":"906032","latitude":"14.75000000","longitude":"-89.16666670","name":"El Horno"},{"id":"906037","latitude":"14.85000000","longitude":"-89.51666670","name":"El Ingeniero"},{"id":"906039","latitude":"14.76666670","longitude":"-89.23333330","name":"El Irayol"},{"id":"906047","latitude":"14.53333330","longitude":"-89.56666670","name":"El Jicaral"},{"id":"906059","latitude":"14.65000000","longitude":"-89.58333330","name":"El Jocote"},{"id":"906068","latitude":"14.73333330","longitude":"-89.55000000","name":"El Junquillo"},{"id":"906072","latitude":"14.55000000","longitude":"-89.40000000","name":"El Jute"},{"id":"906082","latitude":"14.76666670","longitude":"-89.28333330","name":"El Limar"},{"id":"906084","latitude":"14.80000000","longitude":"-89.61666670","name":"El Limonal"},{"id":"906088","latitude":"14.80000000","longitude":"-89.31666670","name":"El Lim\u00f3n"},{"id":"906094","latitude":"14.51666670","longitude":"-89.55000000","name":"El Llano"},{"id":"906103","latitude":"14.76666670","longitude":"-89.58333330","name":"El Magueyal"},{"id":"906127","latitude":"14.76666670","longitude":"-89.68333330","name":"El Matasano"},{"id":"906131","latitude":"14.76666670","longitude":"-89.68333330","name":"El Matazano"},{"id":"906139","latitude":"14.75000000","longitude":"-89.63333330","name":"El Mezcal"},{"id":"906143","latitude":"14.58333330","longitude":"-89.53333330","name":"El Moj\u00f3n"},{"id":"906151","latitude":"14.83333330","longitude":"-89.63333330","name":"El Morral"},{"id":"906153","latitude":"14.86666670","longitude":"-89.43333330","name":"El Morrito"},{"id":"906177","latitude":"14.68333330","longitude":"-89.58333330","name":"El Obraje"},{"id":"906186","latitude":"14.51666670","longitude":"-89.40000000","name":"El Olvido"},{"id":"906190","latitude":"14.61666670","longitude":"-89.48333330","name":"El Or\u00e9gano"},{"id":"906192","latitude":"14.81666670","longitude":"-89.55000000","name":"El Otro Lado"},{"id":"906197","latitude":"14.85000000","longitude":"-89.45000000","name":"El Pajalito"},{"id":"906204","latitude":"14.61666670","longitude":"-89.40000000","name":"El Palmar"},{"id":"906211","latitude":"14.53333330","longitude":"-89.50000000","name":"El Panal"},{"id":"906214","latitude":"14.50000000","longitude":"-89.55000000","name":"El Pa\u00f1uelo"},{"id":"906217","latitude":"14.55000000","longitude":"-89.40000000","name":"El Papayo"},{"id":"906232","latitude":"14.71666670","longitude":"-89.26666670","name":"El Paternito"},{"id":"906234","latitude":"14.76666670","longitude":"-89.66666670","name":"El Pato"},{"id":"906238","latitude":"14.56666670","longitude":"-89.61666670","name":"El Paxte"},{"id":"906242","latitude":"14.75000000","longitude":"-89.61666670","name":"El Pedrero"},{"id":"906257","latitude":"14.73333330","longitude":"-89.50000000","name":"El Pinal"},{"id":"906262","latitude":"14.81666670","longitude":"-89.46666670","name":"El Pinalito"},{"id":"906275","latitude":"14.78333330","longitude":"-89.26666670","name":"El Plan"},{"id":"906298","latitude":"14.66666670","longitude":"-89.58333330","name":"El Potrero"},{"id":"906300","latitude":"14.78333330","longitude":"-89.63333330","name":"El Poxte"},{"id":"906314","latitude":"14.86666670","longitude":"-89.48333330","name":"El Puente"},{"id":"906368","latitude":"14.68333330","longitude":"-89.61666670","name":"El Rinc\u00f3n"},{"id":"906371","latitude":"14.73333330","longitude":"-89.35000000","name":"El Roblarcito"},{"id":"906372","latitude":"14.80000000","longitude":"-89.35000000","name":"El Roblar"},{"id":"906375","latitude":"14.86666670","longitude":"-89.26666670","name":"El Roble"},{"id":"906377","latitude":"14.53333330","longitude":"-89.45000000","name":"El Rode\u00edto"},{"id":"906380","latitude":"14.66666670","longitude":"-89.28333330","name":"El Rodeo"},{"id":"906392","latitude":"14.60000000","longitude":"-89.56666670","name":"El Rosario"},{"id":"906414","latitude":"14.76666670","longitude":"-89.48333330","name":"El Santo"},{"id":"906418","latitude":"14.55000000","longitude":"-89.66666670","name":"El Sauce"},{"id":"906425","latitude":"14.78333330","longitude":"-89.48333330","name":"El Sill\u00f3n Abajo"},{"id":"906426","latitude":"14.53333330","longitude":"-89.36666670","name":"El Sill\u00f3n"},{"id":"906441","latitude":"14.73333330","longitude":"-89.61666670","name":"El Sordo"},{"id":"906450","latitude":"14.91666670","longitude":"-89.20000000","name":"El Suspiro"},{"id":"906456","latitude":"14.68333330","longitude":"-89.15000000","name":"El Tabloncito"},{"id":"906460","latitude":"14.71666670","longitude":"-89.31666670","name":"El Tabl\u00f3n"},{"id":"906491","latitude":"14.78333330","longitude":"-89.40000000","name":"El Tesoro"},{"id":"906524","latitude":"14.80000000","longitude":"-89.21666670","name":"El Valle"},{"id":"906525","latitude":"14.76666670","longitude":"-89.63333330","name":"El Varal"},{"id":"906534","latitude":"14.65000000","longitude":"-89.55000000","name":"El Zapote"},{"id":"906563","latitude":"14.63333330","longitude":"-89.26666670","name":"Encino"},{"id":"906566","latitude":"14.85000000","longitude":"-89.40000000","name":"Encuentro de Guaraquich\u00e9"},{"id":"906568","latitude":"14.61666670","longitude":"-89.46666670","name":"Encuentros Abajo"},{"id":"906571","latitude":"14.61666670","longitude":"-89.45000000","name":"Encuentros"},{"id":"906575","latitude":"14.60000000","longitude":"-89.15000000","name":"Encumbrada"},{"id":"906578","latitude":"14.58333330","longitude":"-89.30000000","name":"Epinos"},{"id":"906579","latitude":"14.46666670","longitude":"-89.45000000","name":"Ermita"},{"id":"906581","latitude":"14.70000000","longitude":"-89.50000000","name":"Escal\u00f3n"},{"id":"906585","latitude":"14.60000000","longitude":"-89.55000000","name":"Escobas"},{"id":"906587","latitude":"14.80000000","longitude":"-89.40000000","name":"Escobillal"},{"id":"906589","latitude":"14.81666670","longitude":"-89.23333330","name":"Escuelero"},{"id":"906598","latitude":"14.58333330","longitude":"-89.30000000","name":"Espinos"},{"id":"906601","latitude":"14.56666670","longitude":"-89.35000000","name":"Esquipulas"},{"id":"906625","latitude":"14.61666670","longitude":"-89.50000000","name":"Estanzuela Abajo"},{"id":"906626","latitude":"14.60000000","longitude":"-89.51666670","name":"Estanzuela Arriba"},{"id":"906627","latitude":"14.60000000","longitude":"-89.51666670","name":"Estanzuela"},{"id":"906639","latitude":"14.81666670","longitude":"-89.23333330","name":"Filincas"},{"id":"906731","latitude":"14.81666670","longitude":"-89.23333330","name":"Flores"},{"id":"906737","latitude":"14.85000000","longitude":"-89.23333330","name":"Florida"},{"id":"906739","latitude":"14.85000000","longitude":"-89.23333330","name":"Florido"},{"id":"906741","latitude":"14.50000000","longitude":"-89.31666670","name":"Floripundio"},{"id":"906742","latitude":"14.60000000","longitude":"-89.25000000","name":"Fortuna"},{"id":"906775","latitude":"14.48333330","longitude":"-89.40000000","name":"Granadillas"},{"id":"906782","latitude":"14.55000000","longitude":"-89.46666670","name":"Guacamaya"},{"id":"906785","latitude":"14.55000000","longitude":"-89.46666670","name":"Guacamayas"},{"id":"906789","latitude":"14.55000000","longitude":"-89.46666670","name":"Guacamayo"},{"id":"906794","latitude":"14.51666670","longitude":"-89.48333330","name":"Guachipil\u00edn"},{"id":"906815","latitude":"14.85000000","longitude":"-89.40000000","name":"Guaraquich\u00e9"},{"id":"906817","latitude":"14.81666670","longitude":"-89.43333330","name":"Guareruche"},{"id":"906821","latitude":"14.66666670","longitude":"-89.40000000","name":"Guatal\u00f3n"},{"id":"906826","latitude":"14.66666670","longitude":"-89.35000000","name":"Guayabal"},{"id":"906828","latitude":"14.90000000","longitude":"-89.43333330","name":"Guayabillas"},{"id":"906831","latitude":"14.60000000","longitude":"-89.51666670","name":"Guayabo"},{"id":"906841","latitude":"14.58333330","longitude":"-89.21666670","name":"Guineal"},{"id":"906843","latitude":"14.81666670","longitude":"-89.60000000","name":"Guior"},{"id":"906851","latitude":"14.76666670","longitude":"-89.48333330","name":"Hacienda del Santo"},{"id":"906860","latitude":"14.76666670","longitude":"-89.21666670","name":"Hacienda Jupilingo"},{"id":"906872","latitude":"14.75000000","longitude":"-89.23333330","name":"Hacienda Vieja"},{"id":"906885","latitude":"14.70000000","longitude":"-89.23333330","name":"Horcones"},{"id":"906887","latitude":"14.81666670","longitude":"-89.55000000","name":"Horep\u00f3n"},{"id":"906891","latitude":"14.58333330","longitude":"-89.26666670","name":"Horno de Vides"},{"id":"906916","latitude":"14.58333330","longitude":"-89.23333330","name":"Incienso"},{"id":"906919","latitude":"14.86666670","longitude":"-89.38333330","name":"Ingenio de Guaraquiche"},{"id":"906920","latitude":"14.86666670","longitude":"-89.38333330","name":"Ingenio Guaraquich\u00e9"},{"id":"906924","latitude":"14.61666670","longitude":"-89.61666670","name":"Ipala"},{"id":"906982","latitude":"14.63333330","longitude":"-89.25000000","name":"Jagua"},{"id":"906998","latitude":"14.56666670","longitude":"-89.36666670","name":"Jes\u00fas y Mar\u00eda"},{"id":"906999","latitude":"14.66666670","longitude":"-89.63333330","name":"Jicamapa"},{"id":"907000","latitude":"14.53333330","longitude":"-89.56666670","name":"Jicaral"},{"id":"907002","latitude":"14.55000000","longitude":"-89.48333330","name":"J\u00edcaro Cubiletes"},{"id":"907004","latitude":"14.51666670","longitude":"-89.45000000","name":"J\u00edcaro"},{"id":"907007","latitude":"14.53333330","longitude":"-89.43333330","name":"J\u00edcaro Peinado"},{"id":"907009","latitude":"14.61666670","longitude":"-89.61666670","name":"Jilotepeque"},{"id":"907021","latitude":"14.53333330","longitude":"-89.35000000","name":"Jocotal"},{"id":"907023","latitude":"14.81666670","longitude":"-89.38333330","name":"Jocot\u00e1n"},{"id":"907024","latitude":"14.63333330","longitude":"-89.60000000","name":"Jocote Dulce"},{"id":"907026","latitude":"14.65000000","longitude":"-89.58333330","name":"Jocote"},{"id":"907030","latitude":"14.50000000","longitude":"-89.60000000","name":"Jocotillo"},{"id":"907054","latitude":"14.45000000","longitude":"-89.38333330","name":"Joya Grande"},{"id":"907060","latitude":"14.70000000","longitude":"-89.61666670","name":"Joya"},{"id":"907068","latitude":"14.61666670","longitude":"-89.26666670","name":"Joyas Verdes"},{"id":"907069","latitude":"14.70000000","longitude":"-89.15000000","name":"Joyitas"},{"id":"907089","latitude":"14.55000000","longitude":"-89.60000000","name":"Julumichapa"},{"id":"907095","latitude":"14.61666670","longitude":"-89.55000000","name":"Junquillo"},{"id":"907098","latitude":"14.76666670","longitude":"-89.21666670","name":"Jupilingo"},{"id":"907101","latitude":"14.88333330","longitude":"-89.23333330","name":"Jute"},{"id":"907105","latitude":"14.55000000","longitude":"-89.60000000","name":"Jutumichapa"},{"id":"907111","latitude":"14.71666670","longitude":"-89.51666670","name":"La Angostura"},{"id":"907112","latitude":"14.80000000","longitude":"-89.35000000","name":"La Arada"},{"id":"907147","latitude":"14.81666670","longitude":"-89.33333330","name":"La Brea"},{"id":"907151","latitude":"14.66666670","longitude":"-89.41666670","name":"La Calera"},{"id":"907156","latitude":"14.46666670","longitude":"-89.43333330","name":"La Ca\u00f1ada"},{"id":"907168","latitude":"14.51666670","longitude":"-89.30000000","name":"La Casona"},{"id":"907170","latitude":"14.78333330","longitude":"-89.65000000","name":"La Catocha"},{"id":"907173","latitude":"14.73333330","longitude":"-89.45000000","name":"La Ceiba"},{"id":"907180","latitude":"14.73333330","longitude":"-89.45000000","name":"La Ceibita"},{"id":"907187","latitude":"14.73333330","longitude":"-89.66666670","name":"La Chorrera"},{"id":"907188","latitude":"14.65000000","longitude":"-89.36666670","name":"La Cidra"},{"id":"907200","latitude":"14.58333330","longitude":"-89.50000000","name":"La Comunidad"},{"id":"907211","latitude":"14.61666670","longitude":"-89.58333330","name":"La Coronada"},{"id":"907226","latitude":"14.51666670","longitude":"-89.35000000","name":"La Cuestona"},{"id":"907231","latitude":"14.70000000","longitude":"-89.28333330","name":"La Cumbre"},{"id":"907247","latitude":"14.75000000","longitude":"-89.63333330","name":"La Doncella"},{"id":"907253","latitude":"14.46666670","longitude":"-89.45000000","name":"La Ermita"},{"id":"907257","latitude":"14.58333330","longitude":"-89.63333330","name":"La Esperanza"},{"id":"907299","latitude":"14.50000000","longitude":"-89.33333330","name":"La Granadilla"},{"id":"907301","latitude":"14.65000000","longitude":"-89.58333330","name":"La Granja"},{"id":"907302","latitude":"14.78333330","longitude":"-89.20000000","name":"L\u00e1grimas"},{"id":"907308","latitude":"14.70000000","longitude":"-89.31666670","name":"Laguna de Cayur"},{"id":"907312","latitude":"14.63333330","longitude":"-89.55000000","name":"Laguna"},{"id":"907318","latitude":"14.65000000","longitude":"-89.20000000","name":"Laguna Seca"},{"id":"907324","latitude":"14.66666670","longitude":"-89.25000000","name":"Lagunas"},{"id":"907330","latitude":"14.75000000","longitude":"-89.40000000","name":"Lagunetas"},{"id":"907337","latitude":"14.53333330","longitude":"-89.41666670","name":"La Hondura"},{"id":"907351","latitude":"14.66666670","longitude":"-89.36666670","name":"Lajillal"},{"id":"907364","latitude":"14.53333330","longitude":"-89.43333330","name":"La Laguna"},{"id":"907379","latitude":"14.45000000","longitude":"-89.45000000","name":"La Leona"},{"id":"907380","latitude":"14.86666670","longitude":"-89.26666670","name":"La Libertad"},{"id":"907390","latitude":"14.53333330","longitude":"-89.55000000","name":"La Lima"},{"id":"907397","latitude":"14.70000000","longitude":"-89.50000000","name":"La Majada"},{"id":"907405","latitude":"14.80000000","longitude":"-89.45000000","name":"La Mina"},{"id":"907408","latitude":"14.73333330","longitude":"-89.41666670","name":"La Monta\u00f1a"},{"id":"907428","latitude":"14.80000000","longitude":"-89.36666670","name":"Lanquit\u00edn"},{"id":"907429","latitude":"14.80000000","longitude":"-89.36666670","name":"Lantiqu\u00edn"},{"id":"907438","latitude":"14.88333330","longitude":"-89.36666670","name":"La Palmilla"},{"id":"907451","latitude":"14.51666670","longitude":"-89.60000000","name":"La Pe\u00f1a"},{"id":"907457","latitude":"14.80000000","longitude":"-89.55000000","name":"La Perla de Oriente"},{"id":"907473","latitude":"14.71666670","longitude":"-89.26666670","name":"La Prensa"},{"id":"907481","latitude":"14.78333330","longitude":"-89.45000000","name":"La Puente"},{"id":"907485","latitude":"14.66666670","longitude":"-89.40000000","name":"La Puerta"},{"id":"907487","latitude":"14.80000000","longitude":"-89.41666670","name":"La Quebrada"},{"id":"907497","latitude":"14.58333330","longitude":"-89.16666670","name":"La Rinconada"},{"id":"907500","latitude":"14.60000000","longitude":"-89.38333330","name":"La Ruda"},{"id":"907510","latitude":"14.50000000","longitude":"-89.46666670","name":"Las Anonas"},{"id":"907524","latitude":"14.41666670","longitude":"-89.43333330","name":"Las Burras"},{"id":"907548","latitude":"14.43333330","longitude":"-89.48333330","name":"Las Chivas"},{"id":"907550","latitude":"14.56666670","longitude":"-89.68333330","name":"Las Cofrad\u00edas"},{"id":"907554","latitude":"14.76666670","longitude":"-89.23333330","name":"Las Colmenas"},{"id":"907556","latitude":"14.63333330","longitude":"-89.56666670","name":"Las Cruces"},{"id":"907564","latitude":"14.65000000","longitude":"-89.35000000","name":"Las Crucitas"},{"id":"907572","latitude":"14.50000000","longitude":"-89.56666670","name":"Las Cuevitas"},{"id":"907592","latitude":"14.81666670","longitude":"-89.23333330","name":"Las Floras"},{"id":"907595","latitude":"14.81666670","longitude":"-89.23333330","name":"Las Flores"},{"id":"907619","latitude":"14.76666670","longitude":"-89.60000000","name":"Las Joyas"},{"id":"907624","latitude":"14.56666670","longitude":"-89.66666670","name":"Las Lajas"},{"id":"907634","latitude":"14.66666670","longitude":"-89.53333330","name":"Las Lomas"},{"id":"907647","latitude":"14.46666670","longitude":"-89.50000000","name":"Las Mar\u00edas"},{"id":"907651","latitude":"14.61666670","longitude":"-89.48333330","name":"Las Mesas"},{"id":"907679","latitude":"14.56666670","longitude":"-89.40000000","name":"Las Palmas"},{"id":"907686","latitude":"14.60000000","longitude":"-89.25000000","name":"Las Pe\u00f1as"},{"id":"907703","latitude":"14.65000000","longitude":"-89.33333330","name":"Las Pomas"},{"id":"907704","latitude":"14.61666670","longitude":"-89.18333330","name":"Las Pozas"},{"id":"907709","latitude":"14.40000000","longitude":"-89.41666670","name":"Las Presas"},{"id":"907716","latitude":"14.60000000","longitude":"-89.65000000","name":"Las Ruedas"},{"id":"907720","latitude":"14.65000000","longitude":"-89.21666670","name":"Las Sopas"},{"id":"907722","latitude":"14.83333330","longitude":"-89.68333330","name":"Las Tablas"},{"id":"907729","latitude":"14.51666670","longitude":"-89.33333330","name":"Las Toreras"},{"id":"907756","latitude":"14.83333330","longitude":"-89.68333330","name":"La Tablas"},{"id":"907765","latitude":"14.71666670","longitude":"-89.61666670","name":"La Torera"},{"id":"907771","latitude":"14.58333330","longitude":"-89.58333330","name":"La Tuna"},{"id":"907801","latitude":"14.83333330","longitude":"-89.33333330","name":"Lel\u00e1 Chanc\u00f3"},{"id":"907802","latitude":"14.85000000","longitude":"-89.33333330","name":"Lel\u00e1 Obraje"},{"id":"907808","latitude":"14.81666670","longitude":"-89.68333330","name":"Limar"},{"id":"907809","latitude":"14.88333330","longitude":"-89.35000000","name":"Limar Segundo"},{"id":"907815","latitude":"14.48333330","longitude":"-89.46666670","name":"Limones"},{"id":"907820","latitude":"14.53333330","longitude":"-89.35000000","name":"Lim\u00f3n"},{"id":"907826","latitude":"14.51666670","longitude":"-89.43333330","name":"Liquid\u00e1mbar"},{"id":"907828","latitude":"14.53333330","longitude":"-89.46666670","name":"Llanitos"},{"id":"907830","latitude":"14.51666670","longitude":"-89.48333330","name":"Llano Arado"},{"id":"907835","latitude":"14.65000000","longitude":"-89.25000000","name":"Llano de Guerra"},{"id":"907837","latitude":"14.53333330","longitude":"-89.48333330","name":"Llano de las Pitas"},{"id":"907839","latitude":"14.65000000","longitude":"-89.16666670","name":"Llano de los Toros"},{"id":"907845","latitude":"14.61666670","longitude":"-89.50000000","name":"Llano de San Marcos"},{"id":"907847","latitude":"14.66666670","longitude":"-89.40000000","name":"Llano Gal\u00e1n"},{"id":"907850","latitude":"14.43333330","longitude":"-89.50000000","name":"Llano Grande"},{"id":"907856","latitude":"14.56666670","longitude":"-89.50000000","name":"Llano Largo"},{"id":"907862","latitude":"14.73333330","longitude":"-89.16666670","name":"Llano San Gaspar"},{"id":"907885","latitude":"14.61666670","longitude":"-89.18333330","name":"Loma Alta"},{"id":"907892","latitude":"14.73333330","longitude":"-89.60000000","name":"Loma de La Zanja"},{"id":"907897","latitude":"14.78333330","longitude":"-89.26666670","name":"Loma Paja"},{"id":"907903","latitude":"14.48333330","longitude":"-89.58333330","name":"Los Achiotes"},{"id":"907912","latitude":"14.43333330","longitude":"-89.46666670","name":"Los Alambrados"},{"id":"907920","latitude":"14.61666670","longitude":"-89.60000000","name":"Los Amates"},{"id":"907940","latitude":"14.76666670","longitude":"-89.18333330","name":"Los Barcos"},{"id":"907945","latitude":"14.68333330","longitude":"-89.33333330","name":"Los Cajones"},{"id":"907946","latitude":"14.70000000","longitude":"-89.26666670","name":"Los Calzontes"},{"id":"907949","latitude":"14.80000000","longitude":"-89.38333330","name":"Los Cardona"},{"id":"907953","latitude":"14.55000000","longitude":"-89.58333330","name":"Los Cerritos"},{"id":"907976","latitude":"14.68333330","longitude":"-89.63333330","name":"Los Cimientos"},{"id":"907997","latitude":"14.71666670","longitude":"-89.40000000","name":"Los Encuentros"},{"id":"908019","latitude":"14.83333330","longitude":"-89.36666670","name":"Los Hern\u00e1ndez"},{"id":"908020","latitude":"14.55000000","longitude":"-89.70000000","name":"Los Horcones"},{"id":"908059","latitude":"14.70000000","longitude":"-89.51666670","name":"Los Molina"},{"id":"908071","latitude":"14.70000000","longitude":"-89.56666670","name":"Los Palones"},{"id":"908072","latitude":"14.70000000","longitude":"-89.50000000","name":"Los Pastores"},{"id":"908084","latitude":"14.45000000","longitude":"-89.38333330","name":"Los Planes"},{"id":"908102","latitude":"14.76666670","longitude":"-89.61666670","name":"Los Ramos"},{"id":"908139","latitude":"14.61666670","longitude":"-89.33333330","name":"Los Vados"},{"id":"908142","latitude":"14.63333330","longitude":"-89.18333330","name":"Los Varales"},{"id":"908143","latitude":"14.48333330","longitude":"-89.45000000","name":"Los Vasos"},{"id":"908145","latitude":"14.78333330","longitude":"-89.50000000","name":"Los Vidal"},{"id":"908189","latitude":"14.70000000","longitude":"-89.50000000","name":"Majadas"},{"id":"908196","latitude":"14.70000000","longitude":"-89.18333330","name":"Malcinca"},{"id":"908197","latitude":"14.60000000","longitude":"-89.20000000","name":"Malcotal"},{"id":"908200","latitude":"14.76666670","longitude":"-89.25000000","name":"Mal Paso"},{"id":"908229","latitude":"14.85000000","longitude":"-89.58333330","name":"Maraxc\u00f3"},{"id":"908239","latitude":"14.80000000","longitude":"-89.33333330","name":"Marimba"},{"id":"908252","latitude":"14.70000000","longitude":"-89.40000000","name":"Matasano"},{"id":"908273","latitude":"14.61666670","longitude":"-89.48333330","name":"Mesas"},{"id":"908284","latitude":"14.58333330","longitude":"-89.18333330","name":"Mico"},{"id":"908287","latitude":"14.80000000","longitude":"-89.45000000","name":"Mina"},{"id":"908288","latitude":"14.76666670","longitude":"-89.43333330","name":"Minas Abajo"},{"id":"908289","latitude":"14.78333330","longitude":"-89.45000000","name":"Minas Arriba"},{"id":"908295","latitude":"14.51666670","longitude":"-89.31666670","name":"Miramundo"},{"id":"908314","latitude":"14.65000000","longitude":"-89.48333330","name":"Moj\u00f3n"},{"id":"908328","latitude":"14.66666670","longitude":"-89.56666670","name":"Monta\u00f1uela"},{"id":"908329","latitude":"14.51666670","longitude":"-89.45000000","name":"Monte Barroso"},{"id":"908330","latitude":"14.55000000","longitude":"-89.31666670","name":"Montecinos"},{"id":"908334","latitude":"14.65000000","longitude":"-89.55000000","name":"Monte Grande"},{"id":"908343","latitude":"14.75000000","longitude":"-89.16666670","name":"Monteros"},{"id":"908348","latitude":"14.55000000","longitude":"-89.31666670","name":"Montesinos"},{"id":"908359","latitude":"14.80000000","longitude":"-89.50000000","name":"Moral"},{"id":"908360","latitude":"14.53333330","longitude":"-89.53333330","name":"Mora"},{"id":"908361","latitude":"14.60000000","longitude":"-89.56666670","name":"Moran"},{"id":"908369","latitude":"14.91666670","longitude":"-89.20000000","name":"Morola"},{"id":"908370","latitude":"14.80000000","longitude":"-89.50000000","name":"Morral"},{"id":"908371","latitude":"14.65000000","longitude":"-89.46666670","name":"Morro Grande"},{"id":"908383","latitude":"14.81666670","longitude":"-89.28333330","name":"Muyurc\u00f3"},{"id":"908399","latitude":"14.83333330","longitude":"-89.63333330","name":"Nanzal"},{"id":"908406","latitude":"14.78333330","longitude":"-89.30000000","name":"Naranjo"},{"id":"908419","latitude":"14.81666670","longitude":"-89.31666670","name":"Nearar"},{"id":"908424","latitude":"14.81666670","longitude":"-89.30000000","name":"Nenoj\u00e1 Segundo"},{"id":"908443","latitude":"14.66666670","longitude":"-89.38333330","name":"Noch\u00e1n"},{"id":"908471","latitude":"14.46666670","longitude":"-89.48333330","name":"Obraje"},{"id":"908483","latitude":"14.78333330","longitude":"-89.31666670","name":"Ocumbl\u00e1"},{"id":"908488","latitude":"14.86666670","longitude":"-89.41666670","name":"Ojo de Agua Escondido"},{"id":"908490","latitude":"14.65000000","longitude":"-89.25000000","name":"Ojo de Agua"},{"id":"908503","latitude":"14.68333330","longitude":"-89.35000000","name":"Olopa"},{"id":"908504","latitude":"14.61666670","longitude":"-89.30000000","name":"Olopita"},{"id":"908505","latitude":"14.48333330","longitude":"-89.33333330","name":"Olvido"},{"id":"908512","latitude":"14.80000000","longitude":"-89.41666670","name":"Oqu\u00e9n"},{"id":"908516","latitude":"14.56666670","longitude":"-89.58333330","name":"Or\u00e9gano"},{"id":"908518","latitude":"14.61666670","longitude":"-89.56666670","name":"Oscurana"},{"id":"908559","latitude":"14.93333330","longitude":"-89.21666670","name":"Pachoch"},{"id":"908579","latitude":"14.78333330","longitude":"-89.36666670","name":"Pacr\u00e9n"},{"id":"908584","latitude":"14.56666670","longitude":"-89.45000000","name":"Padre Miguel"},{"id":"908588","latitude":"14.73333330","longitude":"-89.51666670","name":"Paij\u00e1"},{"id":"908601","latitude":"14.83333330","longitude":"-89.35000000","name":"Pajc\u00f3"},{"id":"908614","latitude":"14.83333330","longitude":"-89.36666670","name":"Palal\u00e1"},{"id":"908634","latitude":"14.58333330","longitude":"-89.25000000","name":"Palmar"},{"id":"908637","latitude":"14.66666670","longitude":"-89.45000000","name":"Palmilla Abajo"},{"id":"908638","latitude":"14.68333330","longitude":"-89.45000000","name":"Palmilla"},{"id":"908641","latitude":"14.65000000","longitude":"-89.25000000","name":"Palmitas"},{"id":"908649","latitude":"14.51666670","longitude":"-89.58333330","name":"Palo Grande"},{"id":"908654","latitude":"14.56666670","longitude":"-89.35000000","name":"Palo Negro"},{"id":"908724","latitude":"14.63333330","longitude":"-89.50000000","name":"Pa\u00f1os"},{"id":"908779","latitude":"14.68333330","longitude":"-89.18333330","name":"Pasalj\u00e1"},{"id":"908784","latitude":"14.83333330","longitude":"-89.30000000","name":"Pashapa"},{"id":"908791","latitude":"14.83333330","longitude":"-89.50000000","name":"Paso del Credo"},{"id":"908797","latitude":"14.56666670","longitude":"-89.45000000","name":"Pata de Buey"},{"id":"908841","latitude":"14.51666670","longitude":"-89.33333330","name":"Paxashtal"},{"id":"908865","latitude":"14.61666670","longitude":"-89.43333330","name":"Pedregalito"},{"id":"908866","latitude":"14.61666670","longitude":"-89.18333330","name":"Pedregal"},{"id":"908867","latitude":"14.51666670","longitude":"-89.60000000","name":"Pedregoso"},{"id":"908870","latitude":"14.83333330","longitude":"-89.45000000","name":"Pelillo Negro"},{"id":"908871","latitude":"14.83333330","longitude":"-89.45000000","name":"Pelillo"},{"id":"908882","latitude":"14.63333330","longitude":"-89.26666670","name":"Pe\u00f1asco"},{"id":"908891","latitude":"14.78333330","longitude":"-89.33333330","name":"Peric\u00f3n"},{"id":"908892","latitude":"14.68333330","longitude":"-89.16666670","name":"Pericos"},{"id":"908896","latitude":"14.81666670","longitude":"-89.53333330","name":"Petapilla"},{"id":"908900","latitude":"14.83333330","longitude":"-89.33333330","name":"Petent\u00e1"},{"id":"908904","latitude":"14.60000000","longitude":"-89.25000000","name":"Pezote"},{"id":"908915","latitude":"14.80000000","longitude":"-89.25000000","name":"Pie de Las Flores"},{"id":"908921","latitude":"14.68333330","longitude":"-89.28333330","name":"Piedra de Amolar"},{"id":"908925","latitude":"14.75000000","longitude":"-89.38333330","name":"Piedra Parada"},{"id":"908933","latitude":"14.63333330","longitude":"-89.35000000","name":"Piedra Redonda"},{"id":"908940","latitude":"14.55000000","longitude":"-89.51666670","name":"Piedras Gordas"},{"id":"908950","latitude":"14.71666670","longitude":"-89.43333330","name":"Piletas"},{"id":"908952","latitude":"14.61666670","longitude":"-89.26666670","name":"Pinalito"},{"id":"908955","latitude":"14.81666670","longitude":"-89.68333330","name":"Pinal\u00f3n"},{"id":"908956","latitude":"14.61666670","longitude":"-89.26666670","name":"Pinal"},{"id":"908969","latitude":"14.80000000","longitude":"-89.20000000","name":"Pi\u00f1uelas"},{"id":"908981","latitude":"14.50000000","longitude":"-89.36666670","name":"Plan Arada"},{"id":"908983","latitude":"14.50000000","longitude":"-89.36666670","name":"Plan de Arada"},{"id":"908984","latitude":"14.75000000","longitude":"-89.50000000","name":"Plan de Jacote"},{"id":"908985","latitude":"14.50000000","longitude":"-89.36666670","name":"Plan de la Arada"},{"id":"908992","latitude":"14.86666670","longitude":"-89.56666670","name":"Plan del Carmelo"},{"id":"908993","latitude":"14.86666670","longitude":"-89.56666670","name":"Plan del Carmen"},{"id":"908994","latitude":"14.65000000","longitude":"-89.38333330","name":"Plan del Cerro"},{"id":"908995","latitude":"14.70000000","longitude":"-89.46666670","name":"Plan del Conejo"},{"id":"908996","latitude":"14.90000000","longitude":"-89.41666670","name":"Plan del Guapinol"},{"id":"908997","latitude":"14.80000000","longitude":"-89.66666670","name":"Plan del Guineo"},{"id":"908998","latitude":"14.75000000","longitude":"-89.50000000","name":"Plan del Jocote"},{"id":"909003","latitude":"14.53333330","longitude":"-89.41666670","name":"Plan del Tigre"},{"id":"909006","latitude":"14.75000000","longitude":"-89.43333330","name":"Planes"},{"id":"909013","latitude":"14.68333330","longitude":"-89.56666670","name":"Plan Redondo"},{"id":"909053","latitude":"14.61666670","longitude":"-89.50000000","name":"Portezuelo"},{"id":"909056","latitude":"14.48333330","longitude":"-89.35000000","name":"Porvenir"},{"id":"909059","latitude":"14.61666670","longitude":"-89.41666670","name":"Potrerillo"},{"id":"909061","latitude":"14.61666670","longitude":"-89.21666670","name":"Potrerillos"},{"id":"909074","latitude":"14.76666670","longitude":"-89.38333330","name":"Potrero"},{"id":"909083","latitude":"14.61666670","longitude":"-89.18333330","name":"Pozas"},{"id":"909090","latitude":"14.71666670","longitude":"-89.26666670","name":"Prensas"},{"id":"909101","latitude":"14.66666670","longitude":"-89.50000000","name":"Pueblo Nuevo"},{"id":"909114","latitude":"14.50000000","longitude":"-89.51666670","name":"Pueblo Viejo"},{"id":"909177","latitude":"14.80000000","longitude":"-89.23333330","name":"Quebracho"},{"id":"909180","latitude":"14.80000000","longitude":"-89.50000000","name":"Quebrada Arriba"},{"id":"909185","latitude":"14.71666670","longitude":"-89.58333330","name":"Quebrada de L\u00f3pez"},{"id":"909186","latitude":"14.81666670","longitude":"-89.56666670","name":"Quebrada de los Cangrejos"},{"id":"909191","latitude":"14.73333330","longitude":"-89.60000000","name":"Quebrada Los Encuentros"},{"id":"909192","latitude":"14.83333330","longitude":"-89.40000000","name":"Quebrada Seca"},{"id":"909202","latitude":"14.63333330","longitude":"-89.38333330","name":"Quequexque"},{"id":"909206","latitude":"14.58333330","longitude":"-89.25000000","name":"Quesera"},{"id":"909210","latitude":"14.63333330","longitude":"-89.45000000","name":"Quetzaltepeque"},{"id":"909215","latitude":"14.63333330","longitude":"-89.45000000","name":"Quezaltepeque"},{"id":"909279","latitude":"14.63333330","longitude":"-89.43333330","name":"Recibimiento"},{"id":"909302","latitude":"14.60000000","longitude":"-89.40000000","name":"Rinc\u00f3n del Burro"},{"id":"909303","latitude":"14.76666670","longitude":"-89.18333330","name":"Rincon de Leon"},{"id":"909305","latitude":"14.76666670","longitude":"-89.18333330","name":"Rinc\u00f3n del Le\u00f3n"},{"id":"909308","latitude":"14.61666670","longitude":"-89.25000000","name":"Rinc\u00f3n de Mar\u00eda"},{"id":"909309","latitude":"14.85000000","longitude":"-89.46666670","name":"Rinc\u00f3n de Santa B\u00e1rbara"},{"id":"909316","latitude":"14.76666670","longitude":"-89.18333330","name":"Rinc\u00f3n Le\u00f3n"},{"id":"909319","latitude":"14.61666670","longitude":"-89.25000000","name":"Rinc\u00f3n"},{"id":"909323","latitude":"14.71666670","longitude":"-89.41666670","name":"R\u00edo Arriba"},{"id":"909344","latitude":"14.63333330","longitude":"-89.48333330","name":"R\u00edo Grande"},{"id":"909365","latitude":"14.88333330","longitude":"-89.35000000","name":"Roblarcito"},{"id":"909367","latitude":"14.90000000","longitude":"-89.23333330","name":"Roblar\u00f3n"},{"id":"909369","latitude":"14.85000000","longitude":"-89.25000000","name":"Roblar"},{"id":"909370","latitude":"14.81666670","longitude":"-89.70000000","name":"Roble Amarillo"},{"id":"909371","latitude":"14.55000000","longitude":"-89.46666670","name":"Roble Gacho"},{"id":"909373","latitude":"14.53333330","longitude":"-89.45000000","name":"Rode\u00edto"},{"id":"909376","latitude":"14.51666670","longitude":"-89.53333330","name":"Rodeo El Espino"},{"id":"909377","latitude":"14.51666670","longitude":"-89.53333330","name":"Rodeo Espino"},{"id":"909378","latitude":"14.50000000","longitude":"-89.48333330","name":"Rodeo Las Lajas"},{"id":"909380","latitude":"14.66666670","longitude":"-89.28333330","name":"Rodeo"},{"id":"909388","latitude":"14.60000000","longitude":"-89.56666670","name":"Rosario"},{"id":"909408","latitude":"14.75000000","longitude":"-89.53333330","name":"Sabana Grande"},{"id":"909412","latitude":"14.81666670","longitude":"-89.60000000","name":"Sabanetas"},{"id":"909443","latitude":"14.51666670","longitude":"-89.50000000","name":"Sacramento"},{"id":"909471","latitude":"14.60000000","longitude":"-89.45000000","name":"Salfate Abajo"},{"id":"909472","latitude":"14.60000000","longitude":"-89.45000000","name":"Salfate"},{"id":"909479","latitude":"14.65000000","longitude":"-89.21666670","name":"Salitre"},{"id":"909482","latitude":"14.70000000","longitude":"-89.46666670","name":"Salitr\u00f3n"},{"id":"909533","latitude":"14.71666670","longitude":"-89.43333330","name":"San Antonio Lajas"},{"id":"909557","latitude":"14.46666670","longitude":"-89.50000000","name":"San Antonio"},{"id":"909595","latitude":"14.66666670","longitude":"-89.60000000","name":"San Cayetano"},{"id":"909617","latitude":"14.75000000","longitude":"-89.51666670","name":"San Esteban"},{"id":"909631","latitude":"14.61666670","longitude":"-89.23333330","name":"San Francisco Buena Vista"},{"id":"909646","latitude":"14.55000000","longitude":"-89.68333330","name":"San Francisco"},{"id":"909661","latitude":"14.73333330","longitude":"-89.16666670","name":"San Gaspar"},{"id":"909681","latitude":"14.58333330","longitude":"-89.18333330","name":"San Isidro"},{"id":"909689","latitude":"14.61666670","longitude":"-89.48333330","name":"San Jacintillo"},{"id":"909692","latitude":"14.66666670","longitude":"-89.50000000","name":"San Jacinto"},{"id":"909700","latitude":"14.53333330","longitude":"-89.36666670","name":"San Joaqu\u00edn"},{"id":"909705","latitude":"14.66666670","longitude":"-89.51666670","name":"San Jorge"},{"id":"909708","latitude":"14.71666670","longitude":"-89.58333330","name":"San Jos\u00e9 Arada"},{"id":"909728","latitude":"14.71666670","longitude":"-89.58333330","name":"San Jos\u00e9 La Arada"},{"id":"909733","latitude":"14.78333330","longitude":"-89.20000000","name":"San Jos\u00e9 Las L\u00e1grimas"},{"id":"909750","latitude":"14.55000000","longitude":"-89.38333330","name":"San Jos\u00e9"},{"id":"909774","latitude":"14.76666670","longitude":"-89.43333330","name":"San Juan de la Ermita"},{"id":"909778","latitude":"14.76666670","longitude":"-89.43333330","name":"San Juan Ermita"},{"id":"909793","latitude":"14.56666670","longitude":"-89.53333330","name":"San Juan"},{"id":"909829","latitude":"14.66666670","longitude":"-89.63333330","name":"San Luis"},{"id":"909842","latitude":"14.53333330","longitude":"-89.53333330","name":"San Marcos"},{"id":"909881","latitude":"14.71666670","longitude":"-89.20000000","name":"San Miguel Map\u00e1"},{"id":"909887","latitude":"14.68333330","longitude":"-89.58333330","name":"San Miguel"},{"id":"909899","latitude":"14.53333330","longitude":"-89.33333330","name":"San Nicol\u00e1s"},{"id":"910014","latitude":"14.85000000","longitude":"-89.48333330","name":"Santa B\u00e1rbara"},{"id":"910050","latitude":"14.63333330","longitude":"-89.53333330","name":"Santa Cruz"},{"id":"910061","latitude":"14.71666670","longitude":"-89.50000000","name":"Santa Elena"},{"id":"910104","latitude":"14.65000000","longitude":"-89.35000000","name":"Santa Mar\u00eda"},{"id":"910130","latitude":"14.55000000","longitude":"-89.33333330","name":"Santa Rosal\u00eda"},{"id":"910135","latitude":"14.68333330","longitude":"-89.60000000","name":"Santa Rosa"},{"id":"910147","latitude":"14.58333330","longitude":"-89.43333330","name":"Santa Teresa"},{"id":"910227","latitude":"14.71666670","longitude":"-89.55000000","name":"Sasp\u00e1n"},{"id":"910231","latitude":"14.76666670","longitude":"-89.66666670","name":"Sauce"},{"id":"910349","latitude":"14.93333330","longitude":"-89.20000000","name":"Sesesmilito"},{"id":"910370","latitude":"14.78333330","longitude":"-89.25000000","name":"Shalagu\u00e1"},{"id":"910376","latitude":"14.86666670","longitude":"-89.28333330","name":"Shup\u00e1 Primero"},{"id":"910377","latitude":"14.86666670","longitude":"-89.26666670","name":"Shup\u00e1 Segundo"},{"id":"910378","latitude":"14.86666670","longitude":"-89.28333330","name":"Shup\u00e1"},{"id":"910379","latitude":"14.81666670","longitude":"-89.55000000","name":"Shusho Abajo"},{"id":"910380","latitude":"14.83333330","longitude":"-89.60000000","name":"Shusho Arriba"},{"id":"910381","latitude":"14.81666670","longitude":"-89.55000000","name":"Shusho"},{"id":"910433","latitude":"14.48333330","longitude":"-89.43333330","name":"Socorro"},{"id":"910434","latitude":"14.83333330","longitude":"-89.28333330","name":"Socotoco"},{"id":"910435","latitude":"14.51666670","longitude":"-89.46666670","name":"Solapado"},{"id":"910452","latitude":"14.60000000","longitude":"-89.45000000","name":"Soyate"},{"id":"910461","latitude":"14.80000000","longitude":"-89.43333330","name":"Suchiquer"},{"id":"910466","latitude":"14.71666670","longitude":"-89.16666670","name":"Sulay"},{"id":"910477","latitude":"14.91666670","longitude":"-89.20000000","name":"Suspiro"},{"id":"910479","latitude":"14.63333330","longitude":"-89.61666670","name":"Suyate"},{"id":"910485","latitude":"14.68333330","longitude":"-89.15000000","name":"Tabloncito"},{"id":"910486","latitude":"14.71666670","longitude":"-89.31666670","name":"Tabl\u00f3n de Cayur"},{"id":"910487","latitude":"14.68333330","longitude":"-89.23333330","name":"Tabl\u00f3n de G\u00e1mez"},{"id":"910488","latitude":"14.68333330","longitude":"-89.23333330","name":"Tabl\u00f3n de G\u00f3mez"},{"id":"910489","latitude":"14.83333330","longitude":"-89.48333330","name":"Tabl\u00f3n del Ocotal"},{"id":"910491","latitude":"14.71666670","longitude":"-89.16666670","name":"Tabl\u00f3n de Sulay"},{"id":"910492","latitude":"14.78333330","longitude":"-89.18333330","name":"Tablones"},{"id":"910495","latitude":"14.63333330","longitude":"-89.53333330","name":"Tabl\u00f3n"},{"id":"910503","latitude":"14.93333330","longitude":"-89.21666670","name":"Tachoche"},{"id":"910504","latitude":"14.93333330","longitude":"-89.21666670","name":"Tachote"},{"id":"910505","latitude":"14.78333330","longitude":"-89.60000000","name":"Tac\u00f3 Arriba"},{"id":"910507","latitude":"14.58333330","longitude":"-89.51666670","name":"Tacuent\u00e9"},{"id":"910519","latitude":"14.85000000","longitude":"-89.26666670","name":"Taj\u00fan"},{"id":"910522","latitude":"14.81666670","longitude":"-89.35000000","name":"Talco"},{"id":"910530","latitude":"14.70000000","longitude":"-89.35000000","name":"Talquesal"},{"id":"910531","latitude":"14.70000000","longitude":"-89.35000000","name":"Talquezal"},{"id":"910538","latitude":"14.73333330","longitude":"-89.63333330","name":"Tambor"},{"id":"910541","latitude":"14.76666670","longitude":"-89.60000000","name":"Tamiz"},{"id":"910551","latitude":"14.78333330","longitude":"-89.25000000","name":"Tansh\u00e1"},{"id":"910556","latitude":"14.86666670","longitude":"-89.46666670","name":"Tapaz\u00e1n"},{"id":"910560","latitude":"14.85000000","longitude":"-89.38333330","name":"Tapu\u00e1n"},{"id":"910563","latitude":"14.65000000","longitude":"-89.25000000","name":"Tareas"},{"id":"910564","latitude":"14.91666670","longitude":"-89.18333330","name":"Tarral"},{"id":"910565","latitude":"14.75000000","longitude":"-89.61666670","name":"Tash\u00e1n"},{"id":"910566","latitude":"14.71666670","longitude":"-89.40000000","name":"Tasharja"},{"id":"910572","latitude":"14.76666670","longitude":"-89.31666670","name":"Tatut\u00fa"},{"id":"910573","latitude":"14.71666670","longitude":"-89.40000000","name":"Taxarj\u00e1"},{"id":"910578","latitude":"14.51666670","longitude":"-89.30000000","name":"Tecomapa"},{"id":"910611","latitude":"14.85000000","longitude":"-89.38333330","name":"Tepu\u00e1n"},{"id":"910616","latitude":"14.76666670","longitude":"-89.63333330","name":"Terrero Barroso"},{"id":"910618","latitude":"14.85000000","longitude":"-89.46666670","name":"Terrero"},{"id":"910624","latitude":"14.76666670","longitude":"-89.38333330","name":"Tesoro Arriba"},{"id":"910626","latitude":"14.78333330","longitude":"-89.40000000","name":"Tesoro"},{"id":"910632","latitude":"14.71666670","longitude":"-89.46666670","name":"Ticanl\u00fa"},{"id":"910633","latitude":"14.70000000","longitude":"-89.23333330","name":"Tichac"},{"id":"910635","latitude":"14.71666670","longitude":"-89.55000000","name":"Tierra Blanca"},{"id":"910641","latitude":"14.58333330","longitude":"-89.33333330","name":"Tierra Colorada"},{"id":"910660","latitude":"14.80000000","longitude":"-89.30000000","name":"Timt\u00e9"},{"id":"910661","latitude":"14.71666670","longitude":"-89.18333330","name":"Timush\u00e1n"},{"id":"910663","latitude":"14.71666670","longitude":"-89.18333330","name":"Timux\u00e1n"},{"id":"910666","latitude":"14.81666670","longitude":"-89.26666670","name":"Tinajas"},{"id":"910675","latitude":"14.91666670","longitude":"-89.23333330","name":"Tisamart\u00e9"},{"id":"910677","latitude":"14.81666670","longitude":"-89.26666670","name":"Tishint\u00e9"},{"id":"910678","latitude":"14.81666670","longitude":"-89.33333330","name":"Tisipe"},{"id":"910679","latitude":"14.48333330","longitude":"-89.50000000","name":"Tisiz\u00f3n"},{"id":"910680","latitude":"14.70000000","longitude":"-89.51666670","name":"Tisubin"},{"id":"910681","latitude":"14.71666670","longitude":"-89.36666670","name":"Tituc"},{"id":"910682","latitude":"14.66666670","longitude":"-89.38333330","name":"Tituque"},{"id":"910686","latitude":"14.81666670","longitude":"-89.26666670","name":"Tixint\u00e9"},{"id":"910687","latitude":"14.55000000","longitude":"-89.36666670","name":"Tizaqu\u00edn"},{"id":"910688","latitude":"14.70000000","longitude":"-89.51666670","name":"Tizub\u00edn"},{"id":"910691","latitude":"14.71666670","longitude":"-89.65000000","name":"Tobar"},{"id":"910718","latitude":"14.88333330","longitude":"-89.28333330","name":"Toma de Agua"},{"id":"910725","latitude":"14.61666670","longitude":"-89.28333330","name":"Tontola"},{"id":"910726","latitude":"14.61666670","longitude":"-89.28333330","name":"Tontoles"},{"id":"910727","latitude":"14.61666670","longitude":"-89.28333330","name":"Tontolos"},{"id":"910728","latitude":"14.61666670","longitude":"-89.28333330","name":"Tontolo"},{"id":"910729","latitude":"14.75000000","longitude":"-89.63333330","name":"Tontol"},{"id":"910744","latitude":"14.76666670","longitude":"-89.26666670","name":"Trapichitos"},{"id":"910747","latitude":"14.76666670","longitude":"-89.26666670","name":"Trapichito"},{"id":"910753","latitude":"14.68333330","longitude":"-89.58333330","name":"Tres Ceibas"},{"id":"910796","latitude":"14.80000000","longitude":"-89.28333330","name":"Tular"},{"id":"910806","latitude":"14.58333330","longitude":"-89.58333330","name":"Tunal"},{"id":"910808","latitude":"14.58333330","longitude":"-89.58333330","name":"Tuna"},{"id":"910812","latitude":"14.76666670","longitude":"-89.36666670","name":"Tunuc\u00f3 Abajo"},{"id":"910813","latitude":"14.75000000","longitude":"-89.35000000","name":"Tunuc\u00f3"},{"id":"910819","latitude":"14.71666670","longitude":"-89.35000000","name":"Tuticopote Abajo"},{"id":"910820","latitude":"14.71666670","longitude":"-89.33333330","name":"Tuticopote Arriba"},{"id":"910821","latitude":"14.71666670","longitude":"-89.35000000","name":"Tuticopote"},{"id":"910822","latitude":"14.71666670","longitude":"-89.36666670","name":"Tutico"},{"id":"910869","latitude":"14.80000000","longitude":"-89.66666670","name":"Uni\u00f3n"},{"id":"910883","latitude":"14.73333330","longitude":"-89.50000000","name":"Vado Ancho"},{"id":"910887","latitude":"14.73333330","longitude":"-89.50000000","name":"Vado Hondo"},{"id":"910895","latitude":"14.41666670","longitude":"-89.50000000","name":"Valeriano"},{"id":"910897","latitude":"14.50000000","longitude":"-89.45000000","name":"Valle Arriba"},{"id":"910899","latitude":"14.60000000","longitude":"-89.33333330","name":"Valle de Dolores"},{"id":"910900","latitude":"14.58333330","longitude":"-89.20000000","name":"Valle de Jes\u00fas"},{"id":"910901","latitude":"14.61666670","longitude":"-89.48333330","name":"Valle de los Portillo"},{"id":"910902","latitude":"14.50000000","longitude":"-89.43333330","name":"Valle Dolores"},{"id":"910903","latitude":"14.50000000","longitude":"-89.51666670","name":"Valle El Platanar"},{"id":"910904","latitude":"14.68333330","longitude":"-89.28333330","name":"Valle Nuevo"},{"id":"910909","latitude":"14.63333330","longitude":"-89.18333330","name":"Varales"},{"id":"910915","latitude":"14.76666670","longitude":"-89.56666670","name":"Vega Arriba"},{"id":"910927","latitude":"14.75000000","longitude":"-89.45000000","name":"Veguitas"},{"id":"910955","latitude":"14.46666670","longitude":"-89.40000000","name":"Volcancitos"},{"id":"910957","latitude":"14.90000000","longitude":"-89.35000000","name":"Volc\u00e1n"},{"id":"910959","latitude":"14.81666670","longitude":"-89.56666670","name":"Vuelta del Guayac\u00e1n"},{"id":"910960","latitude":"14.75000000","longitude":"-89.45000000","name":"Vuelta El Roble"},{"id":"910962","latitude":"14.56666670","longitude":"-89.36666670","name":"Vuelta Grande"},{"id":"910979","latitude":"14.78333330","longitude":"-89.25000000","name":"Xalagu\u00e1"},{"id":"911114","latitude":"14.76666670","longitude":"-89.58333330","name":"Xororagu\u00e1"},{"id":"911153","latitude":"14.63333330","longitude":"-89.50000000","name":"Yerbabuena"},{"id":"911160","latitude":"14.63333330","longitude":"-89.43333330","name":"Yoc\u00f3n"},{"id":"911197","latitude":"14.60000000","longitude":"-89.21666670","name":"Zapotal"},{"id":"911208","latitude":"14.61666670","longitude":"-89.21666670","name":"Zarzal"},{"id":"911210","latitude":"14.90000000","longitude":"-89.43333330","name":"Zarzamora"},{"id":"911211","latitude":"14.66666670","longitude":"-89.61666670","name":"Zarzona"}]