[{"id":"911246","latitude":"12.31666670","longitude":"-14.40000000","name":"\u00c1fi\u00e0"},{"id":"911247","latitude":"12.36666670","longitude":"-13.66666670","name":"\u00c1fia Ba Demba"},{"id":"911248","latitude":"12.36666670","longitude":"-13.66666670","name":"\u00c1fi\u00e0 Demba"},{"id":"911249","latitude":"12.21666670","longitude":"-14.36666670","name":"\u00c1fi\u00e0 Demba Jamanca"},{"id":"911250","latitude":"12.65000000","longitude":"-14.16666670","name":"\u00c1fi\u00e0 do Governador"},{"id":"911260","latitude":"12.41666670","longitude":"-13.93333330","name":"Alafissa"},{"id":"911266","latitude":"12.30000000","longitude":"-14.10000000","name":"Alf\u00e1"},{"id":"911271","latitude":"12.26666670","longitude":"-14.25000000","name":"Aliu"},{"id":"911272","latitude":"12.36666670","longitude":"-14.31666670","name":"Aliu Bur\u00e8"},{"id":"911276","latitude":"12.05000000","longitude":"-14.01666670","name":"Almane Fonsom"},{"id":"911277","latitude":"12.41666670","longitude":"-14.23333330","name":"Ama Seidi"},{"id":"911295","latitude":"12.18333330","longitude":"-14.35000000","name":"Amedalai"},{"id":"911305","latitude":"12.45000000","longitude":"-13.70000000","name":"Amora"},{"id":"911339","latitude":"11.96666670","longitude":"-14.25000000","name":"Andebe"},{"id":"911392","latitude":"12.41666670","longitude":"-13.91666670","name":"B\u00e1car Chucael"},{"id":"911394","latitude":"12.31666670","longitude":"-14.45000000","name":"Bacar Djau"},{"id":"911396","latitude":"12.31666670","longitude":"-14.45000000","name":"B\u00e1car Jau"},{"id":"911397","latitude":"12.28333330","longitude":"-14.01666670","name":"B\u00e1car J\u00faler\u00e8"},{"id":"911413","latitude":"12.63333330","longitude":"-14.08333330","name":"Badjocunda"},{"id":"911429","latitude":"12.31666670","longitude":"-13.75000000","name":"Baguia"},{"id":"911440","latitude":"12.41666670","longitude":"-14.25000000","name":"Bajefa"},{"id":"911445","latitude":"12.63333330","longitude":"-14.08333330","name":"Bajocunda"},{"id":"911470","latitude":"12.43333330","longitude":"-14.20000000","name":"Bambadinca"},{"id":"911505","latitude":"12.41666670","longitude":"-14.40000000","name":"Banim"},{"id":"911512","latitude":"12.33333330","longitude":"-13.68333330","name":"Banjara"},{"id":"911513","latitude":"12.38333330","longitude":"-13.71666670","name":"Banjulo"},{"id":"911533","latitude":"12.33333330","longitude":"-14.15000000","name":"Bantanj\u00ea Alimo"},{"id":"911534","latitude":"12.33333330","longitude":"-14.15000000","name":"Bantanj\u00ea"},{"id":"911535","latitude":"12.40000000","longitude":"-14.28333330","name":"Bantanquelim"},{"id":"911536","latitude":"12.25000000","longitude":"-14.01666670","name":"Bantanquilim"},{"id":"911537","latitude":"12.18333330","longitude":"-14.15000000","name":"Bantanto"},{"id":"911538","latitude":"12.18333330","longitude":"-14.15000000","name":"Bantanto Bat\u00f3"},{"id":"911540","latitude":"12.20000000","longitude":"-14.15000000","name":"Bantanto Jaia"},{"id":"911610","latitude":"11.85000000","longitude":"-13.93333330","name":"Bele"},{"id":"911619","latitude":"11.85000000","longitude":"-13.93333330","name":"B\u00e9li"},{"id":"911639","latitude":"12.30000000","longitude":"-14.03333330","name":"Bentem"},{"id":"911640","latitude":"12.30000000","longitude":"-14.01666670","name":"Bentem Jac\u00e1b\u00e8"},{"id":"911658","latitude":"12.48333330","longitude":"-14.10000000","name":"B\u00e8ss\u00e8cunda"},{"id":"911723","latitude":"12.35000000","longitude":"-13.90000000","name":"Binan Alimo"},{"id":"911724","latitude":"12.35000000","longitude":"-13.90000000","name":"Binan Sambael"},{"id":"911755","latitude":"12.41666670","longitude":"-14.16666670","name":"Biricunda"},{"id":"911759","latitude":"12.41666670","longitude":"-14.16666670","name":"Birocunda"},{"id":"911835","latitude":"12.58333330","longitude":"-14.05000000","name":"Bodeel"},{"id":"911870","latitude":"12.33333330","longitude":"-14.35000000","name":"Bonj\u00e8"},{"id":"911873","latitude":"12.18333330","longitude":"-14.15000000","name":"Bontanto"},{"id":"911881","latitude":"12.40000000","longitude":"-13.88333330","name":"Boual Caium"},{"id":"911893","latitude":"12.31666670","longitude":"-14.33333330","name":"Bravracunda"},{"id":"911923","latitude":"12.31666670","longitude":"-13.73333330","name":"Buclir\u00e9 \u00c3fia"},{"id":"911930","latitude":"12.31666670","longitude":"-13.73333330","name":"Bucur\u00e9 \u00c1fi\u00e0"},{"id":"911931","latitude":"12.30000000","longitude":"-13.73333330","name":"Bucur\u00e9 Concha"},{"id":"911932","latitude":"12.30000000","longitude":"-13.73333330","name":"Bucur\u00e9 Cunja"},{"id":"911933","latitude":"12.31666670","longitude":"-13.70000000","name":"Bucur\u00e9 Dadi"},{"id":"911934","latitude":"12.31666670","longitude":"-13.70000000","name":"Bucur\u00e9 Dara"},{"id":"911935","latitude":"12.30000000","longitude":"-13.75000000","name":"Bucur\u00e9 More"},{"id":"911936","latitude":"12.30000000","longitude":"-13.75000000","name":"Bucur\u00e9 Mori"},{"id":"911944","latitude":"12.45000000","longitude":"-14.31666670","name":"Bufate"},{"id":"911945","latitude":"12.45000000","longitude":"-14.31666670","name":"Bufati"},{"id":"911947","latitude":"12.13333330","longitude":"-13.96666670","name":"Bufenage"},{"id":"911954","latitude":"12.33333330","longitude":"-13.90000000","name":"Bugudu"},{"id":"911966","latitude":"12.38333330","longitude":"-14.30000000","name":"Buma"},{"id":"911986","latitude":"11.93333330","longitude":"-14.28333330","name":"Burmelem"},{"id":"911988","latitude":"11.93333330","longitude":"-14.28333330","name":"Burmeleu"},{"id":"911993","latitude":"11.90000000","longitude":"-13.76666670","name":"Burquel\u00eam"},{"id":"912000","latitude":"12.43333330","longitude":"-13.65000000","name":"Buruntuma"},{"id":"912031","latitude":"12.23333330","longitude":"-14.40000000","name":"Cab\u00e9l\u00e8"},{"id":"912044","latitude":"12.11666670","longitude":"-14.05000000","name":"Caboca"},{"id":"912054","latitude":"12.23333330","longitude":"-14.15000000","name":"Cabosare"},{"id":"912068","latitude":"12.11666670","longitude":"-14.05000000","name":"Cabuca"},{"id":"912077","latitude":"12.45000000","longitude":"-14.10000000","name":"Cacandi"},{"id":"912085","latitude":"12.51666670","longitude":"-13.83333330","name":"C\u00e1chaj\u00e0"},{"id":"912095","latitude":"12.51666670","longitude":"-13.85000000","name":"Cach\u00e1qu\u00e8"},{"id":"912116","latitude":"12.28333330","longitude":"-14.28333330","name":"Cadam"},{"id":"912119","latitude":"12.55000000","longitude":"-14.31666670","name":"Cadeu"},{"id":"912128","latitude":"12.15000000","longitude":"-14.38333330","name":"Cadunc\u00f3"},{"id":"912129","latitude":"12.43333330","longitude":"-13.66666670","name":"Cael Bessel"},{"id":"912130","latitude":"12.43333330","longitude":"-13.66666670","name":"Cael Jessel"},{"id":"912131","latitude":"12.36666670","longitude":"-13.73333330","name":"C\u00e3 Era"},{"id":"912147","latitude":"12.31666670","longitude":"-14.25000000","name":"Caiada"},{"id":"912154","latitude":"12.36666670","longitude":"-13.73333330","name":"Caiera"},{"id":"912193","latitude":"12.51666670","longitude":"-13.85000000","name":"Calhaqu\u00ea"},{"id":"912196","latitude":"12.38333330","longitude":"-14.36666670","name":"Calicunda"},{"id":"912207","latitude":"12.53333330","longitude":"-13.88333330","name":"Camab\u00e9"},{"id":"912209","latitude":"12.28333330","longitude":"-14.01666670","name":"Camadina"},{"id":"912213","latitude":"12.36666670","longitude":"-13.76666670","name":"Camaj\u00e1b\u00e0"},{"id":"912215","latitude":"12.21666670","longitude":"-14.05000000","name":"Camalij\u00e0"},{"id":"912216","latitude":"12.53333330","longitude":"-14.15000000","name":"Camalij\u00e0 S\u00f3"},{"id":"912217","latitude":"12.53333330","longitude":"-14.15000000","name":"Camalij\u00e1 Sori"},{"id":"912220","latitude":"12.36666670","longitude":"-14.41666670","name":"C\u00e3 Mamudo"},{"id":"912221","latitude":"12.38333330","longitude":"-14.08333330","name":"Camamudo"},{"id":"912222","latitude":"12.38333330","longitude":"-14.08333330","name":"Camamudu"},{"id":"912223","latitude":"12.41666670","longitude":"-14.31666670","name":"Camanca"},{"id":"912226","latitude":"12.36666670","longitude":"-14.45000000","name":"Camand\u00e9"},{"id":"912227","latitude":"12.20000000","longitude":"-14.45000000","name":"Caman\u00e9"},{"id":"912237","latitude":"12.60000000","longitude":"-13.81666670","name":"Camassale"},{"id":"912240","latitude":"12.30000000","longitude":"-14.05000000","name":"Cambaj\u00e3"},{"id":"912245","latitude":"12.43333330","longitude":"-14.11666670","name":"Cambana"},{"id":"912259","latitude":"12.50000000","longitude":"-13.86666670","name":"Cambesse"},{"id":"912260","latitude":"12.21666670","longitude":"-14.11666670","name":"Cambian"},{"id":"912262","latitude":"12.21666670","longitude":"-14.11666670","name":"Camboido"},{"id":"912265","latitude":"12.40000000","longitude":"-13.93333330","name":"Cambor"},{"id":"912268","latitude":"12.08333330","longitude":"-14.23333330","name":"Cam Chaduli"},{"id":"912280","latitude":"12.03333330","longitude":"-14.15000000","name":"Cam Guir\u00f3"},{"id":"912283","latitude":"12.28333330","longitude":"-14.01666670","name":"Camidina"},{"id":"912288","latitude":"12.36666670","longitude":"-14.41666670","name":"Cam Mamude"},{"id":"912292","latitude":"12.65000000","longitude":"-13.76666670","name":"C\u00e3mori"},{"id":"912294","latitude":"12.63333330","longitude":"-13.83333330","name":"Camp\u00e3"},{"id":"912300","latitude":"12.46666670","longitude":"-13.85000000","name":"Campaf\u00e8"},{"id":"912301","latitude":"12.53333330","longitude":"-13.95000000","name":"Campaio"},{"id":"912317","latitude":"12.58333330","longitude":"-13.85000000","name":"Cam Quelif\u00e1"},{"id":"912320","latitude":"12.03333330","longitude":"-14.21666670","name":"Cam Samba"},{"id":"912321","latitude":"11.95000000","longitude":"-14.28333330","name":"Cam Samba Gano"},{"id":"912322","latitude":"12.23333330","longitude":"-14.11666670","name":"Cam Sambel"},{"id":"912323","latitude":"12.18333330","longitude":"-14.36666670","name":"Cam Siss\u00e9"},{"id":"912325","latitude":"12.48333330","longitude":"-13.70000000","name":"Camunda"},{"id":"912327","latitude":"12.60000000","longitude":"-13.81666670","name":"Camussali"},{"id":"912338","latitude":"12.48333330","longitude":"-13.75000000","name":"Canchalica"},{"id":"912345","latitude":"12.20000000","longitude":"-14.38333330","name":"Canchumo"},{"id":"912352","latitude":"12.41666670","longitude":"-13.66666670","name":"Cancod\u00e9"},{"id":"912371","latitude":"12.25000000","longitude":"-14.33333330","name":"Candati Fula"},{"id":"912375","latitude":"12.35000000","longitude":"-13.73333330","name":"Candemba"},{"id":"912385","latitude":"12.08333330","longitude":"-14.23333330","name":"Candjaduli"},{"id":"912389","latitude":"12.08333330","longitude":"-14.20000000","name":"Canducur\u00e9"},{"id":"912390","latitude":"12.08333330","longitude":"-14.20000000","name":"Candugurei"},{"id":"912391","latitude":"12.30000000","longitude":"-14.46666670","name":"Canebor\u00e3"},{"id":"912393","latitude":"12.36666670","longitude":"-14.11666670","name":"Cane"},{"id":"912399","latitude":"12.55000000","longitude":"-13.86666670","name":"Canfanta"},{"id":"912402","latitude":"12.21666670","longitude":"-14.36666670","name":"Canfara"},{"id":"912411","latitude":"12.20000000","longitude":"-14.33333330","name":"Cangid\u00e9"},{"id":"912412","latitude":"12.03333330","longitude":"-14.15000000","name":"Canguir\u00f3"},{"id":"912413","latitude":"12.21666670","longitude":"-14.18333330","name":"Cangurd\u00f3"},{"id":"912414","latitude":"12.46666670","longitude":"-13.80000000","name":"Canh\u00e0"},{"id":"912417","latitude":"12.33333330","longitude":"-13.93333330","name":"Canhamando"},{"id":"912419","latitude":"12.33333330","longitude":"-13.93333330","name":"Canhamondo"},{"id":"912420","latitude":"12.33333330","longitude":"-13.95000000","name":"Canhanicunda"},{"id":"912422","latitude":"12.31666670","longitude":"-14.21666670","name":"Canhanque"},{"id":"912424","latitude":"12.31666670","longitude":"-14.21666670","name":"Canhaque"},{"id":"912426","latitude":"11.96666670","longitude":"-14.31666670","name":"Canhida"},{"id":"912429","latitude":"12.36666670","longitude":"-14.11666670","name":"Cani"},{"id":"912435","latitude":"12.08333330","longitude":"-14.23333330","name":"Canjadude"},{"id":"912436","latitude":"12.41666670","longitude":"-13.88333330","name":"Canjaiba"},{"id":"912448","latitude":"12.33333330","longitude":"-14.08333330","name":"Canjamo"},{"id":"912455","latitude":"12.43333330","longitude":"-14.43333330","name":"Canjomba"},{"id":"912456","latitude":"12.43333330","longitude":"-14.13333330","name":"Canjufa"},{"id":"912461","latitude":"12.28333330","longitude":"-14.21666670","name":"Canquelif\u00e1"},{"id":"912467","latitude":"12.53333330","longitude":"-14.20000000","name":"Cansal\u00e1"},{"id":"912470","latitude":"12.25000000","longitude":"-14.30000000","name":"Cansamang\u00ea"},{"id":"912472","latitude":"12.25000000","longitude":"-14.30000000","name":"Cansamanj\u00ea"},{"id":"912474","latitude":"12.03333330","longitude":"-14.21666670","name":"Cansamba"},{"id":"912482","latitude":"12.18333330","longitude":"-14.36666670","name":"Cansiss\u00e9"},{"id":"912484","latitude":"12.23333330","longitude":"-14.11666670","name":"Cansombel"},{"id":"912492","latitude":"12.55000000","longitude":"-14.35000000","name":"Cantacoi Cunda"},{"id":"912494","latitude":"12.38333330","longitude":"-13.81666670","name":"Cantacunda"},{"id":"912495","latitude":"12.55000000","longitude":"-14.35000000","name":"Cantaelcunda"},{"id":"912500","latitude":"12.51666670","longitude":"-14.11666670","name":"Cantari"},{"id":"912509","latitude":"12.63333330","longitude":"-13.85000000","name":"Cantir"},{"id":"912510","latitude":"12.63333330","longitude":"-13.85000000","name":"Cantire"},{"id":"912511","latitude":"12.61666670","longitude":"-14.06666670","name":"Canto Cunda"},{"id":"912519","latitude":"12.31666670","longitude":"-14.46666670","name":"Cantur\u00e8"},{"id":"912527","latitude":"12.38333330","longitude":"-13.93333330","name":"Capassa"},{"id":"912538","latitude":"12.38333330","longitude":"-13.93333330","name":"Capossa"},{"id":"912546","latitude":"12.43333330","longitude":"-14.21666670","name":"Carabele"},{"id":"912547","latitude":"12.43333330","longitude":"-14.21666670","name":"Carabeli"},{"id":"912552","latitude":"12.33333330","longitude":"-14.10000000","name":"Carantab\u00e1"},{"id":"912608","latitude":"12.63333330","longitude":"-13.75000000","name":"Cassum"},{"id":"912609","latitude":"12.46666670","longitude":"-13.63333330","name":"Catab\u00e1"},{"id":"912610","latitude":"12.30000000","longitude":"-14.28333330","name":"Cat\u00e1b\u00e0 Fali"},{"id":"912635","latitude":"12.53333330","longitude":"-14.11666670","name":"Cati"},{"id":"912657","latitude":"12.66666670","longitude":"-13.90000000","name":"Ca\u00fana"},{"id":"912703","latitude":"12.56666670","longitude":"-13.88333330","name":"Charim Futa"},{"id":"912706","latitude":"12.58333330","longitude":"-13.75000000","name":"Chauar\u00e0"},{"id":"912707","latitude":"11.91666670","longitude":"-14.21666670","name":"Ch\u00e9ch\u00e9"},{"id":"912713","latitude":"12.38333330","longitude":"-14.01666670","name":"Cherno Sado"},{"id":"912714","latitude":"12.18333330","longitude":"-14.43333330","name":"Cheual"},{"id":"912715","latitude":"12.66666670","longitude":"-14.13333330","name":"Cheuel Bessel Demba"},{"id":"912717","latitude":"12.26666670","longitude":"-14.10000000","name":"Cheuibessi"},{"id":"912738","latitude":"11.90000000","longitude":"-13.88333330","name":"Chuluge"},{"id":"912746","latitude":"12.28333330","longitude":"-14.40000000","name":"Cima"},{"id":"912752","latitude":"12.28333330","longitude":"-13.93333330","name":"Coache"},{"id":"912753","latitude":"12.21666670","longitude":"-14.20000000","name":"Coaina"},{"id":"912759","latitude":"12.35000000","longitude":"-14.23333330","name":"Cocar"},{"id":"912760","latitude":"12.35000000","longitude":"-14.23333330","name":"Cocari"},{"id":"912763","latitude":"12.43333330","longitude":"-13.96666670","name":"C\u00f3d\u00e8"},{"id":"912764","latitude":"12.50000000","longitude":"-14.01666670","name":"Cod\u00e9 Sane"},{"id":"912766","latitude":"12.65000000","longitude":"-13.91666670","name":"Cof\u00e1"},{"id":"912767","latitude":"12.43333330","longitude":"-13.93333330","name":"Cofai"},{"id":"912768","latitude":"12.31666670","longitude":"-14.25000000","name":"Coiada"},{"id":"912771","latitude":"12.26666670","longitude":"-14.00000000","name":"Cojane"},{"id":"912775","latitude":"12.66666670","longitude":"-14.11666670","name":"Colandin"},{"id":"912783","latitude":"12.26666670","longitude":"-14.00000000","name":"Colicunda"},{"id":"912793","latitude":"12.66666670","longitude":"-14.11666670","name":"Colondinto"},{"id":"912794","latitude":"12.66666670","longitude":"-14.11666670","name":"Colondito"},{"id":"912800","latitude":"12.21666670","longitude":"-14.11666670","name":"Combiam"},{"id":"912805","latitude":"12.10000000","longitude":"-14.30000000","name":"Comuda"},{"id":"912808","latitude":"12.41666670","longitude":"-13.66666670","name":"Conc\u00f4di"},{"id":"912810","latitude":"12.45000000","longitude":"-14.16666670","name":"Concomelo Maund\u00e8"},{"id":"912811","latitude":"12.21666670","longitude":"-14.41666670","name":"Concont\u00f2"},{"id":"912815","latitude":"12.48333330","longitude":"-14.23333330","name":"Congaba"},{"id":"912820","latitude":"12.30000000","longitude":"-14.33333330","name":"Contai"},{"id":"912831","latitude":"12.55000000","longitude":"-14.23333330","name":"C\u00f3p\u00e0"},{"id":"912832","latitude":"12.51666670","longitude":"-14.21666670","name":"C\u00f3p\u00e0 Sul\u00e8"},{"id":"912833","latitude":"12.35000000","longitude":"-13.91666670","name":"Copir\u00f3"},{"id":"912842","latitude":"12.45000000","longitude":"-13.83333330","name":"Cossar\u00e8"},{"id":"912844","latitude":"12.53333330","longitude":"-14.16666670","name":"Cossi"},{"id":"912847","latitude":"12.43333330","longitude":"-14.01666670","name":"Cotem Bali"},{"id":"912867","latitude":"12.46666670","longitude":"-14.36666670","name":"Cudum Gov\u00earno"},{"id":"912868","latitude":"12.43333330","longitude":"-14.38333330","name":"Cudum Nhinha"},{"id":"912884","latitude":"12.30000000","longitude":"-14.20000000","name":"Cumbajuba"},{"id":"912885","latitude":"12.23333330","longitude":"-14.41666670","name":"Cumbare"},{"id":"912886","latitude":"12.30000000","longitude":"-14.36666670","name":"Cumbema"},{"id":"912893","latitude":"12.30000000","longitude":"-14.36666670","name":"Cumenga"},{"id":"912896","latitude":"12.31666670","longitude":"-14.18333330","name":"Cumpangol"},{"id":"912898","latitude":"12.43333330","longitude":"-13.90000000","name":"Cumporum\u00e3"},{"id":"912899","latitude":"12.10000000","longitude":"-14.30000000","name":"Cumuda"},{"id":"912905","latitude":"12.41666670","longitude":"-14.23333330","name":"Cunchudur"},{"id":"912907","latitude":"12.36666670","longitude":"-14.20000000","name":"Cuncir\u00e8"},{"id":"912909","latitude":"12.48333330","longitude":"-14.16666670","name":"C\u00fandara"},{"id":"912918","latitude":"12.41666670","longitude":"-13.98333330","name":"Cuntim"},{"id":"912922","latitude":"12.33333330","longitude":"-14.45000000","name":"Curauasse"},{"id":"912948","latitude":"12.63333330","longitude":"-13.98333330","name":"Daifa"},{"id":"912949","latitude":"12.03333330","longitude":"-13.80000000","name":"Dalab\u00e1"},{"id":"912954","latitude":"12.28333330","longitude":"-14.41666670","name":"Dambel Uri"},{"id":"912964","latitude":"11.98333330","longitude":"-13.75000000","name":"Dandul\u00e1"},{"id":"912968","latitude":"12.10000000","longitude":"-13.88333330","name":"Danfare"},{"id":"912970","latitude":"12.10000000","longitude":"-13.88333330","name":"Dantare"},{"id":"912973","latitude":"12.26666670","longitude":"-14.11666670","name":"D\u00e1ra"},{"id":"912974","latitude":"12.45000000","longitude":"-13.66666670","name":"Dara Lab\u00e8"},{"id":"912976","latitude":"12.31666670","longitude":"-14.11666670","name":"Daro"},{"id":"912985","latitude":"12.25000000","longitude":"-14.38333330","name":"Darsalame"},{"id":"912989","latitude":"12.61666670","longitude":"-14.16666670","name":"D\u00eaabugu"},{"id":"912990","latitude":"12.26666670","longitude":"-14.26666670","name":"Deacunda"},{"id":"912993","latitude":"12.26666670","longitude":"-14.26666670","name":"Decunda"},{"id":"913004","latitude":"12.30000000","longitude":"-14.01666670","name":"Dembacunda"},{"id":"913006","latitude":"12.50000000","longitude":"-13.65000000","name":"Demba Danejo"},{"id":"913008","latitude":"12.66666670","longitude":"-13.91666670","name":"Demba Gina"},{"id":"913015","latitude":"12.56666670","longitude":"-14.31666670","name":"Demba Jau"},{"id":"913032","latitude":"12.28333330","longitude":"-14.41666670","name":"Dembel Uri"},{"id":"913044","latitude":"12.56666670","longitude":"-13.98333330","name":"Dinga Bantanguel"},{"id":"913045","latitude":"12.56666670","longitude":"-14.00000000","name":"Dinga Ioba"},{"id":"913047","latitude":"12.55000000","longitude":"-13.95000000","name":"Dinga Samba Chagi"},{"id":"913052","latitude":"12.61666670","longitude":"-14.05000000","name":"Diufan\u00e1"},{"id":"913062","latitude":"12.33333330","longitude":"-14.15000000","name":"Donguel"},{"id":"913063","latitude":"12.10000000","longitude":"-13.88333330","name":"Dontari"},{"id":"913065","latitude":"12.31666670","longitude":"-13.66666670","name":"Doum Eta"},{"id":"913083","latitude":"12.46666670","longitude":"-13.88333330","name":"Dunane"},{"id":"913087","latitude":"12.53333330","longitude":"-14.20000000","name":"Durubale"},{"id":"913088","latitude":"12.53333330","longitude":"-14.20000000","name":"Durubali"},{"id":"913091","latitude":"12.33333330","longitude":"-14.38333330","name":"Dutajara"},{"id":"913104","latitude":"12.63333330","longitude":"-14.03333330","name":"Elacunda"},{"id":"913108","latitude":"12.28333330","longitude":"-14.23333330","name":"Embalocunda"},{"id":"913161","latitude":"12.35000000","longitude":"-14.06666670","name":"Fafac\u00f3"},{"id":"913184","latitude":"12.18333330","longitude":"-14.15000000","name":"Faracunda"},{"id":"913187","latitude":"12.18333330","longitude":"-14.15000000","name":"Faram Cunda"},{"id":"913193","latitude":"12.18333330","longitude":"-14.15000000","name":"Farancunda"},{"id":"913203","latitude":"11.96666670","longitude":"-14.21666670","name":"Farin\u00e1"},{"id":"913211","latitude":"12.23333330","longitude":"-14.43333330","name":"Fasaji"},{"id":"913233","latitude":"12.36666670","longitude":"-14.13333330","name":"Finjor"},{"id":"913270","latitude":"12.28333330","longitude":"-14.25000000","name":"Fulamansa"},{"id":"913277","latitude":"12.61666670","longitude":"-14.10000000","name":"Funtofuntula"},{"id":"913278","latitude":"12.43333330","longitude":"-14.01666670","name":"Futa-F\u00f4rro"},{"id":"913279","latitude":"12.43333330","longitude":"-14.00000000","name":"Futa Fula"},{"id":"913281","latitude":"12.28333330","longitude":"-14.21666670","name":"Gaba"},{"id":"913286","latitude":"12.28333330","longitude":"-14.21666670","name":"Gab\u00fa"},{"id":"913287","latitude":"12.28333330","longitude":"-14.21666670","name":"Gab\u00fa-Sara"},{"id":"913303","latitude":"12.03333330","longitude":"-14.15000000","name":"G\u00e3 Guir\u00f4"},{"id":"913387","latitude":"12.28333330","longitude":"-14.38333330","name":"Ganc\u00f4li Bil\u00f2"},{"id":"913405","latitude":"12.03333330","longitude":"-14.15000000","name":"Ganguir\u00f4"},{"id":"913449","latitude":"12.28333330","longitude":"-14.03333330","name":"Gebacunda"},{"id":"913473","latitude":"12.61666670","longitude":"-14.18333330","name":"Gol\u00e9r\u00e8"},{"id":"913507","latitude":"12.23333330","longitude":"-14.38333330","name":"Guidale"},{"id":"913509","latitude":"12.23333330","longitude":"-14.38333330","name":"Guidali"},{"id":"913514","latitude":"12.58333330","longitude":"-14.05000000","name":"Guirocunda"},{"id":"913515","latitude":"12.61666670","longitude":"-14.28333330","name":"Guiro Ier\u00f2 B\u00f4cari"},{"id":"913523","latitude":"12.30000000","longitude":"-14.28333330","name":"Gundag\u00e0"},{"id":"913524","latitude":"12.65000000","longitude":"-14.15000000","name":"Gundag\u00e0 Primeiro"},{"id":"913525","latitude":"12.63333330","longitude":"-14.18333330","name":"Gundag\u00e0 Segundo"},{"id":"913534","latitude":"12.31666670","longitude":"-14.16666670","name":"Hadi"},{"id":"913535","latitude":"12.33333330","longitude":"-14.15000000","name":"H\u00e8lacunda"},{"id":"913536","latitude":"12.38333330","longitude":"-14.23333330","name":"Hud\u00e1"},{"id":"913548","latitude":"12.36666670","longitude":"-14.38333330","name":"Ida Fula"},{"id":"913550","latitude":"12.36666670","longitude":"-14.40000000","name":"Ida"},{"id":"913551","latitude":"12.36666670","longitude":"-14.40000000","name":"Ida Mandinga"},{"id":"913556","latitude":"12.50000000","longitude":"-14.26666670","name":"Ierob\u00e0cunda"},{"id":"913560","latitude":"12.45000000","longitude":"-14.41666670","name":"Ierocunda"},{"id":"913562","latitude":"12.38333330","longitude":"-14.31666670","name":"Iero Embal\u00f4"},{"id":"913564","latitude":"12.46666670","longitude":"-13.75000000","name":"Iero Mal\u00e8"},{"id":"913565","latitude":"12.28333330","longitude":"-14.08333330","name":"Ieromaro"},{"id":"913573","latitude":"12.28333330","longitude":"-14.38333330","name":"Iero Uri"},{"id":"913656","latitude":"12.61666670","longitude":"-14.05000000","name":"Iufan\u00e1"},{"id":"913673","latitude":"12.40000000","longitude":"-14.18333330","name":"Jabicunda"},{"id":"913674","latitude":"12.28333330","longitude":"-14.13333330","name":"J\u00e1cunda"},{"id":"913683","latitude":"12.31666670","longitude":"-14.13333330","name":"Jaima"},{"id":"913685","latitude":"12.31666670","longitude":"-14.30000000","name":"Jai Samb\u00e1l\u00f4"},{"id":"913687","latitude":"12.31666670","longitude":"-14.30000000","name":"Jaissambalo"},{"id":"913700","latitude":"12.31666670","longitude":"-14.10000000","name":"Jameboro"},{"id":"913701","latitude":"12.51666670","longitude":"-14.08333330","name":"Jamelcunda"},{"id":"913703","latitude":"12.46666670","longitude":"-14.38333330","name":"Jan\u00e1 I\u00e1i\u00e0"},{"id":"913706","latitude":"12.26666670","longitude":"-14.18333330","name":"Jan\u00e3"},{"id":"913707","latitude":"12.46666670","longitude":"-14.38333330","name":"Jan\u00e3 Marena"},{"id":"913708","latitude":"12.35000000","longitude":"-14.00000000","name":"Jancoro"},{"id":"913713","latitude":"12.31666670","longitude":"-13.75000000","name":"Jareme"},{"id":"913717","latitude":"12.46666670","longitude":"-14.10000000","name":"J\u00e3 Sajo"},{"id":"913722","latitude":"12.21666670","longitude":"-14.16666670","name":"Jaucunda"},{"id":"913732","latitude":"12.30000000","longitude":"-14.20000000","name":"Jibata"},{"id":"913746","latitude":"12.33333330","longitude":"-13.75000000","name":"Joguedu Bantael"},{"id":"913753","latitude":"12.51666670","longitude":"-14.08333330","name":"Jomelcunda"},{"id":"913767","latitude":"12.35000000","longitude":"-14.43333330","name":"Jumbembe"},{"id":"913769","latitude":"12.35000000","longitude":"-14.43333330","name":"Jumbembem"},{"id":"913770","latitude":"12.36666670","longitude":"-13.98333330","name":"Jumbomoro"},{"id":"913774","latitude":"12.36666670","longitude":"-13.81666670","name":"Laba"},{"id":"913798","latitude":"12.38333330","longitude":"-13.80000000","name":"Lengueel"},{"id":"913803","latitude":"12.26666670","longitude":"-14.15000000","name":"Lenqueriel"},{"id":"913804","latitude":"12.28333330","longitude":"-14.20000000","name":"Lenquerim"},{"id":"913805","latitude":"12.35000000","longitude":"-14.38333330","name":"Lenqueteel"},{"id":"913806","latitude":"12.35000000","longitude":"-14.35000000","name":"Lenquet\u00e8"},{"id":"913808","latitude":"12.35000000","longitude":"-14.38333330","name":"Lenqueto"},{"id":"913821","latitude":"12.15000000","longitude":"-14.18333330","name":"Liporo"},{"id":"913823","latitude":"12.63333330","longitude":"-13.81666670","name":"Locoj\u00e9r\u00e8"},{"id":"913835","latitude":"12.55000000","longitude":"-14.20000000","name":"Lumbutugo"},{"id":"913838","latitude":"12.25000000","longitude":"-14.23333330","name":"Macademba"},{"id":"913839","latitude":"12.41666670","longitude":"-14.28333330","name":"Mac\u00e1j\u00e8"},{"id":"913849","latitude":"12.55000000","longitude":"-14.30000000","name":"Madina Bacari"},{"id":"913850","latitude":"12.53333330","longitude":"-14.20000000","name":"Madina B\u00e1car"},{"id":"913851","latitude":"12.26666670","longitude":"-14.06666670","name":"Madina Bail\u00f3b\u00e8"},{"id":"913852","latitude":"12.26666670","longitude":"-14.06666670","name":"Madina Bailo"},{"id":"913853","latitude":"12.13333330","longitude":"-14.06666670","name":"Madina Balaquebo"},{"id":"913857","latitude":"12.53333330","longitude":"-14.20000000","name":"Madina B\u00f4car"},{"id":"913859","latitude":"12.33333330","longitude":"-14.31666670","name":"Madina Bo\u00e9"},{"id":"913860","latitude":"12.58333330","longitude":"-13.93333330","name":"Madina B\u00fadi"},{"id":"913869","latitude":"12.25000000","longitude":"-14.40000000","name":"Madina Demba Gano"},{"id":"913877","latitude":"12.55000000","longitude":"-14.28333330","name":"Madina Ier\u00f2 Bald\u00e8"},{"id":"913878","latitude":"12.30000000","longitude":"-14.41666670","name":"Madina Iero"},{"id":"913881","latitude":"12.26666670","longitude":"-14.06666670","name":"Madina Jal\u00edb\u00e8"},{"id":"913889","latitude":"12.16666670","longitude":"-14.38333330","name":"Madina"},{"id":"913890","latitude":"12.43333330","longitude":"-14.28333330","name":"Madina Mal\u00e3"},{"id":"913894","latitude":"12.25000000","longitude":"-14.08333330","name":"Madina Mandinga"},{"id":"913897","latitude":"12.65000000","longitude":"-14.16666670","name":"Madina Mori"},{"id":"913898","latitude":"12.15000000","longitude":"-14.23333330","name":"Madina Nha\u00e1da"},{"id":"913899","latitude":"12.15000000","longitude":"-14.23333330","name":"Madina Nhada"},{"id":"913902","latitude":"12.63333330","longitude":"-13.91666670","name":"Madina Qu\u00e9lef\u00e0"},{"id":"913904","latitude":"12.66666670","longitude":"-14.05000000","name":"Madina Quento"},{"id":"913906","latitude":"12.66666670","longitude":"-14.05000000","name":"Madina Qu\u00eauto"},{"id":"913909","latitude":"12.50000000","longitude":"-14.13333330","name":"Madina Samba Seidi"},{"id":"913911","latitude":"12.18333330","longitude":"-14.13333330","name":"Madina Seco"},{"id":"913912","latitude":"12.26666670","longitude":"-14.40000000","name":"Madina Sore"},{"id":"913913","latitude":"12.26666670","longitude":"-14.40000000","name":"Madina Sori"},{"id":"913915","latitude":"12.30000000","longitude":"-14.00000000","name":"Madina Tambach\u00e1"},{"id":"913918","latitude":"12.58333330","longitude":"-13.81666670","name":"Madina Uoloto"},{"id":"913920","latitude":"12.26666670","longitude":"-14.45000000","name":"Mafanco"},{"id":"913921","latitude":"12.26666670","longitude":"-14.45000000","name":"Mafango"},{"id":"913924","latitude":"12.36666670","longitude":"-13.80000000","name":"Mal\u00e3 Dalassi"},{"id":"913938","latitude":"12.35000000","longitude":"-14.20000000","name":"Mamadu M\u00f3l\u00f4"},{"id":"913939","latitude":"12.65000000","longitude":"-13.73333330","name":"Mamaj\u00e1"},{"id":"913948","latitude":"12.30000000","longitude":"-14.26666670","name":"Mampat\u00e1 Dul\u00f3"},{"id":"913953","latitude":"12.30000000","longitude":"-14.26666670","name":"Mampat\u00e1 Sinj\u00e3"},{"id":"913955","latitude":"12.56666670","longitude":"-13.93333330","name":"Mampatim"},{"id":"913962","latitude":"12.26666670","longitude":"-14.11666670","name":"Mancaje"},{"id":"913965","latitude":"12.26666670","longitude":"-14.11666670","name":"Mancanji"},{"id":"913975","latitude":"12.25000000","longitude":"-14.45000000","name":"Mandonhe"},{"id":"913978","latitude":"12.18333330","longitude":"-14.33333330","name":"Manga Beidare"},{"id":"913994","latitude":"12.61666670","longitude":"-14.01666670","name":"Mansacunda Grande"},{"id":"913998","latitude":"12.61666670","longitude":"-14.01666670","name":"Mansacunda Maund\u00e8"},{"id":"913999","latitude":"12.60000000","longitude":"-14.03333330","name":"Mansacunda Pequena"},{"id":"914000","latitude":"12.60000000","longitude":"-14.03333330","name":"Mansacunda Sinch\u00e3"},{"id":"914002","latitude":"12.43333330","longitude":"-14.33333330","name":"Mansaj\u00e3"},{"id":"914026","latitude":"12.53333330","longitude":"-14.35000000","name":"Marecunda"},{"id":"914027","latitude":"12.51666670","longitude":"-14.13333330","name":"Maren\u00e9"},{"id":"914028","latitude":"12.51666670","longitude":"-14.13333330","name":"Mar\u00e9u\u00e8"},{"id":"914029","latitude":"11.86666670","longitude":"-14.13333330","name":"M\u00e0ri\u00e1"},{"id":"914051","latitude":"12.41666670","longitude":"-13.98333330","name":"Maudo Tabael"},{"id":"914052","latitude":"12.28333330","longitude":"-14.36666670","name":"Maund\u00e9 Cand\u00e9"},{"id":"914062","latitude":"12.35000000","longitude":"-14.35000000","name":"Mera Seidi"},{"id":"914066","latitude":"12.63333330","longitude":"-14.00000000","name":"Metacumba"},{"id":"914091","latitude":"12.35000000","longitude":"-14.28333330","name":"Missir\u00e1"},{"id":"914100","latitude":"12.53333330","longitude":"-14.16666670","name":"Mont\u00e3"},{"id":"914108","latitude":"12.63333330","longitude":"-13.81666670","name":"Mudo"},{"id":"914137","latitude":"12.38333330","longitude":"-14.38333330","name":"Nematab\u00e1"},{"id":"914142","latitude":"12.36666670","longitude":"-13.71666670","name":"N\u00e9t\u00e8r\u00e8"},{"id":"914155","latitude":"12.40000000","longitude":"-14.10000000","name":"Nh\u00e1car\u00e8"},{"id":"914179","latitude":"12.23333330","longitude":"-14.25000000","name":"Nhampasser\u00e9"},{"id":"914188","latitude":"12.38333330","longitude":"-14.25000000","name":"Nhantaba"},{"id":"914190","latitude":"12.28333330","longitude":"-14.46666670","name":"Nhantampa"},{"id":"914193","latitude":"12.40000000","longitude":"-14.45000000","name":"Nhantida"},{"id":"914196","latitude":"12.61666670","longitude":"-14.25000000","name":"Nhapo"},{"id":"914197","latitude":"12.38333330","longitude":"-14.25000000","name":"Nharsab\u00e1"},{"id":"914199","latitude":"12.15000000","longitude":"-14.06666670","name":"Nhaulem"},{"id":"914211","latitude":"12.56666670","longitude":"-13.78333330","name":"Nhunanca"},{"id":"914213","latitude":"12.66666670","longitude":"-13.71666670","name":"Niji"},{"id":"914220","latitude":"12.45000000","longitude":"-14.31666670","name":"N\u00f2n\u00f3dala"},{"id":"914225","latitude":"12.28333330","longitude":"-14.21666670","name":"Nova Lamego"},{"id":"914231","latitude":"12.26666670","longitude":"-14.20000000","name":"Oco Maund\u00e8"},{"id":"914233","latitude":"12.26666670","longitude":"-14.20000000","name":"Oc\u00f3"},{"id":"914237","latitude":"12.45000000","longitude":"-14.06666670","name":"\u00d4g\u00f2"},{"id":"914238","latitude":"12.61666670","longitude":"-14.08333330","name":"Olocunda"},{"id":"914242","latitude":"12.56666670","longitude":"-13.83333330","name":"Ol\u00f4to"},{"id":"914243","latitude":"12.61666670","longitude":"-14.08333330","name":"Olucunda"},{"id":"914253","latitude":"12.66666670","longitude":"-13.71666670","name":"Opar"},{"id":"914257","latitude":"12.63333330","longitude":"-13.88333330","name":"Or\u00e8bod\u00e9"},{"id":"914260","latitude":"12.63333330","longitude":"-13.86666670","name":"Or\u00e8 Maund\u00e8"},{"id":"914261","latitude":"12.63333330","longitude":"-13.88333330","name":"Orobode"},{"id":"914271","latitude":"12.18333330","longitude":"-14.38333330","name":"Pacelj\u00e0"},{"id":"914279","latitude":"12.16666670","longitude":"-14.23333330","name":"P\u00e1hamo"},{"id":"914280","latitude":"12.30000000","longitude":"-14.10000000","name":"Paiaicunda"},{"id":"914285","latitude":"12.30000000","longitude":"-14.16666670","name":"Paiai"},{"id":"914286","latitude":"12.33333330","longitude":"-13.85000000","name":"Paiama D\u00e2di"},{"id":"914287","latitude":"12.33333330","longitude":"-13.85000000","name":"Paiama Mac\u00e3"},{"id":"914289","latitude":"12.16666670","longitude":"-14.23333330","name":"Paiama"},{"id":"914290","latitude":"12.33333330","longitude":"-13.85000000","name":"Paiana Dad\u00e9"},{"id":"914291","latitude":"12.33333330","longitude":"-13.85000000","name":"Paiana Mac\u00e3"},{"id":"914293","latitude":"12.25000000","longitude":"-14.13333330","name":"Paiana"},{"id":"914297","latitude":"12.38333330","longitude":"-14.06666670","name":"Pajama"},{"id":"914305","latitude":"12.51666670","longitude":"-14.38333330","name":"Panalicha"},{"id":"914307","latitude":"12.30000000","longitude":"-13.98333330","name":"Panchor"},{"id":"914310","latitude":"12.30000000","longitude":"-13.98333330","name":"Pans\u00f4r"},{"id":"914327","latitude":"11.96666670","longitude":"-13.96666670","name":"Pataque Bo\u00e9b\u00e8"},{"id":"914328","latitude":"11.88333330","longitude":"-13.96666670","name":"Pataque"},{"id":"914329","latitude":"11.88333330","longitude":"-13.96666670","name":"P\u00e1t\u00e1qui"},{"id":"914330","latitude":"12.33333330","longitude":"-14.45000000","name":"Patassa"},{"id":"914347","latitude":"12.63333330","longitude":"-13.78333330","name":"Patom"},{"id":"914350","latitude":"12.56666670","longitude":"-14.28333330","name":"Paunca"},{"id":"914351","latitude":"12.21666670","longitude":"-14.05000000","name":"Paunto"},{"id":"914410","latitude":"12.55000000","longitude":"-13.73333330","name":"Piai"},{"id":"914414","latitude":"12.33333330","longitude":"-13.95000000","name":"Piche Fulb\u00e8"},{"id":"914415","latitude":"12.33333330","longitude":"-13.95000000","name":"Piche"},{"id":"914416","latitude":"12.33333330","longitude":"-13.96666670","name":"Piche Rund\u00e8"},{"id":"914433","latitude":"12.66666670","longitude":"-14.16666670","name":"Pirada"},{"id":"914435","latitude":"12.33333330","longitude":"-13.95000000","name":"Pitche"},{"id":"914445","latitude":"12.28333330","longitude":"-13.93333330","name":"Poatchi"},{"id":"914447","latitude":"12.31666670","longitude":"-14.40000000","name":"P\u00f3fa"},{"id":"914448","latitude":"12.36666670","longitude":"-14.25000000","name":"Poiel"},{"id":"914457","latitude":"12.31666670","longitude":"-14.26666670","name":"Ponh\u00e9 Ierob\u00e0"},{"id":"914458","latitude":"12.33333330","longitude":"-14.28333330","name":"Ponh\u00e8 Maund\u00e8"},{"id":"914619","latitude":"12.66666670","longitude":"-13.95000000","name":"Pop\u00f3j\u00e8"},{"id":"914620","latitude":"12.33333330","longitude":"-13.73333330","name":"Popoti"},{"id":"914677","latitude":"12.53333330","longitude":"-13.93333330","name":"Queneb\u00e0"},{"id":"914696","latitude":"12.30000000","longitude":"-14.15000000","name":"Qu\u00e8r\u00e8uane"},{"id":"914702","latitude":"12.38333330","longitude":"-14.26666670","name":"Queroane"},{"id":"914719","latitude":"12.36666670","longitude":"-14.28333330","name":"Queuel"},{"id":"914728","latitude":"12.58333330","longitude":"-14.10000000","name":"Quijem"},{"id":"914750","latitude":"11.93333330","longitude":"-13.80000000","name":"Quissem"},{"id":"914751","latitude":"12.41666670","longitude":"-13.93333330","name":"Quissib\u00e9"},{"id":"914761","latitude":"12.31666670","longitude":"-13.91666670","name":"Rauna"},{"id":"914794","latitude":"12.31666670","longitude":"-13.91666670","name":"Rouna"},{"id":"914801","latitude":"11.90000000","longitude":"-13.98333330","name":"Sab\u00e9r\u00e8"},{"id":"914802","latitude":"11.91666670","longitude":"-13.80000000","name":"Sab\u00e9re Saraba"},{"id":"914804","latitude":"12.35000000","longitude":"-14.46666670","name":"Sabuiacunda"},{"id":"914810","latitude":"12.38333330","longitude":"-13.90000000","name":"Sagar"},{"id":"914812","latitude":"12.28333330","longitude":"-13.93333330","name":"Sagoi\u00e0"},{"id":"914819","latitude":"12.43333330","longitude":"-13.86666670","name":"Saj\u00e3"},{"id":"914839","latitude":"12.18333330","longitude":"-14.05000000","name":"Saludinca"},{"id":"914841","latitude":"12.60000000","longitude":"-14.03333330","name":"Samadoro"},{"id":"914844","latitude":"12.55000000","longitude":"-14.13333330","name":"Samaracunda"},{"id":"914847","latitude":"12.55000000","longitude":"-14.13333330","name":"Samarum Cunda"},{"id":"914848","latitude":"12.55000000","longitude":"-14.13333330","name":"Samaruncunda"},{"id":"914850","latitude":"12.28333330","longitude":"-13.98333330","name":"Sama"},{"id":"914856","latitude":"12.53333330","longitude":"-14.21666670","name":"Samba Cand\u00e8"},{"id":"914861","latitude":"12.43333330","longitude":"-14.36666670","name":"Samba Cumbel"},{"id":"914866","latitude":"12.46666670","longitude":"-14.41666670","name":"Sambacunda"},{"id":"914870","latitude":"11.95000000","longitude":"-14.28333330","name":"Samba Gana"},{"id":"914871","latitude":"12.50000000","longitude":"-14.21666670","name":"Samba Gorc\u00f2"},{"id":"914875","latitude":"12.43333330","longitude":"-14.05000000","name":"Samba Jau"},{"id":"914882","latitude":"12.46666670","longitude":"-14.13333330","name":"Samba Nhamaracunda"},{"id":"914892","latitude":"12.45000000","longitude":"-14.20000000","name":"Samba Sumani"},{"id":"914905","latitude":"12.55000000","longitude":"-13.86666670","name":"Sambui\u00e0"},{"id":"914919","latitude":"12.31666670","longitude":"-14.16666670","name":"Sampaiai"},{"id":"914920","latitude":"12.38333330","longitude":"-13.66666670","name":"Sampaje"},{"id":"914921","latitude":"12.43333330","longitude":"-14.18333330","name":"Sampulo"},{"id":"914923","latitude":"12.41666670","longitude":"-14.41666670","name":"Sanael"},{"id":"914926","latitude":"12.38333330","longitude":"-14.20000000","name":"Sancaba Rund\u00e9"},{"id":"914927","latitude":"12.36666670","longitude":"-14.18333330","name":"Sancaba"},{"id":"915003","latitude":"12.38333330","longitude":"-13.66666670","name":"Sapague"},{"id":"915005","latitude":"11.91666670","longitude":"-13.80000000","name":"S\u00e0r\u00e1b\u00e1"},{"id":"915039","latitude":"12.65000000","longitude":"-14.01666670","name":"Sare B\u00f3bo"},{"id":"915046","latitude":"12.43333330","longitude":"-13.73333330","name":"Sare Bur\u00e8"},{"id":"915066","latitude":"12.36666670","longitude":"-14.30000000","name":"Sare D\u00e9l\u00f2 Mamadu"},{"id":"915067","latitude":"12.35000000","longitude":"-14.30000000","name":"Sare D\u00eal\u00f4 Maund\u00e8"},{"id":"915069","latitude":"12.35000000","longitude":"-14.30000000","name":"S\u00e1r\u00e8 D\u00e8l\u00f3"},{"id":"915075","latitude":"12.53333330","longitude":"-14.28333330","name":"Sare Demba"},{"id":"915104","latitude":"12.51666670","longitude":"-14.28333330","name":"Sare Il\u00f4"},{"id":"915109","latitude":"12.58333330","longitude":"-14.06666670","name":"Sare I\u00f3b\u00e0"},{"id":"915125","latitude":"12.43333330","longitude":"-13.91666670","name":"Sare Jaub\u00e8"},{"id":"915131","latitude":"12.65000000","longitude":"-14.00000000","name":"Sare Juma"},{"id":"915154","latitude":"12.66666670","longitude":"-14.11666670","name":"Sare Mori"},{"id":"915157","latitude":"12.61666670","longitude":"-14.13333330","name":"Sare Mulai"},{"id":"915192","latitude":"12.60000000","longitude":"-14.05000000","name":"Sare Sambi"},{"id":"915236","latitude":"12.51666670","longitude":"-14.25000000","name":"Sejo Fula"},{"id":"915237","latitude":"12.51666670","longitude":"-14.26666670","name":"Sejo Mandinga"},{"id":"915242","latitude":"12.31666670","longitude":"-14.03333330","name":"Senegaliel"},{"id":"915253","latitude":"11.91666670","longitude":"-14.21666670","name":"S\u00e9ss\u00e9"},{"id":"915254","latitude":"12.23333330","longitude":"-14.33333330","name":"S\u00e9u\u00ea"},{"id":"915255","latitude":"12.23333330","longitude":"-14.33333330","name":"S\u00eav\u00e8"},{"id":"915267","latitude":"12.16666670","longitude":"-14.26666670","name":"S\u00edbit\u00f2"},{"id":"915270","latitude":"12.50000000","longitude":"-14.31666670","name":"Sifito"},{"id":"915273","latitude":"12.40000000","longitude":"-14.03333330","name":"Silicunda"},{"id":"915275","latitude":"12.28333330","longitude":"-14.40000000","name":"Sima"},{"id":"915280","latitude":"12.16666670","longitude":"-14.36666670","name":"Sinch\u00e3 Abdulai"},{"id":"915283","latitude":"12.48333330","longitude":"-13.68333330","name":"Sinch\u00e3 Adulai"},{"id":"915285","latitude":"12.35000000","longitude":"-14.40000000","name":"Sinch\u00e3 Ahin\u00e9"},{"id":"915287","latitude":"12.40000000","longitude":"-13.71666670","name":"Sinch\u00e3 Ajanco"},{"id":"915288","latitude":"12.40000000","longitude":"-13.71666670","name":"Sinch\u00e3 \u00c1jango"},{"id":"915291","latitude":"12.55000000","longitude":"-14.28333330","name":"Sinch\u00e3 Alcali"},{"id":"915293","latitude":"12.18333330","longitude":"-14.15000000","name":"Sinch\u00e3 Alf\u00e3"},{"id":"915294","latitude":"12.31666670","longitude":"-14.11666670","name":"Sinch\u00e3 Alimo"},{"id":"915297","latitude":"12.28333330","longitude":"-14.35000000","name":"Sinch\u00e3 Aliu Jau"},{"id":"915299","latitude":"12.45000000","longitude":"-13.88333330","name":"Sinch\u00e3 Aliu"},{"id":"915304","latitude":"12.30000000","longitude":"-14.26666670","name":"Sinch\u00e3 B\u00e1car Demba"},{"id":"915306","latitude":"12.30000000","longitude":"-14.33333330","name":"Sinch\u00e3 B\u00e1cari"},{"id":"915309","latitude":"12.16666670","longitude":"-14.41666670","name":"Sinch\u00e3 B\u00e1car"},{"id":"915310","latitude":"12.36666670","longitude":"-13.73333330","name":"Sinch\u00e3 Bailo"},{"id":"915311","latitude":"12.36666670","longitude":"-14.25000000","name":"Sinch\u00e3 B\u00e1l\u00e0"},{"id":"915313","latitude":"12.31666670","longitude":"-14.40000000","name":"Sinch\u00e3 Bamb\u00e9"},{"id":"915315","latitude":"12.20000000","longitude":"-14.36666670","name":"Sinch\u00e3 Bant\u00e3"},{"id":"915316","latitude":"12.28333330","longitude":"-14.33333330","name":"Sinch\u00e3 Barbosa"},{"id":"915317","latitude":"12.33333330","longitude":"-13.70000000","name":"Sinch\u00e3 Barros"},{"id":"915318","latitude":"12.33333330","longitude":"-14.08333330","name":"Sinch\u00e3 B\u00eab\u00ea"},{"id":"915324","latitude":"12.50000000","longitude":"-14.21666670","name":"Sinch\u00e3 Bir\u00f2"},{"id":"915327","latitude":"12.33333330","longitude":"-13.70000000","name":"Sinch\u00e3 B\u00f4b\u00f4"},{"id":"915328","latitude":"12.35000000","longitude":"-14.28333330","name":"Sinch\u00e3 Bocar"},{"id":"915330","latitude":"12.53333330","longitude":"-14.16666670","name":"Sinch\u00e3 Boch\u00e9"},{"id":"915334","latitude":"12.33333330","longitude":"-14.45000000","name":"Sinch\u00e3 Bo\u00e9"},{"id":"915336","latitude":"12.53333330","longitude":"-13.83333330","name":"Sinch\u00e3 Bo\u00eddo"},{"id":"915338","latitude":"12.33333330","longitude":"-14.45000000","name":"Sinch\u00e3 Boi"},{"id":"915340","latitude":"12.41666670","longitude":"-13.91666670","name":"Sinch\u00e3 B\u00f3j\u00f2"},{"id":"915341","latitude":"12.41666670","longitude":"-13.66666670","name":"Sinch\u00e3 Bolama"},{"id":"915343","latitude":"12.28333330","longitude":"-14.35000000","name":"Sinch\u00e3 Bona"},{"id":"915345","latitude":"12.61666670","longitude":"-14.25000000","name":"Sinch\u00e3 Bond\u00e8"},{"id":"915348","latitude":"12.53333330","longitude":"-14.16666670","name":"Sinch\u00e3 Box\u00ea"},{"id":"915349","latitude":"12.65000000","longitude":"-13.86666670","name":"Sinch\u00e3 Boxi"},{"id":"915352","latitude":"12.31666670","longitude":"-13.96666670","name":"Sinch\u00e3 Bra\u00edma"},{"id":"915355","latitude":"12.58333330","longitude":"-13.93333330","name":"Sinch\u00e3 B\u00fadi"},{"id":"915356","latitude":"12.30000000","longitude":"-14.40000000","name":"Sinch\u00e3 Bulbuiel"},{"id":"915357","latitude":"12.26666670","longitude":"-14.08333330","name":"Sinch\u00e3 Bulim\u00e3"},{"id":"915363","latitude":"12.51666670","longitude":"-13.81666670","name":"Sinch\u00e3 C\u00e1chaj\u00e0 Bov\u00e8"},{"id":"915365","latitude":"12.45000000","longitude":"-14.38333330","name":"Sinch\u00e3 Calibo"},{"id":"915366","latitude":"12.45000000","longitude":"-14.38333330","name":"Sinch\u00e3 Calilo"},{"id":"915367","latitude":"12.28333330","longitude":"-14.05000000","name":"Sinch\u00e3 Cambaj\u00e3"},{"id":"915368","latitude":"12.43333330","longitude":"-14.10000000","name":"Sinch\u00e3 Cambana"},{"id":"915372","latitude":"12.40000000","longitude":"-13.76666670","name":"Sinch\u00e3 Cand\u00e9b\u00e8"},{"id":"915373","latitude":"12.38333330","longitude":"-14.45000000","name":"Sinch\u00e3 Canho"},{"id":"915375","latitude":"12.31666670","longitude":"-14.40000000","name":"Sinch\u00e3 Cantab\u00e1"},{"id":"915376","latitude":"12.36666670","longitude":"-13.95000000","name":"Sinch\u00e3 Capassa"},{"id":"915378","latitude":"12.40000000","longitude":"-14.30000000","name":"Sinch\u00e3 Carimo"},{"id":"915380","latitude":"12.40000000","longitude":"-14.31666670","name":"Sinch\u00e3 Cherno I\u00e1i\u00e0"},{"id":"915383","latitude":"12.38333330","longitude":"-13.81666670","name":"Sinch\u00e3 Cherno"},{"id":"915386","latitude":"12.60000000","longitude":"-14.28333330","name":"Sinch\u00e3 C\u00f3b\u00e0"},{"id":"915387","latitude":"12.33333330","longitude":"-14.13333330","name":"Sinch\u00e3 Coi"},{"id":"915391","latitude":"12.45000000","longitude":"-14.18333330","name":"Sinch\u00e3 Concomelo"},{"id":"915392","latitude":"12.40000000","longitude":"-13.96666670","name":"Sinch\u00e3 Corca"},{"id":"915396","latitude":"12.48333330","longitude":"-14.40000000","name":"Sinch\u00e3 Cuia"},{"id":"915397","latitude":"12.25000000","longitude":"-14.21666670","name":"Sinch\u00e3 Cul\u00f2"},{"id":"915398","latitude":"12.26666670","longitude":"-14.03333330","name":"Sinch\u00e3 Cunade"},{"id":"915399","latitude":"12.26666670","longitude":"-14.03333330","name":"Sinch\u00e3 Cunadi"},{"id":"915400","latitude":"12.33333330","longitude":"-13.91666670","name":"Sinch\u00e2 Cup\u00e8"},{"id":"915401","latitude":"12.41666670","longitude":"-13.91666670","name":"Sinch\u00e3 Cutael"},{"id":"915403","latitude":"12.33333330","longitude":"-13.86666670","name":"Sinch\u00e3 Dad\u00e9"},{"id":"915404","latitude":"12.33333330","longitude":"-13.86666670","name":"Sinch\u00e3 D\u00e2di"},{"id":"915406","latitude":"12.48333330","longitude":"-14.18333330","name":"Sinch\u00e3 D\u00ead\u00ea"},{"id":"915411","latitude":"12.46666670","longitude":"-14.08333330","name":"Sinch\u00e3 Demba Danejo"},{"id":"915412","latitude":"12.25000000","longitude":"-14.38333330","name":"Sinch\u00e3 Demba Ialare"},{"id":"915413","latitude":"12.38333330","longitude":"-13.76666670","name":"Sinch\u00e3 Demba Jabuiel"},{"id":"915414","latitude":"12.26666670","longitude":"-14.21666670","name":"Sinch\u00e3 Demba Jamanca"},{"id":"915417","latitude":"12.33333330","longitude":"-14.45000000","name":"Sinch\u00e3 Demba Jau"},{"id":"915418","latitude":"12.38333330","longitude":"-13.76666670","name":"Sinch\u00e3 Demba Jub\u00edete"},{"id":"915421","latitude":"12.56666670","longitude":"-14.20000000","name":"Sinch\u00e3 Dembaro"},{"id":"915423","latitude":"12.33333330","longitude":"-14.25000000","name":"Sinch\u00e3 Demba Sani"},{"id":"915426","latitude":"12.23333330","longitude":"-14.41666670","name":"Sinch\u00e3 Demba"},{"id":"915431","latitude":"12.36666670","longitude":"-14.43333330","name":"Sinch\u00e3 Dembel"},{"id":"915432","latitude":"12.36666670","longitude":"-14.43333330","name":"Sinch\u00e3 Dembol"},{"id":"915436","latitude":"12.56666670","longitude":"-13.93333330","name":"Sinch\u00e3 Dolonguel"},{"id":"915437","latitude":"12.21666670","longitude":"-14.35000000","name":"Sinch\u00e3 Dom\u00e3"},{"id":"915440","latitude":"12.45000000","longitude":"-14.10000000","name":"Sinch\u00e3 Duld\u00e8"},{"id":"915441","latitude":"12.53333330","longitude":"-13.90000000","name":"Sinch\u00e3 Dul\u00f2 Bana"},{"id":"915445","latitude":"12.48333330","longitude":"-14.13333330","name":"Sinch\u00e3 D\u00fal\u00f2"},{"id":"915447","latitude":"12.51666670","longitude":"-14.21666670","name":"Sinch\u00e3 Dur\u00e0"},{"id":"915448","latitude":"12.31666670","longitude":"-14.38333330","name":"Sinch\u00e3 Dur\u00f4 Buaro"},{"id":"915455","latitude":"12.25000000","longitude":"-14.35000000","name":"Sinch\u00e3 Fali"},{"id":"915461","latitude":"12.50000000","longitude":"-14.18333330","name":"Sinch\u00e3 Farina"},{"id":"915462","latitude":"12.36666670","longitude":"-14.33333330","name":"Sinch\u00e3 Fate"},{"id":"915463","latitude":"12.36666670","longitude":"-14.33333330","name":"Sinch\u00e3 Fato"},{"id":"915471","latitude":"12.33333330","longitude":"-13.66666670","name":"Sinch\u00e3 Ga\u00e8"},{"id":"915475","latitude":"12.55000000","longitude":"-14.20000000","name":"Sinch\u00e3 G\u00e1nh\u00e0"},{"id":"915476","latitude":"12.35000000","longitude":"-14.25000000","name":"Sinch\u00e3 Garcia"},{"id":"915478","latitude":"12.26666670","longitude":"-14.35000000","name":"Sinch\u00e3 G\u00eaba"},{"id":"915484","latitude":"12.35000000","longitude":"-13.68333330","name":"Sinch\u00e3 Guel\u00e0"},{"id":"915485","latitude":"12.56666670","longitude":"-13.91666670","name":"Sinch\u00e3 H\u00e9l\u00e0"},{"id":"915489","latitude":"12.26666670","longitude":"-14.31666670","name":"Sinch\u00e3 I\u00e1i\u00e0"},{"id":"915490","latitude":"12.21666670","longitude":"-14.16666670","name":"Sinch\u00e3 I\u00e7aga"},{"id":"915494","latitude":"12.48333330","longitude":"-14.23333330","name":"Sinch\u00e3 Iero Jaga"},{"id":"915495","latitude":"12.66666670","longitude":"-14.13333330","name":"Sinch\u00e3 Iero J\u00e1l\u00f2"},{"id":"915498","latitude":"12.30000000","longitude":"-14.41666670","name":"Sinch\u00e3 Iero M\u00f3l\u00f4"},{"id":"915501","latitude":"12.53333330","longitude":"-14.11666670","name":"Sinch\u00e3 Iero"},{"id":"915502","latitude":"12.51666670","longitude":"-14.23333330","name":"Sinch\u00e3 Imab\u00e8"},{"id":"915504","latitude":"12.43333330","longitude":"-14.36666670","name":"Sinch\u00e3 Ind\u00e9"},{"id":"915507","latitude":"12.36666670","longitude":"-14.45000000","name":"Sinch\u00e3 I\u00f3b\u00e0"},{"id":"915510","latitude":"12.66666670","longitude":"-13.90000000","name":"Sinch\u00e3 J\u00e1di"},{"id":"915514","latitude":"12.61666670","longitude":"-14.13333330","name":"Sinch\u00e3 J\u00e1ligu\u00e8"},{"id":"915515","latitude":"12.45000000","longitude":"-14.13333330","name":"Sinch\u00e3 Jali"},{"id":"915517","latitude":"12.40000000","longitude":"-14.38333330","name":"Sinch\u00e3 Jata"},{"id":"915519","latitude":"12.41666670","longitude":"-13.88333330","name":"Sinch\u00e3 Jaucunda"},{"id":"915521","latitude":"12.60000000","longitude":"-13.83333330","name":"Sinch\u00e3 Jid\u00e8"},{"id":"915523","latitude":"12.28333330","longitude":"-14.40000000","name":"Sinch\u00e3 Jit\u00e9"},{"id":"915524","latitude":"12.53333330","longitude":"-13.93333330","name":"Sinch\u00e3 Job\u00e0"},{"id":"915526","latitude":"12.35000000","longitude":"-13.96666670","name":"Sinch\u00e3 Jobel"},{"id":"915530","latitude":"12.65000000","longitude":"-13.90000000","name":"Sinch\u00e3 Jom\u00e9"},{"id":"915531","latitude":"12.50000000","longitude":"-13.73333330","name":"Sinch\u00e3 J\u00f3t\u00e8"},{"id":"915532","latitude":"12.33333330","longitude":"-14.26666670","name":"Sinch\u00e3 Juj\u00f4"},{"id":"915536","latitude":"12.16666670","longitude":"-14.36666670","name":"Sinch\u00e3 Lale"},{"id":"915537","latitude":"12.33333330","longitude":"-13.88333330","name":"Sinch\u00e3 L\u00e2li"},{"id":"915540","latitude":"12.53333330","longitude":"-13.90000000","name":"Sinch\u00e3 Lamoi"},{"id":"915543","latitude":"12.40000000","longitude":"-13.76666670","name":"Sinch\u00e3 Lenquet\u00f3"},{"id":"915546","latitude":"12.26666670","longitude":"-14.21666670","name":"Sinch\u00e3 Lunt\u00e3"},{"id":"915547","latitude":"12.36666670","longitude":"-13.80000000","name":"Sinch\u00e3 M\u00e3di Maud\u00f4"},{"id":"915549","latitude":"12.55000000","longitude":"-14.28333330","name":"Sinch\u00e3 Madina Maudu"},{"id":"915551","latitude":"12.38333330","longitude":"-14.05000000","name":"Sinch\u00e3 Madina"},{"id":"915558","latitude":"12.36666670","longitude":"-13.91666670","name":"Sinch\u00e3 Mali"},{"id":"915560","latitude":"12.35000000","longitude":"-14.11666670","name":"Sinch\u00e3 Mamadi"},{"id":"915561","latitude":"12.30000000","longitude":"-14.21666670","name":"Sinch\u00e3 Mamadu Emb\u00e1l\u00f4"},{"id":"915566","latitude":"12.25000000","longitude":"-14.35000000","name":"Sinch\u00e3 Mamadu"},{"id":"915570","latitude":"12.58333330","longitude":"-14.26666670","name":"Sinch\u00e3 Manj\u00e3"},{"id":"915573","latitude":"12.50000000","longitude":"-13.73333330","name":"Sinch\u00e3 Marib\u00ea"},{"id":"915574","latitude":"12.45000000","longitude":"-13.68333330","name":"Sinch\u00e3 M\u00e1rio"},{"id":"915575","latitude":"12.45000000","longitude":"-13.68333330","name":"Sinch\u00e3 Mariu"},{"id":"915581","latitude":"12.41666670","longitude":"-14.45000000","name":"Sinch\u00e3 Meta Seidi"},{"id":"915588","latitude":"12.60000000","longitude":"-14.30000000","name":"Sinch\u00e3 Molele"},{"id":"915590","latitude":"12.56666670","longitude":"-13.88333330","name":"Sinch\u00e3 M\u00f3l\u00f2"},{"id":"915593","latitude":"12.45000000","longitude":"-13.68333330","name":"Sinch\u00e3 Mont\u00e3"},{"id":"915598","latitude":"12.61666670","longitude":"-14.01666670","name":"Sinch\u00e3 Naf\u00e0"},{"id":"915604","latitude":"12.38333330","longitude":"-14.43333330","name":"Sinch\u00e3 Nhinha"},{"id":"915606","latitude":"12.50000000","longitude":"-14.40000000","name":"Sinch\u00e3 Nhonc\u00f3"},{"id":"915608","latitude":"12.53333330","longitude":"-13.88333330","name":"Sinch\u00e3 Nori"},{"id":"915610","latitude":"12.55000000","longitude":"-14.33333330","name":"Sinch\u00e3 Nunco"},{"id":"915611","latitude":"12.55000000","longitude":"-13.90000000","name":"Sinch\u00e3 \u00d4g\u00f2 Lamoi"},{"id":"915612","latitude":"12.55000000","longitude":"-13.91666670","name":"Sinch\u00e3 \u00d4g\u00f2"},{"id":"915614","latitude":"12.21666670","longitude":"-14.21666670","name":"Sinch\u00e3 Pate Cumba"},{"id":"915615","latitude":"12.46666670","longitude":"-14.38333330","name":"Sinch\u00e3 Pat\u00e8 Cur\u00e9"},{"id":"915617","latitude":"12.21666670","longitude":"-14.16666670","name":"Sinch\u00e3 Pat\u00e9"},{"id":"915618","latitude":"12.53333330","longitude":"-13.91666670","name":"Sinch\u00e3 Pati"},{"id":"915619","latitude":"12.65000000","longitude":"-14.21666670","name":"Sinch\u00e3 Perim"},{"id":"915626","latitude":"12.51666670","longitude":"-14.13333330","name":"Sinch\u00e3 Quecoi"},{"id":"915634","latitude":"12.40000000","longitude":"-13.68333330","name":"Sinch\u00e3 Quins\u00e9"},{"id":"915635","latitude":"12.40000000","longitude":"-13.68333330","name":"Sinch\u00e3 Quinze"},{"id":"915636","latitude":"12.30000000","longitude":"-14.28333330","name":"Sinch\u00e3 Sabo"},{"id":"915639","latitude":"12.53333330","longitude":"-14.30000000","name":"Sinch\u00e3 Sajori"},{"id":"915640","latitude":"12.53333330","longitude":"-14.30000000","name":"Sinch\u00e3 Sajor"},{"id":"915643","latitude":"12.48333330","longitude":"-14.15000000","name":"Sincha S\u00e1l\u00e0"},{"id":"915645","latitude":"12.51666670","longitude":"-14.23333330","name":"Sinch\u00e3 Salio"},{"id":"915647","latitude":"12.51666670","longitude":"-14.23333330","name":"Sinch\u00e3 Saliu"},{"id":"915649","latitude":"12.36666670","longitude":"-14.40000000","name":"Sinch\u00e3 Samba Bald\u00e8"},{"id":"915651","latitude":"12.33333330","longitude":"-14.40000000","name":"Sinch\u00e3 Samba Dembo"},{"id":"915652","latitude":"12.43333330","longitude":"-14.26666670","name":"Sinch\u00e3 Sambael"},{"id":"915653","latitude":"12.50000000","longitude":"-14.13333330","name":"Sinch\u00e3 Samba Giba"},{"id":"915654","latitude":"12.48333330","longitude":"-14.21666670","name":"Sinch\u00e3 Samba Ia"},{"id":"915655","latitude":"12.33333330","longitude":"-14.41666670","name":"Sinch\u00e3 Samba I\u00f3b\u00e0"},{"id":"915658","latitude":"12.40000000","longitude":"-14.41666670","name":"Sinch\u00e3 Samba Jabu"},{"id":"915660","latitude":"12.40000000","longitude":"-14.41666670","name":"Sinch\u00e3 Samba Jalui"},{"id":"915661","latitude":"12.38333330","longitude":"-14.45000000","name":"Sinch\u00e3 Samba Jau"},{"id":"915662","latitude":"12.50000000","longitude":"-14.13333330","name":"Sinch\u00e3 Samba Jiba"},{"id":"915663","latitude":"12.50000000","longitude":"-14.25000000","name":"Sinch\u00e3 Sambanja"},{"id":"915669","latitude":"12.26666670","longitude":"-14.25000000","name":"Sinch\u00e3 Samba Seide"},{"id":"915670","latitude":"12.26666670","longitude":"-14.25000000","name":"Sinch\u00e3 Samba Seidi"},{"id":"915673","latitude":"12.28333330","longitude":"-14.36666670","name":"Sinch\u00e3 Samba"},{"id":"915675","latitude":"12.46666670","longitude":"-14.18333330","name":"Sinch\u00e3 Samba Taco"},{"id":"915677","latitude":"12.41666670","longitude":"-14.31666670","name":"Sinch\u00e3 Sambeli"},{"id":"915679","latitude":"12.43333330","longitude":"-14.26666670","name":"Sinch\u00e3 Sambel"},{"id":"915680","latitude":"12.61666670","longitude":"-13.76666670","name":"Sinch\u00e3 Sambendi"},{"id":"915681","latitude":"12.56666670","longitude":"-14.06666670","name":"Sinch\u00e3 Sanfinta"},{"id":"915682","latitude":"12.35000000","longitude":"-13.73333330","name":"Sinch\u00e3 Sara"},{"id":"915683","latitude":"12.40000000","longitude":"-14.26666670","name":"Sinch\u00e3 Sarmento"},{"id":"915685","latitude":"12.28333330","longitude":"-14.16666670","name":"Sinch\u00e3 Seco"},{"id":"915686","latitude":"12.25000000","longitude":"-14.21666670","name":"Sinch\u00e3 Seidib\u00e8"},{"id":"915690","latitude":"12.33333330","longitude":"-13.95000000","name":"Sinch\u00e3 S\u00ealu"},{"id":"915693","latitude":"12.26666670","longitude":"-14.31666670","name":"Sinch\u00e3 Serifo"},{"id":"915696","latitude":"12.36666670","longitude":"-13.76666670","name":"Sinch\u00e3 Sori Jomel"},{"id":"915698","latitude":"12.30000000","longitude":"-14.11666670","name":"Sinch\u00e3 Sori"},{"id":"915699","latitude":"12.45000000","longitude":"-13.65000000","name":"Sinch\u00e3 Sor"},{"id":"915702","latitude":"12.30000000","longitude":"-14.11666670","name":"Sinch\u00e3 Sulei"},{"id":"915704","latitude":"12.50000000","longitude":"-14.23333330","name":"Sinch\u00e3 Suncare"},{"id":"915705","latitude":"12.50000000","longitude":"-14.23333330","name":"Sinch\u00e3 Suncar\u00f2"},{"id":"915707","latitude":"12.28333330","longitude":"-14.33333330","name":"Sinch\u00e3 Suquel"},{"id":"915711","latitude":"12.30000000","longitude":"-14.31666670","name":"Sincha Talata"},{"id":"915712","latitude":"12.58333330","longitude":"-14.20000000","name":"Sinch\u00e3 Tenem"},{"id":"915714","latitude":"12.26666670","longitude":"-14.21666670","name":"Sinch\u00e3 Tomb\u00f5"},{"id":"915716","latitude":"12.30000000","longitude":"-14.31666670","name":"Sinch\u00e3 Totala"},{"id":"915719","latitude":"12.35000000","longitude":"-13.88333330","name":"Sinch\u00e3 Tuman\u00e9"},{"id":"915728","latitude":"12.31666670","longitude":"-14.36666670","name":"Sinch\u00e3 Ualom"},{"id":"915729","latitude":"12.43333330","longitude":"-14.30000000","name":"Sinch\u00e3 \u00dal\u00f2"},{"id":"915730","latitude":"12.43333330","longitude":"-14.30000000","name":"Sinch\u00e3 Ul\u00fa"},{"id":"915731","latitude":"12.40000000","longitude":"-14.08333330","name":"Sinch\u00e3 Umariel"},{"id":"915732","latitude":"12.41666670","longitude":"-14.00000000","name":"Sinch\u00e3 Umaro Bali"},{"id":"915735","latitude":"12.33333330","longitude":"-14.28333330","name":"Sinch\u00e3 Umaro"},{"id":"915737","latitude":"12.33333330","longitude":"-14.28333330","name":"Sinch\u00e3 Umero"},{"id":"915739","latitude":"12.46666670","longitude":"-14.10000000","name":"Sinch\u00e3 Usso"},{"id":"915741","latitude":"12.18333330","longitude":"-14.35000000","name":"Sinch\u00e3 Ussumane"},{"id":"915742","latitude":"11.96666670","longitude":"-14.00000000","name":"Sinchoro"},{"id":"915745","latitude":"11.96666670","longitude":"-14.00000000","name":"Sinchuro Binace"},{"id":"915746","latitude":"11.96666670","longitude":"-14.00000000","name":"Sinchuro Binasse"},{"id":"915749","latitude":"12.28333330","longitude":"-14.28333330","name":"Sinchuro"},{"id":"915754","latitude":"12.35000000","longitude":"-13.81666670","name":"Sinj\u00e3"},{"id":"915759","latitude":"12.26666670","longitude":"-14.11666670","name":"Sira Muriel"},{"id":"915760","latitude":"12.26666670","longitude":"-14.11666670","name":"Sira Murlel"},{"id":"915761","latitude":"12.63333330","longitude":"-14.21666670","name":"Sissaucunda Aliu"},{"id":"915762","latitude":"12.65000000","longitude":"-14.21666670","name":"Sissaucunda Samanco"},{"id":"915763","latitude":"12.65000000","longitude":"-14.21666670","name":"Sissau Cunda"},{"id":"915764","latitude":"12.65000000","longitude":"-14.21666670","name":"Sissaucunda Somanco"},{"id":"915766","latitude":"12.26666670","longitude":"-14.46666670","name":"Sissau"},{"id":"915769","latitude":"12.38333330","longitude":"-14.23333330","name":"Sobuda"},{"id":"915770","latitude":"12.36666670","longitude":"-14.25000000","name":"Sobud\u00e8"},{"id":"915782","latitude":"12.63333330","longitude":"-14.18333330","name":"Soncocunda"},{"id":"915796","latitude":"12.41666670","longitude":"-13.95000000","name":"Suame"},{"id":"915816","latitude":"12.18333330","longitude":"-14.05000000","name":"Suludinca"},{"id":"915818","latitude":"12.31666670","longitude":"-14.31666670","name":"Sumacunda"},{"id":"915831","latitude":"11.85000000","longitude":"-14.06666670","name":"Suto Manca"},{"id":"915832","latitude":"12.50000000","longitude":"-14.30000000","name":"Sutub\u00e1"},{"id":"915833","latitude":"12.26666670","longitude":"-13.95000000","name":"Sutuc\u00f3"},{"id":"915834","latitude":"11.85000000","longitude":"-14.06666670","name":"Sutumaca"},{"id":"915839","latitude":"12.08333330","longitude":"-13.85000000","name":"Tabadar\u00e1"},{"id":"915841","latitude":"12.40000000","longitude":"-14.15000000","name":"Tabaj\u00e3"},{"id":"915842","latitude":"12.48333330","longitude":"-14.35000000","name":"Tabajenque"},{"id":"915851","latitude":"12.61666670","longitude":"-14.11666670","name":"Tabass\u00e9"},{"id":"915852","latitude":"12.61666670","longitude":"-14.11666670","name":"Tabassi"},{"id":"915857","latitude":"12.48333330","longitude":"-14.35000000","name":"Tabojenque"},{"id":"915862","latitude":"12.46666670","longitude":"-14.28333330","name":"Taibat\u00e0"},{"id":"915869","latitude":"12.30000000","longitude":"-14.16666670","name":"Tamassi"},{"id":"915871","latitude":"12.03333330","longitude":"-13.80000000","name":"Tamatel"},{"id":"915879","latitude":"12.28333330","longitude":"-13.98333330","name":"Tambandinto"},{"id":"915897","latitude":"12.26666670","longitude":"-14.15000000","name":"Tassilim\u00e3"},{"id":"915910","latitude":"12.36666670","longitude":"-13.80000000","name":"Temanco"},{"id":"915912","latitude":"12.63333330","longitude":"-13.96666670","name":"Temanto"},{"id":"915915","latitude":"12.63333330","longitude":"-14.18333330","name":"Tembo Suco Cunda"},{"id":"915918","latitude":"12.46666670","longitude":"-13.65000000","name":"Tendeiro"},{"id":"915921","latitude":"12.00000000","longitude":"-13.75000000","name":"Tenquet\u00e1"},{"id":"915922","latitude":"12.66666670","longitude":"-14.10000000","name":"Tenquin\u00e3"},{"id":"915924","latitude":"12.33333330","longitude":"-14.16666670","name":"T\u00e9pel"},{"id":"915940","latitude":"12.61666670","longitude":"-14.11666670","name":"Tobasse"},{"id":"915944","latitude":"12.41666670","longitude":"-13.91666670","name":"Tompem"},{"id":"915946","latitude":"12.26666670","longitude":"-14.43333330","name":"Tonhatab\u00e1"},{"id":"915961","latitude":"12.40000000","longitude":"-13.91666670","name":"Tumbum Jansoma"},{"id":"915967","latitude":"12.21666670","longitude":"-14.45000000","name":"Uacaba"},{"id":"916017","latitude":"11.86666670","longitude":"-13.80000000","name":"Uch\u00e0"},{"id":"916026","latitude":"12.65000000","longitude":"-14.16666670","name":"Uel\u00edngara Solo"},{"id":"916029","latitude":"12.16666670","longitude":"-14.20000000","name":"Uelingar\u00e0"},{"id":"916034","latitude":"12.43333330","longitude":"-14.05000000","name":"Ufara"},{"id":"916035","latitude":"12.36666670","longitude":"-14.01666670","name":"Ufoia Baciri"},{"id":"916036","latitude":"12.36666670","longitude":"-14.01666670","name":"Ufoia Baciro"},{"id":"916037","latitude":"12.36666670","longitude":"-14.03333330","name":"Ufoia Balari"},{"id":"916038","latitude":"12.36666670","longitude":"-14.03333330","name":"Ufoia Baleri"},{"id":"916039","latitude":"12.36666670","longitude":"-14.03333330","name":"Ufoia Maund\u00e8cunda"},{"id":"916040","latitude":"12.38333330","longitude":"-14.05000000","name":"Ufoia Saban\u00e1"},{"id":"916041","latitude":"12.35000000","longitude":"-14.03333330","name":"Ufoia Saje Embal\u00f4"},{"id":"916042","latitude":"12.38333330","longitude":"-14.05000000","name":"Ufoia Sambui\u00e3"},{"id":"916043","latitude":"12.36666670","longitude":"-14.03333330","name":"Ufoia Ura"},{"id":"916052","latitude":"12.41666670","longitude":"-13.90000000","name":"Umaro Bald\u00e9"},{"id":"916054","latitude":"12.46666670","longitude":"-14.13333330","name":"Umaro Bela"},{"id":"916065","latitude":"12.40000000","longitude":"-14.20000000","name":"Umholi"},{"id":"916074","latitude":"12.45000000","longitude":"-14.08333330","name":"Unango"},{"id":"916097","latitude":"12.56666670","longitude":"-13.83333330","name":"Uoloto"},{"id":"916115","latitude":"12.55000000","longitude":"-13.83333330","name":"Vel\u00edgar\u00e0"},{"id":"916116","latitude":"12.61666670","longitude":"-13.80000000","name":"Vel\u00edngar\u00e0 Dul\u00f2"},{"id":"916117","latitude":"12.35000000","longitude":"-13.96666670","name":"Velingar\u00e1 II"},{"id":"916118","latitude":"12.58333330","longitude":"-13.88333330","name":"Vel\u00edngar\u00e0 Samba"},{"id":"916119","latitude":"12.35000000","longitude":"-13.98333330","name":"Velingar\u00e1"},{"id":"916126","latitude":"12.28333330","longitude":"-14.21666670","name":"Villa Gabu Sara"}]