[{"id":"916172","latitude":"5.08333330","longitude":"-58.51666670","name":"Attai"},{"id":"916173","latitude":"5.08333330","longitude":"-58.51666670","name":"Attai Village"},{"id":"916248","latitude":"6.01666670","longitude":"-58.31666670","name":"Christianburg"},{"id":"916250","latitude":"6.00000000","longitude":"-58.30000000","name":"Cockatara Village"},{"id":"916251","latitude":"5.56666670","longitude":"-57.91666670","name":"Coomacka"},{"id":"916272","latitude":"5.66666670","longitude":"-57.78333330","name":"Ebini Downs"},{"id":"916273","latitude":"5.66666670","longitude":"-57.78333330","name":"Ebini"},{"id":"916299","latitude":"5.61666670","longitude":"-57.73333330","name":"GNS Kimbia"},{"id":"916318","latitude":"5.80000000","longitude":"-57.75000000","name":"Hitia"},{"id":"916319","latitude":"5.80000000","longitude":"-57.75000000","name":"Hittia Settlement"},{"id":"916332","latitude":"5.36666670","longitude":"-58.00000000","name":"Hururu"},{"id":"916351","latitude":"5.53333330","longitude":"-58.25000000","name":"Itoni Township"},{"id":"916352","latitude":"5.53333330","longitude":"-58.25000000","name":"Ituni"},{"id":"916353","latitude":"5.53333330","longitude":"-58.25000000","name":"Ituni Townsite"},{"id":"916369","latitude":"5.55000000","longitude":"-57.91666670","name":"Kalkuni"},{"id":"916398","latitude":"6.00000000","longitude":"-58.30000000","name":"Kokatara Village"},{"id":"916413","latitude":"5.56666670","longitude":"-57.91666670","name":"Kumaka"},{"id":"916426","latitude":"5.28333330","longitude":"-58.05000000","name":"Kwakwani"},{"id":"916435","latitude":"5.83333330","longitude":"-58.25000000","name":"Lancaster"},{"id":"916443","latitude":"6.00000000","longitude":"-58.30000000","name":"Linden"},{"id":"916456","latitude":"6.00000000","longitude":"-58.28333330","name":"Mackenzie"},{"id":"916464","latitude":"5.61666670","longitude":"-58.35000000","name":"Malali"},{"id":"916480","latitude":"5.60000000","longitude":"-58.38333330","name":"Masabona"},{"id":"916485","latitude":"6.00000000","longitude":"-58.28333330","name":"McKenzie"},{"id":"916522","latitude":"6.00000000","longitude":"-58.30000000","name":"Noitgedacht"},{"id":"916549","latitude":"5.56666670","longitude":"-57.91666670","name":"Paradise"},{"id":"916588","latitude":"5.23333330","longitude":"-58.61666670","name":"Pubu"},{"id":"916602","latitude":"5.98333330","longitude":"-58.55000000","name":"Rockstone"},{"id":"916625","latitude":"5.80000000","longitude":"-57.75000000","name":"Sand Hills"},{"id":"916647","latitude":"5.68333330","longitude":"-57.85000000","name":"Sion"},{"id":"916670","latitude":"5.56666670","longitude":"-57.91666670","name":"Tacama"},{"id":"916671","latitude":"5.60000000","longitude":"-57.96666670","name":"Takama Battle School"},{"id":"916672","latitude":"5.56666670","longitude":"-57.91666670","name":"Takama"},{"id":"916696","latitude":"6.43333330","longitude":"-58.60000000","name":"Urisirima"},{"id":"916730","latitude":"6.00000000","longitude":"-58.30000000","name":"Watooka Village"},{"id":"916731","latitude":"6.00000000","longitude":"-58.30000000","name":"Watuka"},{"id":"916743","latitude":"5.50000000","longitude":"-58.38333330","name":"Wiribisirikanali"},{"id":"916744","latitude":"6.00000000","longitude":"-58.31666670","name":"Wisemar"},{"id":"916745","latitude":"6.00000000","longitude":"-58.31666670","name":"Wismar"},{"id":"916756","latitude":"5.68333330","longitude":"-57.85000000","name":"Zion"}]