[{"id":"918023","latitude":"15.15000000","longitude":"-88.30000000","name":"Abra del Padre"},{"id":"918030","latitude":"15.36666670","longitude":"-88.21666670","name":"Acequia"},{"id":"918069","latitude":"14.85000000","longitude":"-88.30000000","name":"Agua Blanca"},{"id":"918074","latitude":"14.83333330","longitude":"-88.25000000","name":"Agua Blanquita"},{"id":"918078","latitude":"14.96666670","longitude":"-88.38333330","name":"Agua Buena"},{"id":"918094","latitude":"14.71666670","longitude":"-88.13333330","name":"Agua Caliente"},{"id":"918103","latitude":"14.88333330","longitude":"-88.15000000","name":"Aguacatal"},{"id":"918106","latitude":"15.08333330","longitude":"-88.50000000","name":"Aguacatales"},{"id":"918115","latitude":"14.95000000","longitude":"-88.35000000","name":"Aguacate"},{"id":"918133","latitude":"15.18333330","longitude":"-88.13333330","name":"Agua Dulce"},{"id":"918139","latitude":"14.58333330","longitude":"-88.21666670","name":"Agua Escondida"},{"id":"918151","latitude":"15.06666670","longitude":"-88.35000000","name":"Agua Helada"},{"id":"918155","latitude":"15.33527780","longitude":"-88.55305560","name":"Agualote"},{"id":"918176","latitude":"15.35000000","longitude":"-88.20000000","name":"Agua Sucia"},{"id":"918191","latitude":"14.70000000","longitude":"-88.11666670","name":"Agua Zarca"},{"id":"918226","latitude":"15.05000000","longitude":"-88.31666670","name":"Aleanza"},{"id":"918227","latitude":"15.25000000","longitude":"-88.15000000","name":"Alegr\u00eda"},{"id":"918233","latitude":"15.05000000","longitude":"-88.31666670","name":"Alianza"},{"id":"918255","latitude":"15.11666670","longitude":"-88.13333330","name":"Amapa"},{"id":"918275","latitude":"15.15000000","longitude":"-88.28333330","name":"Angostura"},{"id":"918277","latitude":"14.90000000","longitude":"-88.21666670","name":"Anices"},{"id":"918282","latitude":"15.16666670","longitude":"-88.31666670","name":"Anonales"},{"id":"918283","latitude":"15.16666670","longitude":"-88.31666670","name":"Anonalez"},{"id":"918331","latitude":"14.85000000","longitude":"-88.30000000","name":"Arada"},{"id":"918335","latitude":"14.95000000","longitude":"-88.30000000","name":"Aradita"},{"id":"918361","latitude":"14.96666670","longitude":"-88.20000000","name":"Arenal"},{"id":"918405","latitude":"14.93333330","longitude":"-88.48333330","name":"Atima"},{"id":"918418","latitude":"15.23333330","longitude":"-88.31666670","name":"Aulola"},{"id":"918446","latitude":"14.71666670","longitude":"-88.10000000","name":"Azacualpa"},{"id":"918469","latitude":"14.93333330","longitude":"-88.33333330","name":"Baditos"},{"id":"918493","latitude":"14.75000000","longitude":"-88.23333330","name":"Baluarte"},{"id":"918506","latitude":"14.86666670","longitude":"-88.18333330","name":"Bancos"},{"id":"918508","latitude":"15.26666670","longitude":"-88.45000000","name":"Banderas"},{"id":"918509","latitude":"15.01666670","longitude":"-88.30000000","name":"Banderilla"},{"id":"918510","latitude":"15.25000000","longitude":"-88.30000000","name":"Banderillales"},{"id":"918522","latitude":"15.26666670","longitude":"-88.23333330","name":"Barbarita"},{"id":"918525","latitude":"14.70000000","longitude":"-88.36666670","name":"Barbasco"},{"id":"918611","latitude":"14.83333330","longitude":"-88.50000000","name":"Berl\u00edn"},{"id":"918661","latitude":"15.15000000","longitude":"-88.40000000","name":"Boquerones"},{"id":"918669","latitude":"15.08333330","longitude":"-88.20000000","name":"Breas"},{"id":"918678","latitude":"14.85000000","longitude":"-88.38333330","name":"Brisas de Oro"},{"id":"918679","latitude":"14.85000000","longitude":"-88.38333330","name":"Brisas Oro"},{"id":"918701","latitude":"14.75000000","longitude":"-88.30000000","name":"Buena Vista"},{"id":"918715","latitude":"14.60000000","longitude":"-88.21666670","name":"Buenos Aires"},{"id":"918771","latitude":"15.06666670","longitude":"-88.33333330","name":"Cacahulapa"},{"id":"918776","latitude":"15.40000000","longitude":"-88.23333330","name":"Cacao Abajo"},{"id":"918788","latitude":"15.06666670","longitude":"-88.33333330","name":"Cacaulapa"},{"id":"918814","latitude":"14.81666670","longitude":"-88.33333330","name":"Calamara"},{"id":"918816","latitude":"14.81666670","longitude":"-88.33333330","name":"Calanora"},{"id":"918836","latitude":"14.90000000","longitude":"-88.35000000","name":"Calichal"},{"id":"918837","latitude":"14.90000000","longitude":"-88.35000000","name":"Calichales"},{"id":"918850","latitude":"15.16666670","longitude":"-88.65000000","name":"Callejones"},{"id":"918860","latitude":"15.06666670","longitude":"-88.43333330","name":"Calpules"},{"id":"918867","latitude":"15.01666670","longitude":"-88.56666670","name":"Camacal"},{"id":"918875","latitude":"15.25000000","longitude":"-88.20000000","name":"Camalotal"},{"id":"918877","latitude":"15.25000000","longitude":"-88.20000000","name":"Camalotales"},{"id":"918883","latitude":"15.33333330","longitude":"-88.33333330","name":"Camalote"},{"id":"918898","latitude":"15.01666670","longitude":"-88.56666670","name":"Camocal"},{"id":"918902","latitude":"14.66666670","longitude":"-88.23333330","name":"Campalcal"},{"id":"918938","latitude":"15.01666670","longitude":"-88.20000000","name":"Ca\u00f1ada"},{"id":"918954","latitude":"14.86666670","longitude":"-88.50000000","name":"Ca\u00f1alitos"},{"id":"918961","latitude":"15.31666670","longitude":"-88.36666670","name":"Ca\u00f1as"},{"id":"918974","latitude":"14.73333330","longitude":"-88.13333330","name":"Canculuncos"},{"id":"918984","latitude":"13.63333330","longitude":"-87.60000000","name":"Candelaria"},{"id":"919003","latitude":"15.28333330","longitude":"-88.23333330","name":"Canoa"},{"id":"919021","latitude":"15.03333330","longitude":"-88.33333330","name":"Cantarranas"},{"id":"919035","latitude":"15.38333330","longitude":"-88.60000000","name":"Caobanal"},{"id":"919036","latitude":"15.10000000","longitude":"-88.48333330","name":"Caobanales"},{"id":"919043","latitude":"14.96666670","longitude":"-88.10000000","name":"Capucal"},{"id":"919049","latitude":"14.93333330","longitude":"-88.36666670","name":"Capul\u00edn"},{"id":"919055","latitude":"15.08333330","longitude":"-88.48333330","name":"Caracol"},{"id":"919097","latitude":"14.91666670","longitude":"-88.41666670","name":"Carrero"},{"id":"919100","latitude":"14.93333330","longitude":"-88.38333330","name":"Carreto"},{"id":"919114","latitude":"14.95000000","longitude":"-88.16666670","name":"Carrizal"},{"id":"919118","latitude":"15.25000000","longitude":"-88.30000000","name":"Carrizales"},{"id":"919146","latitude":"15.26666670","longitude":"-88.55000000","name":"Casa Quemada"},{"id":"919155","latitude":"15.25000000","longitude":"-88.46666670","name":"Casas Viejas"},{"id":"919207","latitude":"14.81666670","longitude":"-88.36666670","name":"Caulotales"},{"id":"919235","latitude":"15.11666670","longitude":"-88.23333330","name":"Cebadilla"},{"id":"919238","latitude":"15.05000000","longitude":"-88.20000000","name":"Cececapa"},{"id":"919260","latitude":"14.80000000","longitude":"-88.20000000","name":"Ceguaca"},{"id":"919270","latitude":"14.93333330","longitude":"-88.45000000","name":"Ceibita"},{"id":"919276","latitude":"14.75000000","longitude":"-88.21666670","name":"Celilaquita"},{"id":"919277","latitude":"14.75000000","longitude":"-88.21666670","name":"Celilaquito"},{"id":"919303","latitude":"14.83333330","longitude":"-88.50000000","name":"Cerritos"},{"id":"919322","latitude":"15.41500000","longitude":"-88.59527780","name":"Cerro Corralito"},{"id":"919328","latitude":"14.90000000","longitude":"-88.38333330","name":"Cerro de Jalapa"},{"id":"919349","latitude":"14.95000000","longitude":"-88.20000000","name":"Cerro el Toro"},{"id":"919359","latitude":"14.86666670","longitude":"-88.18333330","name":"Cerro Grande"},{"id":"919361","latitude":"14.90000000","longitude":"-88.38333330","name":"Cerro Jalapa"},{"id":"919372","latitude":"14.86666670","longitude":"-88.50000000","name":"Cerr\u00f3n"},{"id":"919377","latitude":"15.11666670","longitude":"-88.55000000","name":"Cerro Negro"},{"id":"919394","latitude":"15.08333330","longitude":"-88.23333330","name":"Cerro T\u00e1mara"},{"id":"919444","latitude":"15.11666670","longitude":"-88.28333330","name":"Chag\u00fciton"},{"id":"919450","latitude":"15.23333330","longitude":"-88.53333330","name":"Chamelec\u00f3n"},{"id":"919519","latitude":"15.05000000","longitude":"-88.30000000","name":"Chimisales"},{"id":"919520","latitude":"15.05000000","longitude":"-88.30000000","name":"Chimisals"},{"id":"919528","latitude":"15.11666670","longitude":"-88.20000000","name":"Chinda"},{"id":"919539","latitude":"15.16666670","longitude":"-88.53333330","name":"Chiqueros"},{"id":"919540","latitude":"15.13333330","longitude":"-88.15000000","name":"Chiquig\u00fcite"},{"id":"919541","latitude":"15.23333330","longitude":"-88.58333330","name":"Chiquila"},{"id":"919542","latitude":"15.23333330","longitude":"-88.58333330","name":"Chiquilla"},{"id":"919559","latitude":"15.10000000","longitude":"-88.15000000","name":"Chol"},{"id":"919563","latitude":"14.88333330","longitude":"-88.40000000","name":"Choloma"},{"id":"919572","latitude":"14.65000000","longitude":"-88.30000000","name":"Chorrera"},{"id":"919588","latitude":"15.23333330","longitude":"-88.50000000","name":"Chumbagua"},{"id":"919608","latitude":"15.00000000","longitude":"-88.31666670","name":"Cienaga"},{"id":"919625","latitude":"14.91666670","longitude":"-88.45000000","name":"Cimarron"},{"id":"919628","latitude":"14.91666670","longitude":"-88.45000000","name":"Cinam\u00f3n"},{"id":"919645","latitude":"15.30000000","longitude":"-88.50000000","name":"Ciruelo"},{"id":"919662","latitude":"15.10000000","longitude":"-88.48333330","name":"Coabanales"},{"id":"919698","latitude":"15.15000000","longitude":"-88.13333330","name":"Cola Blanca"},{"id":"919706","latitude":"15.16666670","longitude":"-88.65000000","name":"Collejones"},{"id":"919720","latitude":"15.03333330","longitude":"-88.31666670","name":"Col\u00f3n"},{"id":"919766","latitude":"14.80000000","longitude":"-88.16666670","name":"Concepcion"},{"id":"919770","latitude":"15.16666670","longitude":"-88.13333330","name":"Concepci\u00f3n del Norte"},{"id":"919772","latitude":"14.80000000","longitude":"-88.16666670","name":"Concepci\u00f3n del Sur"},{"id":"919778","latitude":"15.16666670","longitude":"-88.13333330","name":"Concepci\u00f3n Norte"},{"id":"919782","latitude":"14.80000000","longitude":"-88.16666670","name":"Concepci\u00f3n Sur"},{"id":"919794","latitude":"15.13333330","longitude":"-88.21666670","name":"Concordia"},{"id":"919801","latitude":"14.85000000","longitude":"-88.36666670","name":"Congol\u00f3n"},{"id":"919836","latitude":"14.98333330","longitude":"-88.60000000","name":"Copantio"},{"id":"919882","latitude":"15.11666670","longitude":"-88.30000000","name":"Corozal"},{"id":"919905","latitude":"14.90000000","longitude":"-88.61666670","name":"Corralitos"},{"id":"919909","latitude":"15.26666670","longitude":"-88.23333330","name":"Corral Viejo"},{"id":"919910","latitude":"15.41666670","longitude":"-88.45000000","name":"Corredero"},{"id":"919911","latitude":"15.41666670","longitude":"-88.45000000","name":"Correderos"},{"id":"919914","latitude":"15.13333330","longitude":"-88.23333330","name":"Corrizal"},{"id":"919927","latitude":"15.15000000","longitude":"-88.28333330","name":"Coturas"},{"id":"919988","latitude":"15.00000000","longitude":"-88.65000000","name":"Crucita"},{"id":"919992","latitude":"14.88333330","longitude":"-88.20000000","name":"Crucitas"},{"id":"920004","latitude":"14.86666670","longitude":"-88.46666670","name":"Cruz de Pacaya"},{"id":"920007","latitude":"14.90000000","longitude":"-88.38333330","name":"Cruz Grande"},{"id":"920009","latitude":"14.95000000","longitude":"-88.43333330","name":"Cuabano"},{"id":"920021","latitude":"15.15000000","longitude":"-88.16666670","name":"Cubequito"},{"id":"920024","latitude":"15.13333330","longitude":"-88.20000000","name":"Cubo"},{"id":"920027","latitude":"15.16666670","longitude":"-88.20000000","name":"Cuchilla Alta"},{"id":"920028","latitude":"14.83333330","longitude":"-88.18333330","name":"Cuchilla"},{"id":"920031","latitude":"15.05000000","longitude":"-88.40000000","name":"Cuchilla de la Danta"},{"id":"920035","latitude":"14.78333330","longitude":"-88.20000000","name":"Cuchilla del Pastal"},{"id":"920036","latitude":"15.05000000","longitude":"-88.40000000","name":"Cuchilla de Robles"},{"id":"920046","latitude":"15.28333330","longitude":"-88.00000000","name":"Cuesta Abajo"},{"id":"920048","latitude":"14.88333330","longitude":"-88.20000000","name":"Cuesta"},{"id":"920078","latitude":"15.34083330","longitude":"-88.53166670","name":"Culupa"},{"id":"920080","latitude":"14.96666670","longitude":"-88.56666670","name":"Cumballa"},{"id":"920081","latitude":"14.96666670","longitude":"-88.56666670","name":"Cumbaya"},{"id":"920084","latitude":"15.05000000","longitude":"-88.33333330","name":"Cumbre"},{"id":"920085","latitude":"15.20000000","longitude":"-88.66666670","name":"Cumbre del Palmichal"},{"id":"920115","latitude":"15.15000000","longitude":"-88.16666670","name":"Cutuquito"},{"id":"920116","latitude":"15.15000000","longitude":"-88.28333330","name":"Cuturos"},{"id":"920150","latitude":"14.90000000","longitude":"-88.50000000","name":"Delicias"},{"id":"920156","latitude":"14.96666670","longitude":"-88.63333330","name":"Derrumbe"},{"id":"920184","latitude":"15.05000000","longitude":"-88.26666670","name":"Diviso"},{"id":"920202","latitude":"15.28333330","longitude":"-88.43333330","name":"Dragos"},{"id":"920224","latitude":"15.13333330","longitude":"-88.18333330","name":"Eden"},{"id":"920262","latitude":"14.88333330","longitude":"-88.15000000","name":"El Aguacatal"},{"id":"920272","latitude":"14.95000000","longitude":"-88.35000000","name":"El Aguacate"},{"id":"920278","latitude":"14.95000000","longitude":"-88.31666670","name":"El Aguacatillo"},{"id":"920285","latitude":"14.73333330","longitude":"-88.26666670","name":"El Aguaje"},{"id":"920294","latitude":"14.81666670","longitude":"-88.11666670","name":"El \u00c1guila"},{"id":"920295","latitude":"14.75000000","longitude":"-88.08333330","name":"El Ag\u00fcita"},{"id":"920371","latitude":"14.98333330","longitude":"-88.20000000","name":"El B\u00e1lsamo"},{"id":"920380","latitude":"15.01666670","longitude":"-88.30000000","name":"El Banderilla"},{"id":"920383","latitude":"14.70000000","longitude":"-88.36666670","name":"El Barbasco"},{"id":"920390","latitude":"15.26666670","longitude":"-88.66666670","name":"El Barranco"},{"id":"920412","latitude":"14.78333330","longitude":"-88.16666670","name":"El Barro"},{"id":"920423","latitude":"14.83333330","longitude":"-88.50000000","name":"El Benque"},{"id":"920454","latitude":"13.63333330","longitude":"-87.60000000","name":"El Bur\u00edo"},{"id":"920472","latitude":"15.16666670","longitude":"-88.55000000","name":"El Cacao"},{"id":"920486","latitude":"14.60000000","longitude":"-88.21666670","name":"El Calichal"},{"id":"920497","latitude":"14.93333330","longitude":"-88.33333330","name":"El Callej\u00f3n"},{"id":"920525","latitude":"14.86666670","longitude":"-88.51666670","name":"El Cant\u00f3n"},{"id":"920540","latitude":"15.08333330","longitude":"-88.48333330","name":"El Caracol"},{"id":"920568","latitude":"14.75000000","longitude":"-88.08333330","name":"El Carreto"},{"id":"920580","latitude":"14.78333330","longitude":"-88.16666670","name":"El Carrizal"},{"id":"920620","latitude":"15.08333330","longitude":"-88.63333330","name":"El Cedral"},{"id":"920628","latitude":"15.00000000","longitude":"-88.11666670","name":"El Cedro"},{"id":"920648","latitude":"14.85000000","longitude":"-88.51666670","name":"El Cerro"},{"id":"920658","latitude":"14.86666670","longitude":"-88.50000000","name":"El Cerr\u00f3n"},{"id":"920675","latitude":"15.11666670","longitude":"-88.28333330","name":"El Chag\u00fcit\u00f3n"},{"id":"920688","latitude":"14.71666670","longitude":"-88.23333330","name":"El Chaparr\u00f3n"},{"id":"920713","latitude":"15.06666670","longitude":"-88.63333330","name":"El Chile"},{"id":"920719","latitude":"15.08333330","longitude":"-88.45000000","name":"El Chimis"},{"id":"920726","latitude":"15.08333330","longitude":"-88.45000000","name":"El Chismis"},{"id":"920730","latitude":"15.10000000","longitude":"-88.15000000","name":"El Chol"},{"id":"920744","latitude":"15.25000000","longitude":"-88.35000000","name":"El Chorro"},{"id":"920751","latitude":"14.85000000","longitude":"-88.51666670","name":"El Chupadero"},{"id":"920758","latitude":"14.91666670","longitude":"-88.45000000","name":"El Cimarr\u00f3n"},{"id":"920776","latitude":"15.30000000","longitude":"-88.50000000","name":"El Ciruelo"},{"id":"920791","latitude":"14.85000000","longitude":"-88.51666670","name":"El Colocho"},{"id":"920828","latitude":"15.36666670","longitude":"-88.48333330","name":"El Coral"},{"id":"920845","latitude":"15.06666670","longitude":"-88.61666670","name":"El Corozal"},{"id":"920848","latitude":"15.41666670","longitude":"-88.46666670","name":"El Corozo"},{"id":"920878","latitude":"15.34611110","longitude":"-88.50388890","name":"El Coyol"},{"id":"920891","latitude":"14.95000000","longitude":"-88.43333330","name":"El Cu\u00e1bano"},{"id":"920894","latitude":"15.13333330","longitude":"-88.20000000","name":"El Cubo"},{"id":"920925","latitude":"14.93333330","longitude":"-88.08333330","name":"El Dieciocho"},{"id":"920930","latitude":"14.61666670","longitude":"-88.21666670","name":"El Diviso"},{"id":"920946","latitude":"15.13333330","longitude":"-88.18333330","name":"El Ed\u00e9n"},{"id":"920951","latitude":"14.95000000","longitude":"-88.45000000","name":"El Embocadero"},{"id":"920957","latitude":"15.05000000","longitude":"-88.33333330","name":"El Encanto"},{"id":"920973","latitude":"15.25000000","longitude":"-88.68333330","name":"El Ermitano"},{"id":"920985","latitude":"14.88333330","longitude":"-88.21666670","name":"El Escondido"},{"id":"920990","latitude":"15.34388890","longitude":"-88.56916670","name":"El Eslab\u00f3n"},{"id":"921043","latitude":"14.60000000","longitude":"-88.21666670","name":"El Gavil\u00e1n"},{"id":"921051","latitude":"15.15000000","longitude":"-88.28333330","name":"El Guacaral"},{"id":"921061","latitude":"14.73333330","longitude":"-88.26666670","name":"El Guaje"},{"id":"921075","latitude":"15.16666670","longitude":"-88.53333330","name":"El Guanacaste"},{"id":"921111","latitude":"14.98333330","longitude":"-88.13333330","name":"El Guayabo"},{"id":"921115","latitude":"15.13333330","longitude":"-88.31666670","name":"El Guineal"},{"id":"921117","latitude":"15.23333330","longitude":"-88.13333330","name":"El G\u00fciral"},{"id":"921119","latitude":"15.06666670","longitude":"-88.65000000","name":"El G\u00fciscoyol"},{"id":"921135","latitude":"15.00000000","longitude":"-88.30000000","name":"El Hato"},{"id":"921146","latitude":"15.45055560","longitude":"-88.52638890","name":"El Higueral"},{"id":"921154","latitude":"15.31666670","longitude":"-88.40000000","name":"El Higuerito"},{"id":"921163","latitude":"14.98333330","longitude":"-88.06666670","name":"El Higuito"},{"id":"921207","latitude":"15.08333330","longitude":"-88.50000000","name":"El Jard\u00edn"},{"id":"921211","latitude":"14.75000000","longitude":"-88.23333330","name":"El Jengibral"},{"id":"921231","latitude":"15.38555560","longitude":"-88.54361110","name":"El J\u00edcaro"},{"id":"921274","latitude":"14.81666670","longitude":"-88.15000000","name":"El Junquillo"},{"id":"921283","latitude":"15.40138890","longitude":"-88.53861110","name":"El Jute"},{"id":"921294","latitude":"14.88333330","longitude":"-88.46666670","name":"El Lempa"},{"id":"921316","latitude":"14.98333330","longitude":"-88.11666670","name":"El Lim\u00f3n"},{"id":"921340","latitude":"14.81666670","longitude":"-88.31666670","name":"El Llano"},{"id":"921386","latitude":"15.38277780","longitude":"-88.61333330","name":"El M\u00e1rmol"},{"id":"921389","latitude":"14.80000000","longitude":"-88.28333330","name":"El Masical"},{"id":"921415","latitude":"14.90000000","longitude":"-88.50000000","name":"El Maule"},{"id":"921427","latitude":"14.86666670","longitude":"-88.08333330","name":"El Mochito"},{"id":"921435","latitude":"14.76666670","longitude":"-88.06666670","name":"El Mogote"},{"id":"921485","latitude":"14.86666670","longitude":"-88.50000000","name":"El Nance"},{"id":"921508","latitude":"14.95000000","longitude":"-88.68333330","name":"El Naranjito"},{"id":"921518","latitude":"15.34750000","longitude":"-88.61222220","name":"El Naranjo"},{"id":"921524","latitude":"14.98333330","longitude":"-88.60000000","name":"El Nisperal"},{"id":"921528","latitude":"14.76666670","longitude":"-88.33333330","name":"El N\u00edspero"},{"id":"921529","latitude":"14.86666670","longitude":"-88.08333330","name":"El Nochito"},{"id":"921534","latitude":"14.83333330","longitude":"-88.06666670","name":"El Novillo"},{"id":"921552","latitude":"14.85000000","longitude":"-88.28333330","name":"El Ocotal"},{"id":"921563","latitude":"14.76666670","longitude":"-88.11666670","name":"El Ocote"},{"id":"921574","latitude":"14.80000000","longitude":"-88.35000000","name":"El Ocotillo"},{"id":"921592","latitude":"14.81666670","longitude":"-88.15000000","name":"El Ojo de Ag\u00fcita"},{"id":"921614","latitude":"15.28333330","longitude":"-88.68333330","name":"El Oro"},{"id":"921622","latitude":"14.81666670","longitude":"-88.20000000","name":"El Pacayal"},{"id":"921644","latitude":"14.83333330","longitude":"-88.35000000","name":"El Palmo"},{"id":"921670","latitude":"14.75000000","longitude":"-88.08333330","name":"El Para\u00edso"},{"id":"921688","latitude":"15.23333330","longitude":"-88.28333330","name":"El Pataste"},{"id":"921719","latitude":"14.98333330","longitude":"-88.65000000","name":"El Pe\u00f1asco"},{"id":"921754","latitude":"14.76666670","longitude":"-88.20000000","name":"El Pil\u00f3n"},{"id":"921758","latitude":"15.08333330","longitude":"-88.36666670","name":"El Pinabete"},{"id":"921776","latitude":"14.98333330","longitude":"-88.23333330","name":"El Pital"},{"id":"921794","latitude":"15.05000000","longitude":"-88.28333330","name":"El Plan"},{"id":"921814","latitude":"15.10000000","longitude":"-88.48333330","name":"El Play\u00f3n"},{"id":"921820","latitude":"14.81666670","longitude":"-88.11666670","name":"El Ponciano"},{"id":"921821","latitude":"14.81666670","longitude":"-88.11666670","name":"El Ponciono"},{"id":"921852","latitude":"14.93333330","longitude":"-88.31666670","name":"El Portillo"},{"id":"921874","latitude":"14.85000000","longitude":"-88.43333330","name":"El Porvenir"},{"id":"921985","latitude":"14.93333330","longitude":"-88.26666670","name":"El Remolino"},{"id":"921991","latitude":"14.86666670","longitude":"-88.43333330","name":"El Resumidero"},{"id":"921998","latitude":"14.93333330","longitude":"-88.36666670","name":"El Retiro"},{"id":"922000","latitude":"14.81666670","longitude":"-88.51666670","name":"El Retrato"},{"id":"922017","latitude":"14.76666670","longitude":"-88.21666670","name":"El Rinc\u00f3n"},{"id":"922029","latitude":"14.95000000","longitude":"-88.58333330","name":"El Roblar"},{"id":"922056","latitude":"15.15000000","longitude":"-88.28333330","name":"El Rodeo"},{"id":"922071","latitude":"15.21666670","longitude":"-88.65000000","name":"El Rosario"},{"id":"922093","latitude":"14.80000000","longitude":"-88.23333330","name":"El Salitre"},{"id":"922101","latitude":"15.20000000","longitude":"-88.15000000","name":"El Salvador"},{"id":"922114","latitude":"14.88333330","longitude":"-88.05000000","name":"El Sauce"},{"id":"922136","latitude":"15.41666670","longitude":"-88.33333330","name":"El Sitio"},{"id":"922155","latitude":"15.05000000","longitude":"-88.25000000","name":"El S\u00f3tano"},{"id":"922159","latitude":"14.83333330","longitude":"-88.43333330","name":"El Suital"},{"id":"922160","latitude":"15.05000000","longitude":"-88.28333330","name":"El Suite"},{"id":"922192","latitude":"14.98333330","longitude":"-88.30000000","name":"El Tabl\u00f3n"},{"id":"922215","latitude":"14.91666670","longitude":"-88.33333330","name":"El Tanque"},{"id":"922226","latitude":"15.15000000","longitude":"-88.28333330","name":"El Temblor"},{"id":"922247","latitude":"14.98333330","longitude":"-88.50000000","name":"El Terrero"},{"id":"922253","latitude":"15.10000000","longitude":"-88.41666670","name":"El Terromote"},{"id":"922263","latitude":"15.08333330","longitude":"-88.26666670","name":"El Tigre"},{"id":"922277","latitude":"14.75000000","longitude":"-88.08333330","name":"El Tontol"},{"id":"922278","latitude":"14.75000000","longitude":"-88.31666670","name":"El Tontolo"},{"id":"922306","latitude":"15.05000000","longitude":"-88.33333330","name":"El Triunfo"},{"id":"922312","latitude":"15.30000000","longitude":"-88.51666670","name":"El Tular"},{"id":"922321","latitude":"14.91666670","longitude":"-88.45000000","name":"El Tule"},{"id":"922324","latitude":"15.15000000","longitude":"-88.28333330","name":"El Tumbo"},{"id":"922358","latitude":"15.47277780","longitude":"-88.50138890","name":"El Venado"},{"id":"922406","latitude":"15.06666670","longitude":"-88.33333330","name":"El Zapotal"},{"id":"922407","latitude":"15.15000000","longitude":"-88.41666670","name":"El Zapotalito"},{"id":"922421","latitude":"14.96666670","longitude":"-88.23333330","name":"El Zapote"},{"id":"922436","latitude":"15.03333330","longitude":"-88.60000000","name":"El Zarzal"},{"id":"922443","latitude":"14.68333330","longitude":"-88.10000000","name":"El Zompopero"},{"id":"922453","latitude":"15.05000000","longitude":"-88.25000000","name":"El Zotano"},{"id":"922460","latitude":"14.95000000","longitude":"-88.45000000","name":"Embocadero"},{"id":"922465","latitude":"15.05000000","longitude":"-88.33333330","name":"Encanto"},{"id":"922521","latitude":"14.98333330","longitude":"-88.21666670","name":"Estancia"},{"id":"922523","latitude":"14.98333330","longitude":"-88.21666670","name":"Estancias"},{"id":"922539","latitude":"15.15000000","longitude":"-88.23333330","name":"Fascala"},{"id":"922567","latitude":"15.13333330","longitude":"-88.18333330","name":"Flores"},{"id":"922589","latitude":"15.43472220","longitude":"-88.53305560","name":"Gal\u00e1pagos"},{"id":"922593","latitude":"14.88333330","longitude":"-88.23333330","name":"Galeras"},{"id":"922614","latitude":"15.35444440","longitude":"-88.63555560","name":"Goconal"},{"id":"922620","latitude":"14.75000000","longitude":"-88.08333330","name":"Gonzora"},{"id":"922625","latitude":"14.93333330","longitude":"-88.31666670","name":"Grama"},{"id":"922626","latitude":"15.10000000","longitude":"-88.41666670","name":"Gramales"},{"id":"922651","latitude":"15.01666670","longitude":"-88.15000000","name":"Guacamaya"},{"id":"922656","latitude":"15.01666670","longitude":"-88.15000000","name":"Guacamayas"},{"id":"922657","latitude":"15.15000000","longitude":"-88.28333330","name":"Guacaral"},{"id":"922704","latitude":"15.01666670","longitude":"-88.23333330","name":"Gualala"},{"id":"922731","latitude":"14.95000000","longitude":"-88.23333330","name":"Gualjaco"},{"id":"922734","latitude":"14.95000000","longitude":"-88.23333330","name":"Gualjoco"},{"id":"922735","latitude":"15.00000000","longitude":"-88.23333330","name":"Gualjoquito"},{"id":"922826","latitude":"15.13333330","longitude":"-88.43333330","name":"Guaruma"},{"id":"922846","latitude":"15.35000000","longitude":"-88.20000000","name":"Guasma Becker"},{"id":"922847","latitude":"15.38333330","longitude":"-88.23333330","name":"Guasma"},{"id":"922849","latitude":"15.35000000","longitude":"-88.20000000","name":"Guasma Paz"},{"id":"922850","latitude":"15.38333330","longitude":"-88.23333330","name":"Guasmo"},{"id":"922919","latitude":"15.13333330","longitude":"-88.31666670","name":"Guineal"},{"id":"922928","latitude":"14.88333330","longitude":"-88.53333330","name":"G\u00fciscoyoles"},{"id":"922929","latitude":"15.06666670","longitude":"-88.65000000","name":"G\u00fciscoyol"},{"id":"923061","latitude":"14.95000000","longitude":"-88.43333330","name":"Haciendita"},{"id":"923075","latitude":"15.00000000","longitude":"-88.30000000","name":"Hato"},{"id":"923086","latitude":"14.85000000","longitude":"-86.21666670","name":"Hato Viejo"},{"id":"923113","latitude":"15.31666670","longitude":"-88.40000000","name":"Higuerito"},{"id":"923114","latitude":"15.31666670","longitude":"-88.40000000","name":"Higueritos"},{"id":"923147","latitude":"15.25000000","longitude":"-88.23333330","name":"Honduritas"},{"id":"923150","latitude":"14.83333330","longitude":"-88.18333330","name":"Horconcito"},{"id":"923185","latitude":"15.10000000","longitude":"-88.26666670","name":"Huerta Abajo"},{"id":"923188","latitude":"15.10000000","longitude":"-88.26666670","name":"Huertas"},{"id":"923197","latitude":"14.88333330","longitude":"-88.53333330","name":"Huiscoyoles"},{"id":"923200","latitude":"14.98333330","longitude":"-88.21666670","name":"Humigua"},{"id":"923204","latitude":"15.06666670","longitude":"-88.33333330","name":"Hundiciones"},{"id":"923207","latitude":"14.98333330","longitude":"-88.41666670","name":"Ijala"},{"id":"923208","latitude":"15.06666670","longitude":"-88.21666670","name":"Ilama"},{"id":"923268","latitude":"14.95000000","longitude":"-88.33333330","name":"Jacalaca"},{"id":"923276","latitude":"15.35444440","longitude":"-88.63555560","name":"Jaconal"},{"id":"923298","latitude":"14.93333330","longitude":"-88.33333330","name":"Jalapa"},{"id":"923311","latitude":"14.95000000","longitude":"-88.43333330","name":"Janumigula"},{"id":"923322","latitude":"14.75000000","longitude":"-88.23333330","name":"Jengibral"},{"id":"923332","latitude":"14.95000000","longitude":"-88.30000000","name":"Jicaluyo"},{"id":"923358","latitude":"14.95000000","longitude":"-88.30000000","name":"Jicatuyo"},{"id":"923363","latitude":"15.00000000","longitude":"-88.38333330","name":"Jilica"},{"id":"923365","latitude":"15.15000000","longitude":"-88.16666670","name":"Jilote"},{"id":"923379","latitude":"14.98333330","longitude":"-88.61666670","name":"Jimilile"},{"id":"923380","latitude":"14.95000000","longitude":"-88.43333330","name":"Jimingula"},{"id":"923403","latitude":"15.31666670","longitude":"-88.23333330","name":"Jocomico"},{"id":"923407","latitude":"15.35444440","longitude":"-88.63555560","name":"Joconales"},{"id":"923410","latitude":"15.35444440","longitude":"-88.63555560","name":"Joconal"},{"id":"923459","latitude":"14.85000000","longitude":"-88.25000000","name":"Jululo"},{"id":"923490","latitude":"14.83333330","longitude":"-88.01666670","name":"Jutiapa"},{"id":"923542","latitude":"15.36666670","longitude":"-88.21666670","name":"La Acequilla"},{"id":"923566","latitude":"15.15000000","longitude":"-88.28333330","name":"La Angostura"},{"id":"923572","latitude":"14.85000000","longitude":"-88.30000000","name":"La Arada"},{"id":"923590","latitude":"14.98333330","longitude":"-88.25000000","name":"La Barquera"},{"id":"923600","latitude":"15.06666670","longitude":"-88.25000000","name":"La Boca"},{"id":"923618","latitude":"15.08333330","longitude":"-88.20000000","name":"La Brea"},{"id":"923624","latitude":"14.78333330","longitude":"-88.05000000","name":"La Buena Fe"},{"id":"923632","latitude":"15.34055560","longitude":"-88.63277780","name":"La Cafetalera"},{"id":"923645","latitude":"14.76666670","longitude":"-88.16666670","name":"La Calera"},{"id":"923653","latitude":"15.16666670","longitude":"-88.28333330","name":"La Campa"},{"id":"923661","latitude":"14.86666670","longitude":"-88.45000000","name":"La Ca\u00f1ada"},{"id":"923673","latitude":"15.28333330","longitude":"-88.23333330","name":"La Canoa"},{"id":"923701","latitude":"15.11666670","longitude":"-88.23333330","name":"La Cebadilla"},{"id":"923711","latitude":"15.00000000","longitude":"-88.26666670","name":"La Ceiba"},{"id":"923722","latitude":"14.90000000","longitude":"-88.25000000","name":"La Ceibita"},{"id":"923733","latitude":"15.36666670","longitude":"-88.21666670","name":"La Champa"},{"id":"923748","latitude":"14.65000000","longitude":"-88.30000000","name":"La Chorrera"},{"id":"923762","latitude":"15.00000000","longitude":"-88.31666670","name":"La Ci\u00e9nega"},{"id":"923798","latitude":"15.36250000","longitude":"-88.64500000","name":"La Coroza"},{"id":"923834","latitude":"14.78333330","longitude":"-88.20000000","name":"La Cuchilla"},{"id":"923841","latitude":"14.88333330","longitude":"-88.20000000","name":"La Cuesta"},{"id":"923852","latitude":"15.21666670","longitude":"-88.55000000","name":"La Cueva"},{"id":"923860","latitude":"15.20000000","longitude":"-88.66666670","name":"La Cumbre de Palmichal"},{"id":"923866","latitude":"15.15000000","longitude":"-88.26666670","name":"La Cumbre"},{"id":"923870","latitude":"14.93333330","longitude":"-88.45000000","name":"La Cunita"},{"id":"923888","latitude":"15.43638890","longitude":"-88.56000000","name":"La Divisioria"},{"id":"923920","latitude":"15.41138890","longitude":"-88.59222220","name":"La Esperancita"},{"id":"923932","latitude":"14.78333330","longitude":"-88.16666670","name":"La Esperanza"},{"id":"923944","latitude":"14.95000000","longitude":"-88.33333330","name":"La Estancia"},{"id":"923951","latitude":"14.91666670","longitude":"-88.23333330","name":"La Finca"},{"id":"923953","latitude":"15.28333330","longitude":"-88.48333330","name":"La Flecha"},{"id":"923981","latitude":"14.93333330","longitude":"-88.31666670","name":"La Gama"},{"id":"924004","latitude":"15.10000000","longitude":"-88.45000000","name":"La Golondrina"},{"id":"924006","latitude":"14.93333330","longitude":"-88.31666670","name":"La Grama Aguacatillo"},{"id":"924007","latitude":"14.93333330","longitude":"-88.31666670","name":"La Grama"},{"id":"924010","latitude":"13.63333330","longitude":"-87.60000000","name":"La Granadilla"},{"id":"924025","latitude":"14.85000000","longitude":"-88.08333330","name":"La Guama"},{"id":"924031","latitude":"15.38333330","longitude":"-88.23333330","name":"La Guasma"},{"id":"924037","latitude":"15.01666670","longitude":"-88.33333330","name":"Laguna Colorada"},{"id":"924038","latitude":"15.01666670","longitude":"-88.33333330","name":"Laguna Colorado"},{"id":"924044","latitude":"15.05000000","longitude":"-88.33333330","name":"Laguna del Pinabete"},{"id":"924054","latitude":"15.06666670","longitude":"-88.33333330","name":"Laguna Inea"},{"id":"924057","latitude":"15.03333330","longitude":"-88.58333330","name":"Laguna"},{"id":"924067","latitude":"15.21666670","longitude":"-88.60000000","name":"Laguna Seca"},{"id":"924072","latitude":"15.13333330","longitude":"-88.40000000","name":"Lagunatos"},{"id":"924073","latitude":"15.20000000","longitude":"-88.16666670","name":"Laguna Verde"},{"id":"924078","latitude":"15.15000000","longitude":"-88.43333330","name":"Laguneta"},{"id":"924090","latitude":"14.90000000","longitude":"-88.45000000","name":"Lagunitas"},{"id":"924099","latitude":"15.13333330","longitude":"-88.56666670","name":"La Hacienda"},{"id":"924103","latitude":"14.95000000","longitude":"-88.43333330","name":"La Haciendita"},{"id":"924125","latitude":"15.01666670","longitude":"-88.50000000","name":"La Huerta"},{"id":"924140","latitude":"14.98333330","longitude":"-88.25000000","name":"La Isla"},{"id":"924154","latitude":"15.05000000","longitude":"-88.65000000","name":"La Jag\u00fcilla"},{"id":"924184","latitude":"15.35416670","longitude":"-88.53222220","name":"La Joya del V\u00e9nado"},{"id":"924191","latitude":"15.37388890","longitude":"-88.54472220","name":"La Joya"},{"id":"924209","latitude":"15.05000000","longitude":"-88.33333330","name":"La Laguna del Pinabete"},{"id":"924224","latitude":"14.83333330","longitude":"-88.20000000","name":"La Laguna"},{"id":"924230","latitude":"14.78333330","longitude":"-88.15000000","name":"La Laguneta"},{"id":"924240","latitude":"14.65000000","longitude":"-88.28333330","name":"La Leona"},{"id":"924242","latitude":"14.65000000","longitude":"-88.28333330","name":"La Leonera"},{"id":"924253","latitude":"14.78333330","longitude":"-88.18333330","name":"La Libertad"},{"id":"924315","latitude":"14.88333330","longitude":"-88.31666670","name":"La Maquete"},{"id":"924317","latitude":"15.21666670","longitude":"-88.31666670","name":"La Marcelina"},{"id":"924346","latitude":"15.01666670","longitude":"-88.06666670","name":"La Mica"},{"id":"924354","latitude":"15.21666670","longitude":"-88.55000000","name":"La Mina"},{"id":"924357","latitude":"15.26666670","longitude":"-88.36666670","name":"La Minita"},{"id":"924362","latitude":"14.98333330","longitude":"-88.33333330","name":"La Misi\u00f3n"},{"id":"924380","latitude":"15.05000000","longitude":"-88.33333330","name":"La Monta\u00f1ita"},{"id":"924390","latitude":"15.43083330","longitude":"-88.55444440","name":"La Moroca"},{"id":"924412","latitude":"15.23333330","longitude":"-88.31666670","name":"La Olola"},{"id":"924445","latitude":"15.11666670","longitude":"-88.43333330","name":"La Pe\u00f1a"},{"id":"924452","latitude":"15.13333330","longitude":"-88.43333330","name":"La Pe\u00f1ita"},{"id":"924474","latitude":"14.61666670","longitude":"-88.20000000","name":"La Pimientilla"},{"id":"924499","latitude":"14.78333330","longitude":"-88.16666670","name":"La Playa"},{"id":"924537","latitude":"14.78333330","longitude":"-88.21666670","name":"La Puerta"},{"id":"924545","latitude":"15.11666670","longitude":"-88.26666670","name":"La Quebrada"},{"id":"924571","latitude":"15.16666670","longitude":"-88.35000000","name":"La Reforma"},{"id":"924574","latitude":"15.11666670","longitude":"-88.63333330","name":"La Reina"},{"id":"924593","latitude":"14.75000000","longitude":"-88.08333330","name":"La Ruda"},{"id":"924595","latitude":"15.15000000","longitude":"-88.60000000","name":"La Ruidosa"},{"id":"924611","latitude":"15.15000000","longitude":"-88.26666670","name":"La Salud"},{"id":"924614","latitude":"15.43333330","longitude":"-88.23333330","name":"Las Anchas"},{"id":"924651","latitude":"15.08333330","longitude":"-88.20000000","name":"Las Breas"},{"id":"924672","latitude":"14.90000000","longitude":"-88.31666670","name":"Las Ca\u00f1as"},{"id":"924725","latitude":"14.88333330","longitude":"-88.20000000","name":"Las Crucitas"},{"id":"924760","latitude":"15.03333330","longitude":"-88.61666670","name":"Las Delicias"},{"id":"924769","latitude":"15.28333330","longitude":"-88.00000000","name":"La Senda"},{"id":"924793","latitude":"15.13333330","longitude":"-88.18333330","name":"Las Flores"},{"id":"924800","latitude":"14.90000000","longitude":"-88.31666670","name":"Las Graditas"},{"id":"924822","latitude":"15.15000000","longitude":"-88.26666670","name":"La Sierpe"},{"id":"924842","latitude":"14.98333330","longitude":"-88.30000000","name":"Las Joyas"},{"id":"924889","latitude":"14.83333330","longitude":"-88.21666670","name":"Las Lomas"},{"id":"924917","latitude":"14.80000000","longitude":"-88.36666670","name":"Las Mar\u00edas"},{"id":"924952","latitude":"14.91666670","longitude":"-88.30000000","name":"Las Mojarras"},{"id":"925000","latitude":"14.98333330","longitude":"-88.30000000","name":"Las Pe\u00f1as Joyas"},{"id":"925032","latitude":"14.83333330","longitude":"-88.21666670","name":"Las Pi\u00f1itas"},{"id":"925042","latitude":"15.43083330","longitude":"-88.55444440","name":"Las Planchas"},{"id":"925043","latitude":"14.93333330","longitude":"-88.20000000","name":"Las Planes"},{"id":"925054","latitude":"15.05000000","longitude":"-88.63333330","name":"Las Pozas"},{"id":"925070","latitude":"14.81666670","longitude":"-88.33333330","name":"Las Quebradas"},{"id":"925082","latitude":"15.03333330","longitude":"-88.40000000","name":"Las Rosas"},{"id":"925090","latitude":"15.43333330","longitude":"-88.23333330","name":"Las S\u00e1nchez"},{"id":"925131","latitude":"15.05000000","longitude":"-88.26666670","name":"Las Trojes"},{"id":"925150","latitude":"15.28333330","longitude":"-88.56666670","name":"Las Varas"},{"id":"925160","latitude":"14.86666670","longitude":"-88.06666670","name":"Las Vegas"},{"id":"925162","latitude":"15.13333330","longitude":"-88.25000000","name":"Las Vegitas"},{"id":"925173","latitude":"15.06666670","longitude":"-88.61666670","name":"Las Vueltas"},{"id":"925222","latitude":"15.13333330","longitude":"-88.55000000","name":"La Uni\u00f3n"},{"id":"925245","latitude":"14.65000000","longitude":"-88.30000000","name":"La Vega"},{"id":"925248","latitude":"15.21666670","longitude":"-88.53333330","name":"La Vegona"},{"id":"925250","latitude":"14.71666670","longitude":"-88.15000000","name":"La Venada"},{"id":"925260","latitude":"15.11666670","longitude":"-88.31666670","name":"La V\u00edbora"},{"id":"925266","latitude":"15.03333330","longitude":"-88.36666670","name":"La Victoria"},{"id":"925279","latitude":"14.85000000","longitude":"-88.15000000","name":"La Vueltosa"},{"id":"925292","latitude":"15.18333330","longitude":"-88.65000000","name":"La Zona"},{"id":"925294","latitude":"15.05000000","longitude":"-88.28333330","name":"Lazuite"},{"id":"925300","latitude":"14.88333330","longitude":"-88.46666670","name":"Lempa"},{"id":"925327","latitude":"14.78333330","longitude":"-88.18333330","name":"Libertad"},{"id":"925351","latitude":"14.95000000","longitude":"-88.31666670","name":"Limoncito"},{"id":"925369","latitude":"15.11666670","longitude":"-88.15000000","name":"Limon"},{"id":"925386","latitude":"15.08333330","longitude":"-88.16666670","name":"Lirios"},{"id":"925395","latitude":"15.01666670","longitude":"-88.43333330","name":"Llamal\u00e1"},{"id":"925402","latitude":"14.88333330","longitude":"-88.50000000","name":"Llanitos"},{"id":"925418","latitude":"14.98333330","longitude":"-88.30000000","name":"Llano del Le\u00f3n"},{"id":"925439","latitude":"14.98333330","longitude":"-88.30000000","name":"Llano Le\u00f3n"},{"id":"925464","latitude":"14.98333330","longitude":"-88.20000000","name":"Lodo Negro"},{"id":"925472","latitude":"15.39666670","longitude":"-88.55972220","name":"Loma Alta"},{"id":"925488","latitude":"14.86666670","longitude":"-88.40000000","name":"Loma del Ocotal"},{"id":"925490","latitude":"14.86666670","longitude":"-88.40000000","name":"Loma de Ocotal"},{"id":"925493","latitude":"15.05000000","longitude":"-88.65000000","name":"Loma Encerrada"},{"id":"925498","latitude":"15.00000000","longitude":"-88.25000000","name":"Loma Larga"},{"id":"925500","latitude":"15.15000000","longitude":"-88.26666670","name":"Loma Limpia"},{"id":"925538","latitude":"15.11666670","longitude":"-88.43333330","name":"Los Achiotes"},{"id":"925542","latitude":"15.11666670","longitude":"-88.43333330","name":"Los Achotes"},{"id":"925573","latitude":"14.65000000","longitude":"-88.31666670","name":"Los Anices"},{"id":"925597","latitude":"14.86666670","longitude":"-88.18333330","name":"Los Bancos"},{"id":"925615","latitude":"15.05000000","longitude":"-88.63333330","name":"Los Camarones"},{"id":"925636","latitude":"15.10000000","longitude":"-88.48333330","name":"Los Cerrados"},{"id":"925639","latitude":"14.83333330","longitude":"-88.50000000","name":"Los Cerritos"},{"id":"925658","latitude":"15.16666670","longitude":"-88.53333330","name":"Los Chiqueros"},{"id":"925687","latitude":"15.15000000","longitude":"-88.28333330","name":"Los Coturas"},{"id":"925695","latitude":"15.15000000","longitude":"-88.28333330","name":"Los Cuturos"},{"id":"925699","latitude":"14.81666670","longitude":"-88.35000000","name":"Los Dantos"},{"id":"925709","latitude":"14.98333330","longitude":"-88.16666670","name":"Los Ejidos"},{"id":"925730","latitude":"15.10000000","longitude":"-88.41666670","name":"Los Gramales"},{"id":"925732","latitude":"15.10000000","longitude":"-88.41666670","name":"Los Granales"},{"id":"925739","latitude":"14.91666670","longitude":"-88.33333330","name":"Los Guindos"},{"id":"925741","latitude":"15.34944440","longitude":"-88.53833330","name":"Los Guin\u00e9os"},{"id":"925767","latitude":"14.83333330","longitude":"-88.43333330","name":"Los Hoyos"},{"id":"925792","latitude":"15.13333330","longitude":"-88.40000000","name":"Los Lagunatos"},{"id":"925794","latitude":"14.93333330","longitude":"-88.26666670","name":"Los Lanitos"},{"id":"925824","latitude":"14.93333330","longitude":"-88.26666670","name":"Los Llanitos"},{"id":"925865","latitude":"15.36666670","longitude":"-88.61666670","name":"Los Monos"},{"id":"925886","latitude":"15.15000000","longitude":"-88.26666670","name":"Los Naranjos"},{"id":"925904","latitude":"14.88333330","longitude":"-88.21666670","name":"Los Patastes"},{"id":"925917","latitude":"15.15000000","longitude":"-88.23333330","name":"Los Pitones"},{"id":"925940","latitude":"14.88333330","longitude":"-88.33333330","name":"Los Planes"},{"id":"925943","latitude":"14.93333330","longitude":"-88.28333330","name":"Los Platanares"},{"id":"925948","latitude":"14.93333330","longitude":"-88.28333330","name":"Los Platares"},{"id":"925995","latitude":"15.01666670","longitude":"-88.18333330","name":"Los Regadillos"},{"id":"926006","latitude":"14.81666670","longitude":"-88.21666670","name":"Los Robles"},{"id":"926009","latitude":"15.43333330","longitude":"-88.23333330","name":"Los Sanches"},{"id":"926012","latitude":"15.03333330","longitude":"-88.40000000","name":"Los Sanjones"},{"id":"926038","latitude":"15.28333330","longitude":"-88.68333330","name":"Los Tarros"},{"id":"926063","latitude":"15.03333330","longitude":"-88.40000000","name":"Los Zanjones"},{"id":"926074","latitude":"14.95000000","longitude":"-88.33333330","name":"Lucitania"},{"id":"926089","latitude":"14.91666670","longitude":"-88.30000000","name":"Macholoa"},{"id":"926096","latitude":"15.15000000","longitude":"-88.18333330","name":"Macueliso"},{"id":"926102","latitude":"15.30000000","longitude":"-88.53333330","name":"Macuelizo"},{"id":"926111","latitude":"15.33333330","longitude":"-88.33333330","name":"Madre Vieja"},{"id":"926120","latitude":"15.38250000","longitude":"-88.51166670","name":"Maguellalez"},{"id":"926127","latitude":"14.75000000","longitude":"-88.31666670","name":"Ma\u00edz Blanco"},{"id":"926156","latitude":"15.08333330","longitude":"-88.45000000","name":"Malcotal"},{"id":"926159","latitude":"14.66666670","longitude":"-88.26666670","name":"Malera"},{"id":"926161","latitude":"14.63333330","longitude":"-88.21666670","name":"Malguaca"},{"id":"926207","latitude":"15.33333330","longitude":"-88.31666670","name":"Mandinga"},{"id":"926243","latitude":"14.88333330","longitude":"-88.31666670","name":"Maqueta"},{"id":"926281","latitude":"15.21666670","longitude":"-88.51666670","name":"Masicales"},{"id":"926283","latitude":"14.91666670","longitude":"-88.16666670","name":"Masical"},{"id":"926295","latitude":"15.18333330","longitude":"-88.58333330","name":"Mata de Pl\u00e1tano"},{"id":"926322","latitude":"15.16666670","longitude":"-88.23333330","name":"Matasanales"},{"id":"926330","latitude":"15.16666670","longitude":"-88.23333330","name":"Matazanales"},{"id":"926383","latitude":"14.95000000","longitude":"-88.26666670","name":"Meraguaca"},{"id":"926400","latitude":"15.26666670","longitude":"-88.23333330","name":"Mescalitos"},{"id":"926416","latitude":"15.36388890","longitude":"-88.56416670","name":"Mezcales"},{"id":"926420","latitude":"15.26666670","longitude":"-88.23333330","name":"Mezcalitos"},{"id":"926424","latitude":"15.01666670","longitude":"-88.06666670","name":"Mica"},{"id":"926433","latitude":"15.38333330","longitude":"-88.41666670","name":"Milpa Arada"},{"id":"926435","latitude":"15.38333330","longitude":"-88.41666670","name":"Milparada"},{"id":"926439","latitude":"15.21666670","longitude":"-88.55000000","name":"Mina de Santa B\u00e1rbara"},{"id":"926441","latitude":"15.35000000","longitude":"-88.30000000","name":"Mina"},{"id":"926448","latitude":"14.95000000","longitude":"-88.26666670","name":"Minguaco"},{"id":"926455","latitude":"14.93333330","longitude":"-88.08333330","name":"Miraflores"},{"id":"926487","latitude":"14.85000000","longitude":"-88.08333330","name":"Mochito Mine"},{"id":"926488","latitude":"14.86666670","longitude":"-88.08333330","name":"Mochito"},{"id":"926489","latitude":"14.85000000","longitude":"-88.08333330","name":"Mocho Arriba"},{"id":"926490","latitude":"14.85000000","longitude":"-88.08333330","name":"Mocho"},{"id":"926497","latitude":"14.76666670","longitude":"-88.06666670","name":"Mogote"},{"id":"926500","latitude":"14.80000000","longitude":"-88.25000000","name":"Moguete"},{"id":"926504","latitude":"14.65000000","longitude":"-88.21666670","name":"Mojarras"},{"id":"926512","latitude":"14.63333330","longitude":"-88.21666670","name":"Molo"},{"id":"926522","latitude":"15.36666670","longitude":"-88.61666670","name":"Monos"},{"id":"926539","latitude":"14.98333330","longitude":"-88.16666670","name":"Monta\u00f1ita"},{"id":"926601","latitude":"14.86666670","longitude":"-88.43333330","name":"Montes de Oro"},{"id":"926692","latitude":"15.21666670","longitude":"-88.31666670","name":"\u00d1a Marcelina"},{"id":"926702","latitude":"14.86666670","longitude":"-88.50000000","name":"Nance"},{"id":"926704","latitude":"15.15000000","longitude":"-88.28333330","name":"Nanchapa"},{"id":"926720","latitude":"14.95000000","longitude":"-88.68333330","name":"Naranjito"},{"id":"926740","latitude":"14.80000000","longitude":"-88.31666670","name":"Nejapa"},{"id":"926745","latitude":"14.80000000","longitude":"-88.36666670","name":"New York"},{"id":"926747","latitude":"15.15000000","longitude":"-88.51666670","name":"Nisperales"},{"id":"926748","latitude":"14.76666670","longitude":"-88.33333330","name":"Nispero"},{"id":"926763","latitude":"14.98333330","longitude":"-88.33333330","name":"Nueva Celilac"},{"id":"926770","latitude":"14.78333330","longitude":"-88.16666670","name":"Nueva Esperanza"},{"id":"926774","latitude":"14.91666670","longitude":"-88.33333330","name":"Nueva Jalapa"},{"id":"926779","latitude":"14.96666670","longitude":"-88.53333330","name":"Nueva Victoria"},{"id":"926780","latitude":"14.80000000","longitude":"-88.36666670","name":"Nueva York"},{"id":"926782","latitude":"14.98333330","longitude":"-88.33333330","name":"Nuevo Celilac"},{"id":"926785","latitude":"14.91666670","longitude":"-88.33333330","name":"Nuevo Jalapa"},{"id":"926786","latitude":"15.23333330","longitude":"-88.16666670","name":"Nuevo Porvenir"},{"id":"926823","latitude":"14.85000000","longitude":"-88.28333330","name":"Ocotal"},{"id":"926825","latitude":"15.28333330","longitude":"-88.41666670","name":"Ocotal Tupido"},{"id":"926849","latitude":"15.36666670","longitude":"-88.36666670","name":"Ocote Solo"},{"id":"926936","latitude":"15.28333330","longitude":"-88.68333330","name":"Oro"},{"id":"926950","latitude":"15.35000000","longitude":"-88.40000000","name":"Ouimistan"},{"id":"926960","latitude":"15.16666670","longitude":"-88.21666670","name":"Pacayal"},{"id":"927008","latitude":"15.10000000","longitude":"-88.60000000","name":"Palma Real"},{"id":"927010","latitude":"15.31666670","longitude":"-88.15000000","name":"Palmarejo"},{"id":"927029","latitude":"15.08333330","longitude":"-88.50000000","name":"Palmira"},{"id":"927034","latitude":"14.83333330","longitude":"-88.35000000","name":"Palmo"},{"id":"927052","latitude":"15.33333330","longitude":"-88.13333330","name":"Palos Blancos"},{"id":"927096","latitude":"15.23333330","longitude":"-88.30000000","name":"Para\u00edso"},{"id":"927116","latitude":"15.23333330","longitude":"-88.53333330","name":"Paso del Chamelec\u00f3n"},{"id":"927143","latitude":"15.53333330","longitude":"-88.41666670","name":"Paso Viejo"},{"id":"927148","latitude":"14.98333330","longitude":"-88.31666670","name":"Pastorero"},{"id":"927180","latitude":"14.81666670","longitude":"-88.01666670","name":"Pedernales"},{"id":"927203","latitude":"14.81666670","longitude":"-88.20000000","name":"Peladilla"},{"id":"927212","latitude":"15.08333330","longitude":"-88.46666670","name":"Pe\u00f1a Blanca"},{"id":"927216","latitude":"14.60000000","longitude":"-88.23333330","name":"Pe\u00f1as Blancas"},{"id":"927241","latitude":"15.26666670","longitude":"-88.28333330","name":"Petoa"},{"id":"927245","latitude":"15.05000000","longitude":"-88.46666670","name":"Picachito"},{"id":"927293","latitude":"15.33583330","longitude":"-88.52000000","name":"PiedraGorda"},{"id":"927299","latitude":"15.00000000","longitude":"-88.31666670","name":"Piedra Grande"},{"id":"927304","latitude":"15.37361110","longitude":"-88.55250000","name":"Piedra Larga"},{"id":"927319","latitude":"14.98333330","longitude":"-88.08333330","name":"Piedras Amarillas"},{"id":"927323","latitude":"15.11666670","longitude":"-88.43333330","name":"Piedras Azules"},{"id":"927328","latitude":"14.83333330","longitude":"-88.06666670","name":"Piedras de Afilar"},{"id":"927337","latitude":"15.18333330","longitude":"-88.65000000","name":"Piedras Negras"},{"id":"927345","latitude":"15.30000000","longitude":"-88.63333330","name":"Piladeros"},{"id":"927366","latitude":"15.03333330","longitude":"-88.33333330","name":"Pinabete"},{"id":"927370","latitude":"15.38333330","longitude":"-88.40000000","name":"Pinalejo"},{"id":"927371","latitude":"15.11666670","longitude":"-88.18333330","name":"Pinalillo"},{"id":"927377","latitude":"15.00000000","longitude":"-88.30000000","name":"Pinal"},{"id":"927378","latitude":"15.03333330","longitude":"-88.33333330","name":"Pinaveta"},{"id":"927392","latitude":"15.30000000","longitude":"-88.48333330","name":"Pi\u00f1uelas"},{"id":"927403","latitude":"14.96666670","longitude":"-88.20000000","name":"Pital"},{"id":"927406","latitude":"15.15000000","longitude":"-88.23333330","name":"Pitones Altos"},{"id":"927407","latitude":"15.15000000","longitude":"-88.23333330","name":"Pitones"},{"id":"927421","latitude":"14.68333330","longitude":"-88.15000000","name":"Plan de Encima"},{"id":"927425","latitude":"15.25000000","longitude":"-88.35000000","name":"Plan de Eulola"},{"id":"927431","latitude":"15.23333330","longitude":"-88.31666670","name":"Plan de la Olola"},{"id":"927446","latitude":"15.10000000","longitude":"-88.26666670","name":"Plan del Negro"},{"id":"927451","latitude":"15.08333330","longitude":"-88.16666670","name":"Plan de los Lirios"},{"id":"927497","latitude":"15.05000000","longitude":"-88.28333330","name":"Plan"},{"id":"927508","latitude":"14.96666670","longitude":"-88.18333330","name":"Platanares"},{"id":"927519","latitude":"14.95000000","longitude":"-88.28333330","name":"Playa Grande"},{"id":"927547","latitude":"14.96666670","longitude":"-88.55000000","name":"Pompoa"},{"id":"927588","latitude":"15.08333330","longitude":"-88.50000000","name":"Portillo del Tigre"},{"id":"927612","latitude":"15.16666670","longitude":"-88.35000000","name":"Portillo Hondo"},{"id":"927641","latitude":"14.85000000","longitude":"-88.43333330","name":"Porvenir"},{"id":"927648","latitude":"15.06666670","longitude":"-88.40000000","name":"Posoma"},{"id":"927668","latitude":"15.26666670","longitude":"-88.43333330","name":"Potrerillos"},{"id":"927681","latitude":"15.34750000","longitude":"-88.55694440","name":"Potreritos"},{"id":"927708","latitude":"15.06666670","longitude":"-88.40000000","name":"Pozoma"},{"id":"927727","latitude":"15.03333330","longitude":"-88.65000000","name":"Protecci\u00f3n"},{"id":"927736","latitude":"15.26666670","longitude":"-88.28333330","name":"Pueblo Nuevo de Petoa"},{"id":"927745","latitude":"14.66666670","longitude":"-88.28333330","name":"Pueblo Nuevo"},{"id":"927756","latitude":"15.31666670","longitude":"-88.35000000","name":"Pueblo Viejo"},{"id":"927782","latitude":"15.38138890","longitude":"-88.52416670","name":"Puerta"},{"id":"927866","latitude":"14.96666670","longitude":"-88.21666670","name":"Quebrada Arriba"},{"id":"927877","latitude":"15.10000000","longitude":"-88.46666670","name":"Quebrada de Dulce"},{"id":"927882","latitude":"14.90000000","longitude":"-88.46666670","name":"Quebrada del Naranjo"},{"id":"927890","latitude":"14.83333330","longitude":"-88.41666670","name":"Quebrada Desplayada"},{"id":"927896","latitude":"14.90000000","longitude":"-88.46666670","name":"Quebrada el Naranjo"},{"id":"927904","latitude":"14.91666670","longitude":"-88.45000000","name":"Quebrada Grande"},{"id":"927917","latitude":"14.98333330","longitude":"-88.40000000","name":"Quebrada Honda"},{"id":"927925","latitude":"15.13333330","longitude":"-88.40000000","name":"Quebrada Obscura"},{"id":"927926","latitude":"15.13333330","longitude":"-88.40000000","name":"Quebrada Oscura"},{"id":"927931","latitude":"15.15000000","longitude":"-88.40000000","name":"Quebrada Seca"},{"id":"927941","latitude":"15.15000000","longitude":"-88.20000000","name":"Quebraditas"},{"id":"927944","latitude":"15.15000000","longitude":"-88.20000000","name":"Quebroditas"},{"id":"927946","latitude":"14.93333330","longitude":"-88.25000000","name":"Quecoa"},{"id":"928002","latitude":"15.35000000","longitude":"-88.40000000","name":"Quimist\u00e1n"},{"id":"928042","latitude":"15.25000000","longitude":"-88.30000000","name":"Rancho Pedro"},{"id":"928086","latitude":"15.16666670","longitude":"-88.43333330","name":"Regadillo"},{"id":"928087","latitude":"15.16666670","longitude":"-88.43333330","name":"Regadillos"},{"id":"928096","latitude":"14.86666670","longitude":"-88.43333330","name":"Resumidero"},{"id":"928101","latitude":"14.93333330","longitude":"-88.36666670","name":"Retiro"},{"id":"928155","latitude":"15.20000000","longitude":"-88.51666670","name":"R\u00edo Blanco"},{"id":"928177","latitude":"14.86666670","longitude":"-88.50000000","name":"R\u00edo Fr\u00edo"},{"id":"928222","latitude":"15.15000000","longitude":"-88.21666670","name":"Robledal"},{"id":"928248","latitude":"15.15000000","longitude":"-88.28333330","name":"Rodeo"},{"id":"928261","latitude":"15.21666670","longitude":"-88.65000000","name":"Rosario"},{"id":"928264","latitude":"15.03333330","longitude":"-88.40000000","name":"Rosas"},{"id":"928316","latitude":"15.30000000","longitude":"-88.51666670","name":"Sabanetas"},{"id":"928359","latitude":"14.80000000","longitude":"-88.23333330","name":"Salitre"},{"id":"928368","latitude":"15.20000000","longitude":"-88.15000000","name":"Salvador"},{"id":"928398","latitude":"14.66666670","longitude":"-88.23333330","name":"San Antonio Campalcal"},{"id":"928399","latitude":"14.75000000","longitude":"-88.15000000","name":"San Antonio Chuche"},{"id":"928401","latitude":"14.75000000","longitude":"-88.15000000","name":"San Antonio de Chuchepeque"},{"id":"928402","latitude":"14.75000000","longitude":"-88.15000000","name":"San Antonio de Chuche"},{"id":"928412","latitude":"15.16666670","longitude":"-88.58333330","name":"San Antonio de la Cumbre"},{"id":"928414","latitude":"15.26666670","longitude":"-88.16666670","name":"San Antonio de la Majada"},{"id":"928418","latitude":"14.91666670","longitude":"-88.41666670","name":"San Antonio del Monte"},{"id":"928423","latitude":"15.26666670","longitude":"-88.16666670","name":"San Antonio de Majada"},{"id":"928424","latitude":"14.66666670","longitude":"-88.26666670","name":"San Antonio de Malera"},{"id":"928433","latitude":"15.26666670","longitude":"-88.16666670","name":"San Antonio Majada"},{"id":"928451","latitude":"14.75000000","longitude":"-88.15000000","name":"San Antonio"},{"id":"928479","latitude":"15.43333330","longitude":"-88.23333330","name":"Sanches"},{"id":"928511","latitude":"14.71666670","longitude":"-88.30000000","name":"San Fernando"},{"id":"928526","latitude":"14.75000000","longitude":"-88.18333330","name":"San Francisco de Ojuera"},{"id":"928531","latitude":"14.75000000","longitude":"-88.18333330","name":"San Francisco Ojuera"},{"id":"928542","latitude":"14.75000000","longitude":"-88.18333330","name":"San Francisco"},{"id":"928550","latitude":"14.88333330","longitude":"-88.23333330","name":"San Gaspar"},{"id":"928579","latitude":"14.70000000","longitude":"-88.28333330","name":"San Isidro"},{"id":"928586","latitude":"15.00000000","longitude":"-88.30000000","name":"San Jer\u00f3nimo del Pinal"},{"id":"928589","latitude":"15.00000000","longitude":"-88.30000000","name":"San Jer\u00f3nimo Pinal"},{"id":"928601","latitude":"14.73333330","longitude":"-88.35000000","name":"San Jer\u00f3nimo"},{"id":"928606","latitude":"15.25000000","longitude":"-88.16666670","name":"San Joaqu\u00edn"},{"id":"928611","latitude":"15.03333330","longitude":"-88.30000000","name":"San Jos\u00e9 Colinas"},{"id":"928618","latitude":"15.03333330","longitude":"-88.30000000","name":"San Jos\u00e9 de Colinas"},{"id":"928619","latitude":"15.01666670","longitude":"-88.30000000","name":"San Jos\u00e9 de Col\u00f3n"},{"id":"928628","latitude":"15.33333330","longitude":"-88.16666670","name":"San Jos\u00e9 de la Majada"},{"id":"928629","latitude":"14.70000000","longitude":"-88.36666670","name":"San Jos\u00e9 de la Monta\u00f1a"},{"id":"928638","latitude":"15.46666670","longitude":"-88.30000000","name":"San Jos\u00e9 del Cacao"},{"id":"928642","latitude":"14.90000000","longitude":"-88.10000000","name":"San Jos\u00e9 de Los Andes"},{"id":"928644","latitude":"14.90000000","longitude":"-88.10000000","name":"San Jos\u00e9 de Los Planes"},{"id":"928652","latitude":"15.33333330","longitude":"-88.16666670","name":"San Jose de Majada"},{"id":"928661","latitude":"15.30000000","longitude":"-88.70000000","name":"San Jos\u00e9 de Tarros"},{"id":"928695","latitude":"15.45000000","longitude":"-88.40000000","name":"San Juan del Sitio"},{"id":"928704","latitude":"14.93333330","longitude":"-88.28333330","name":"San Juan Pinal"},{"id":"928719","latitude":"14.76666670","longitude":"-88.21666670","name":"San Juan"},{"id":"928742","latitude":"14.98333330","longitude":"-88.13333330","name":"San Luis de Planes"},{"id":"928743","latitude":"15.01666670","longitude":"-88.28333330","name":"San Luis Pacayal"},{"id":"928744","latitude":"15.08333330","longitude":"-88.38333330","name":"San Luis Paj\u00f3n"},{"id":"928745","latitude":"14.98333330","longitude":"-88.13333330","name":"San Luis Planes"},{"id":"928755","latitude":"15.08333330","longitude":"-88.38333330","name":"San Luis"},{"id":"928760","latitude":"14.91666670","longitude":"-88.36666670","name":"San Manuel del Triunfo"},{"id":"928785","latitude":"15.30000000","longitude":"-88.41666670","name":"San Marcos"},{"id":"928798","latitude":"15.41666670","longitude":"-88.45000000","name":"San Miguel Correderos"},{"id":"928799","latitude":"15.53333330","longitude":"-88.41666670","name":"San Miguel de Paso Viejo"},{"id":"928806","latitude":"15.10000000","longitude":"-88.63333330","name":"San Miguelito"},{"id":"928807","latitude":"14.98333330","longitude":"-88.26666670","name":"San Miguel Lajas"},{"id":"928812","latitude":"14.98333330","longitude":"-88.26666670","name":"San Miguel"},{"id":"928817","latitude":"14.98333330","longitude":"-88.41666670","name":"San Nicolasito"},{"id":"928825","latitude":"14.93333330","longitude":"-88.31666670","name":"San Nicol\u00e1s"},{"id":"928838","latitude":"14.90000000","longitude":"-88.50000000","name":"San Pedrito"},{"id":"928854","latitude":"14.90000000","longitude":"-88.50000000","name":"San Pedro"},{"id":"928857","latitude":"14.75000000","longitude":"-88.11666670","name":"San Pedro Zacapa"},{"id":"928871","latitude":"14.90000000","longitude":"-88.50000000","name":"San Rafael"},{"id":"928881","latitude":"14.66666670","longitude":"-88.30000000","name":"San Ram\u00f3n"},{"id":"928894","latitude":"14.70000000","longitude":"-88.11666670","name":"San Sebasti\u00e1n"},{"id":"928914","latitude":"14.75000000","longitude":"-88.16666670","name":"Santa Ana"},{"id":"928925","latitude":"14.91666670","longitude":"-88.23333330","name":"Santa B\u00e1rbara"},{"id":"928928","latitude":"15.26666670","longitude":"-88.23333330","name":"Santa Barbarita"},{"id":"928935","latitude":"15.23333330","longitude":"-88.28333330","name":"Santa Clara"},{"id":"928938","latitude":"14.93333330","longitude":"-88.38333330","name":"Santa Cruz Cuchilla"},{"id":"928940","latitude":"15.36666670","longitude":"-88.30000000","name":"Santa Cruz de la Mina"},{"id":"928945","latitude":"15.36666670","longitude":"-88.30000000","name":"Santa Cruz Minas"},{"id":"928956","latitude":"14.75000000","longitude":"-88.35000000","name":"Santa Cruz"},{"id":"928970","latitude":"15.08333330","longitude":"-88.48333330","name":"Santa Elena"},{"id":"928979","latitude":"14.70000000","longitude":"-88.20000000","name":"Santa Fe"},{"id":"929033","latitude":"14.91666670","longitude":"-88.21666670","name":"Santa Rita"},{"id":"929042","latitude":"14.80000000","longitude":"-88.25000000","name":"Santa Rosal\u00eda"},{"id":"929056","latitude":"15.00000000","longitude":"-88.21666670","name":"Santa Rosita"},{"id":"929063","latitude":"14.98333330","longitude":"-88.58333330","name":"Santiago de Posta"},{"id":"929072","latitude":"14.98333330","longitude":"-88.58333330","name":"Santiago"},{"id":"929082","latitude":"14.88333330","longitude":"-88.28333330","name":"San Vicente Centenario"},{"id":"929083","latitude":"15.01666670","longitude":"-88.10000000","name":"San Vicente de la Nieve"},{"id":"929084","latitude":"14.88333330","longitude":"-88.28333330","name":"San Vicente del Centenario"},{"id":"929088","latitude":"14.88333330","longitude":"-88.28333330","name":"San Vicente"},{"id":"929120","latitude":"14.88333330","longitude":"-88.05000000","name":"Sauce"},{"id":"929224","latitude":"15.25000000","longitude":"-88.38333330","name":"Sitio Viejo"},{"id":"929256","latitude":"15.33333330","longitude":"-88.55000000","name":"Sompopero"},{"id":"929271","latitude":"14.85000000","longitude":"-88.35000000","name":"Sorca"},{"id":"929305","latitude":"15.25000000","longitude":"-88.56666670","name":"Sula"},{"id":"929345","latitude":"14.60000000","longitude":"-88.23333330","name":"Suyapa"},{"id":"929346","latitude":"15.16666670","longitude":"-88.21666670","name":"Suyapa"},{"id":"929377","latitude":"14.70000000","longitude":"-88.11666670","name":"Tabl\u00f3n"},{"id":"929388","latitude":"14.85000000","longitude":"-88.20000000","name":"Taix\u00edguat"},{"id":"929393","latitude":"14.91666670","longitude":"-88.46666670","name":"Talanga"},{"id":"929470","latitude":"15.28333330","longitude":"-88.68333330","name":"Tarros"},{"id":"929474","latitude":"15.18333330","longitude":"-88.23333330","name":"Tascalapa"},{"id":"929476","latitude":"15.05000000","longitude":"-88.51666670","name":"Tatoca"},{"id":"929501","latitude":"14.76666670","longitude":"-88.21666670","name":"Tegucigalpita"},{"id":"929519","latitude":"15.05000000","longitude":"-88.43333330","name":"Tejutales"},{"id":"929525","latitude":"15.06666670","longitude":"-88.41666670","name":"Tembladera"},{"id":"929526","latitude":"15.15000000","longitude":"-88.28333330","name":"Temblor"},{"id":"929538","latitude":"15.00000000","longitude":"-88.50000000","name":"Tens\u00faa"},{"id":"929539","latitude":"15.43944440","longitude":"-88.51583330","name":"Teocintales"},{"id":"929540","latitude":"14.76666670","longitude":"-88.28333330","name":"Teocinte"},{"id":"929542","latitude":"15.01666670","longitude":"-88.46666670","name":"Tepana"},{"id":"929554","latitude":"14.93333330","longitude":"-88.38333330","name":"Teretina"},{"id":"929567","latitude":"14.86666670","longitude":"-88.20000000","name":"Terreritos"},{"id":"929590","latitude":"15.10000000","longitude":"-88.41666670","name":"Terromote"},{"id":"929627","latitude":"14.95000000","longitude":"-88.31666670","name":"Tierra Blanca"},{"id":"929630","latitude":"15.06666670","longitude":"-88.41666670","name":"Tierra Buena"},{"id":"929638","latitude":"14.85000000","longitude":"-88.31666670","name":"Tierra Colorada"},{"id":"929654","latitude":"15.08333330","longitude":"-88.26666670","name":"Tigre"},{"id":"929666","latitude":"15.39638890","longitude":"-88.51916670","name":"Tintines"},{"id":"929671","latitude":"15.28333330","longitude":"-88.41666670","name":"Tipitapa"},{"id":"929716","latitude":"14.75000000","longitude":"-88.31666670","name":"Tontolo"},{"id":"929733","latitude":"15.18333330","longitude":"-88.23333330","name":"Toscolopa"},{"id":"929734","latitude":"15.05000000","longitude":"-88.51666670","name":"Totoca"},{"id":"929749","latitude":"15.30000000","longitude":"-88.66666670","name":"Tras Cerros"},{"id":"929772","latitude":"15.13333330","longitude":"-88.23333330","name":"Trinidad"},{"id":"929782","latitude":"15.05000000","longitude":"-88.33333330","name":"Triunfo"},{"id":"929808","latitude":"15.10000000","longitude":"-88.16666670","name":"Tule"},{"id":"929812","latitude":"14.98333330","longitude":"-88.33333330","name":"Tuliapa"},{"id":"929817","latitude":"15.15000000","longitude":"-88.28333330","name":"Tumbo"},{"id":"929849","latitude":"14.96666670","longitude":"-88.58333330","name":"Ulapa"},{"id":"929862","latitude":"14.98333330","longitude":"-88.16666670","name":"Uncana"},{"id":"929927","latitude":"14.96666670","longitude":"-88.46666670","name":"Valle de La Cruz"},{"id":"929935","latitude":"14.96666670","longitude":"-88.46666670","name":"Valle La Cruz"},{"id":"929938","latitude":"14.96666670","longitude":"-88.46666670","name":"Valle"},{"id":"929954","latitude":"15.13333330","longitude":"-88.25000000","name":"Veguitas"},{"id":"929969","latitude":"15.05000000","longitude":"-88.40000000","name":"V\u00eda Luz"},{"id":"929970","latitude":"15.11666670","longitude":"-88.31666670","name":"Vibora"},{"id":"929976","latitude":"14.96666670","longitude":"-88.53333330","name":"Victoria"},{"id":"929979","latitude":"14.93333330","longitude":"-88.36666670","name":"Viejo Celilac"},{"id":"929986","latitude":"15.10000000","longitude":"-88.48333330","name":"Vijaguales"},{"id":"930003","latitude":"15.05000000","longitude":"-88.40000000","name":"Villa Luz"},{"id":"930040","latitude":"15.34250000","longitude":"-88.59250000","name":"Vuelta Grande"},{"id":"930081","latitude":"15.01666670","longitude":"-88.43333330","name":"Yamala"},{"id":"930123","latitude":"14.75000000","longitude":"-88.35000000","name":"Yoro"},{"id":"930137","latitude":"14.85000000","longitude":"-88.25000000","name":"Yululo"},{"id":"930150","latitude":"14.75000000","longitude":"-88.11666670","name":"Zacapa"},{"id":"930177","latitude":"15.11666670","longitude":"-88.65000000","name":"Zambrano"},{"id":"930191","latitude":"15.15000000","longitude":"-88.41666670","name":"Zapotalito"},{"id":"930197","latitude":"15.08333330","longitude":"-88.36666670","name":"Zapotal"},{"id":"930198","latitude":"15.00000000","longitude":"-88.23333330","name":"Zapote Alto"},{"id":"930217","latitude":"14.95000000","longitude":"-88.20000000","name":"Zapotillo"},{"id":"930237","latitude":"14.68333330","longitude":"-88.10000000","name":"Zompopero"},{"id":"930250","latitude":"14.85000000","longitude":"-88.35000000","name":"Zorca"},{"id":"930252","latitude":"15.05000000","longitude":"-88.25000000","name":"Zotano"}]