[{"id":"942383","latitude":"19.15000000","longitude":"-71.78333330","name":"Abricot"},{"id":"942390","latitude":"19.53333330","longitude":"-71.71666670","name":"Acajou"},{"id":"942396","latitude":"19.53333330","longitude":"-72.06666670","name":"Acul Connu"},{"id":"942397","latitude":"19.50000000","longitude":"-71.80000000","name":"Acul des Pins"},{"id":"942401","latitude":"19.51666670","longitude":"-71.88333330","name":"Acul Samedi"},{"id":"942413","latitude":"19.30000000","longitude":"-71.90000000","name":"Aguamite"},{"id":"942419","latitude":"19.28333330","longitude":"-71.78333330","name":"Albert Derina"},{"id":"942424","latitude":"19.48333330","longitude":"-71.76666670","name":"Ali"},{"id":"942443","latitude":"19.51666670","longitude":"-72.00000000","name":"Ancelin"},{"id":"942454","latitude":"19.66666670","longitude":"-71.80000000","name":"Angot"},{"id":"942520","latitude":"19.65000000","longitude":"-71.75000000","name":"Artaud"},{"id":"942533","latitude":"19.43333330","longitude":"-71.95000000","name":"Aubile"},{"id":"942630","latitude":"19.46666670","longitude":"-71.71666670","name":"Baja"},{"id":"942651","latitude":"19.36666670","longitude":"-71.90000000","name":"Balissage"},{"id":"942656","latitude":"19.41666670","longitude":"-71.71666670","name":"Balliote"},{"id":"942657","latitude":"19.41666670","longitude":"-71.70000000","name":"Balliotte"},{"id":"942690","latitude":"19.45000000","longitude":"-71.75000000","name":"Baptiste"},{"id":"942802","latitude":"19.48333330","longitude":"-71.90000000","name":"Bas Madeleine"},{"id":"942840","latitude":"19.18333330","longitude":"-71.80000000","name":"Bassin Coco"},{"id":"942854","latitude":"19.51666670","longitude":"-71.96666670","name":"Bassin Tournin"},{"id":"942862","latitude":"19.61666670","longitude":"-71.83333330","name":"Batador"},{"id":"942916","latitude":"19.35000000","longitude":"-71.90000000","name":"Bazile"},{"id":"942965","latitude":"19.60000000","longitude":"-71.85000000","name":"Bedan"},{"id":"942970","latitude":"19.48333330","longitude":"-71.70000000","name":"Bedou"},{"id":"943002","latitude":"19.53333330","longitude":"-71.96666670","name":"Belery"},{"id":"943011","latitude":"19.41666670","longitude":"-71.70000000","name":"Beljote"},{"id":"943041","latitude":"19.50000000","longitude":"-71.93333330","name":"Bellery"},{"id":"943043","latitude":"19.53333330","longitude":"-72.06666670","name":"Belle-T\u00eate"},{"id":"943044","latitude":"19.53333330","longitude":"-72.08333330","name":"Belle Tete"},{"id":"943078","latitude":"19.56666670","longitude":"-72.06666670","name":"Ben"},{"id":"943082","latitude":"19.43333330","longitude":"-71.75000000","name":"Benest"},{"id":"943094","latitude":"19.43333330","longitude":"-71.70000000","name":"B\u00e9ra"},{"id":"943102","latitude":"19.61666670","longitude":"-71.96666670","name":"Bercera"},{"id":"943104","latitude":"19.61666670","longitude":"-71.96666670","name":"Bercery"},{"id":"943113","latitude":"19.50000000","longitude":"-71.88333330","name":"Bergaine"},{"id":"943139","latitude":"19.38333330","longitude":"-71.78333330","name":"Bernard"},{"id":"943145","latitude":"19.58333330","longitude":"-71.86666670","name":"B\u00e9rondi"},{"id":"943158","latitude":"19.53333330","longitude":"-72.03333330","name":"Berthol"},{"id":"943179","latitude":"19.50000000","longitude":"-71.76666670","name":"Beyotte"},{"id":"943187","latitude":"19.48333330","longitude":"-72.00000000","name":"Biassou"},{"id":"943188","latitude":"19.35000000","longitude":"-71.93333330","name":"Bicara"},{"id":"943204","latitude":"19.43333330","longitude":"-71.95000000","name":"Bigandie"},{"id":"943235","latitude":"19.45000000","longitude":"-71.70000000","name":"Bisanneau"},{"id":"943275","latitude":"19.60000000","longitude":"-72.00000000","name":"Blodin"},{"id":"943276","latitude":"19.50000000","longitude":"-71.78333330","name":"Blond"},{"id":"943278","latitude":"19.60000000","longitude":"-72.00000000","name":"Blondin"},{"id":"943303","latitude":"19.65000000","longitude":"-71.88333330","name":"Bodin"},{"id":"943321","latitude":"19.18333330","longitude":"-71.71666670","name":"Bois Blanc"},{"id":"943322","latitude":"19.53333330","longitude":"-72.08333330","name":"Bois Blanc"},{"id":"943375","latitude":"19.31666670","longitude":"-71.88333330","name":"Bois de Laurence"},{"id":"943397","latitude":"19.40000000","longitude":"-71.86666670","name":"Bois Gamelle"},{"id":"943400","latitude":"19.40000000","longitude":"-71.98333330","name":"Bois Georges"},{"id":"943420","latitude":"19.31666670","longitude":"-71.88333330","name":"Bois Laurence"},{"id":"943424","latitude":"19.63333330","longitude":"-71.96666670","name":"Bois l'\u00c9glise"},{"id":"943431","latitude":"19.53333330","longitude":"-71.90000000","name":"Bois Louroux"},{"id":"943446","latitude":"19.56666670","longitude":"-71.91666670","name":"Bois Mouton"},{"id":"943448","latitude":"19.40000000","longitude":"-71.80000000","name":"Bois Nago"},{"id":"943460","latitude":"19.35000000","longitude":"-71.78333330","name":"Bois Neuf"},{"id":"943483","latitude":"19.33333330","longitude":"-71.93333330","name":"Bois Pindri"},{"id":"943497","latitude":"19.41666670","longitude":"-71.81666670","name":"Bois Poux"},{"id":"943504","latitude":"19.35000000","longitude":"-71.85000000","name":"Bois Rouge"},{"id":"943508","latitude":"19.46666670","longitude":"-71.73333330","name":"Bois Sence"},{"id":"943519","latitude":"19.38333330","longitude":"-71.93333330","name":"Bois Verna"},{"id":"943523","latitude":"19.45000000","longitude":"-71.90000000","name":"Bois Viaud"},{"id":"943524","latitude":"19.33333330","longitude":"-71.93333330","name":"Bois Vin Dri"},{"id":"943543","latitude":"19.56666670","longitude":"-71.95000000","name":"Bon Fond"},{"id":"943546","latitude":"19.46666670","longitude":"-72.03333330","name":"Bongar"},{"id":"943551","latitude":"19.46666670","longitude":"-71.78333330","name":"Bongle"},{"id":"943566","latitude":"19.56666670","longitude":"-71.95000000","name":"Bonnefond"},{"id":"943567","latitude":"19.56666670","longitude":"-71.95000000","name":"Bonne Fond"},{"id":"943568","latitude":"19.63333330","longitude":"-71.91666670","name":"Bonnement"},{"id":"943569","latitude":"19.46666670","longitude":"-71.90000000","name":"Bonnet"},{"id":"943593","latitude":"19.45000000","longitude":"-71.68333330","name":"Bordin"},{"id":"943602","latitude":"19.51666670","longitude":"-71.78333330","name":"Bori"},{"id":"943606","latitude":"19.41666670","longitude":"-71.90000000","name":"Borne Tante"},{"id":"943610","latitude":"19.60000000","longitude":"-71.86666670","name":"Bory"},{"id":"943616","latitude":"19.45000000","longitude":"-71.80000000","name":"Bosse"},{"id":"943624","latitude":"19.63333330","longitude":"-71.76666670","name":"Bossus"},{"id":"943679","latitude":"19.18333330","longitude":"-71.70000000","name":"Boucan Pangnol"},{"id":"943686","latitude":"19.26666670","longitude":"-71.78333330","name":"Boucan Puce"},{"id":"943730","latitude":"19.46666670","longitude":"-71.73333330","name":"Boujote"},{"id":"943764","latitude":"19.60000000","longitude":"-71.83333330","name":"Bourg Dumas"},{"id":"943767","latitude":"19.28333330","longitude":"-71.91666670","name":"Bourgeois"},{"id":"943774","latitude":"19.46666670","longitude":"-71.98333330","name":"Bourie"},{"id":"943776","latitude":"19.58333330","longitude":"-71.75000000","name":"Bourjo"},{"id":"943796","latitude":"19.56666670","longitude":"-72.08333330","name":"Boute"},{"id":"943820","latitude":"19.35000000","longitude":"-71.85000000","name":"Boy Rouge"},{"id":"943827","latitude":"19.45000000","longitude":"-71.96666670","name":"Bran No\u00ebl"},{"id":"943860","latitude":"19.48333330","longitude":"-71.88333330","name":"Bricourt"},{"id":"943861","latitude":"19.58333330","longitude":"-71.88333330","name":"Briel"},{"id":"943880","latitude":"19.41666670","longitude":"-72.01666670","name":"Brochard"},{"id":"943894","latitude":"19.43333330","longitude":"-71.93333330","name":"Brouillard"},{"id":"943895","latitude":"19.56666670","longitude":"-71.90000000","name":"Brousse"},{"id":"943896","latitude":"19.56666670","longitude":"-72.08333330","name":"Broute"},{"id":"943906","latitude":"19.46666670","longitude":"-71.70000000","name":"Brunette"},{"id":"943933","latitude":"19.55000000","longitude":"-71.98333330","name":"Cabaret"},{"id":"943955","latitude":"19.56666670","longitude":"-71.98333330","name":"Cabon"},{"id":"943959","latitude":"19.56666670","longitude":"-71.98333330","name":"Cabrit"},{"id":"943977","latitude":"19.58333330","longitude":"-72.06666670","name":"Cachiman"},{"id":"943996","latitude":"19.43333330","longitude":"-71.90000000","name":"Ca Coute"},{"id":"944078","latitude":"19.66666670","longitude":"-71.76666670","name":"Caillot"},{"id":"944090","latitude":"19.16666670","longitude":"-71.65000000","name":"\u00c7a Ira"},{"id":"944098","latitude":"19.48333330","longitude":"-71.91666670","name":"Cajean"},{"id":"944168","latitude":"19.50000000","longitude":"-71.71666670","name":"Camari"},{"id":"944197","latitude":"19.50000000","longitude":"-71.91666670","name":"Camp"},{"id":"944216","latitude":"19.48333330","longitude":"-71.70000000","name":"Cana"},{"id":"944227","latitude":"19.45000000","longitude":"-71.78333330","name":"Candela"},{"id":"944234","latitude":"19.46666670","longitude":"-72.01666670","name":"Candy"},{"id":"944281","latitude":"19.45000000","longitude":"-71.70000000","name":"Capotille"},{"id":"944284","latitude":"19.45000000","longitude":"-72.06666670","name":"Capoux"},{"id":"944285","latitude":"19.51666670","longitude":"-71.78333330","name":"Ca Poyo"},{"id":"944296","latitude":"19.69083330","longitude":"-72.01611110","name":"Caracol"},{"id":"944301","latitude":"19.40000000","longitude":"-71.98333330","name":"Carata"},{"id":"944304","latitude":"19.46666670","longitude":"-72.01666670","name":"Carconne"},{"id":"944315","latitude":"19.38333330","longitude":"-71.83333330","name":"Carice"},{"id":"944318","latitude":"19.45000000","longitude":"-71.96666670","name":"Cariver"},{"id":"944333","latitude":"19.43333330","longitude":"-72.01666670","name":"Carosse"},{"id":"944335","latitude":"19.40000000","longitude":"-71.71666670","name":"Caroy"},{"id":"944342","latitude":"19.65000000","longitude":"-72.03333330","name":"Carpette"},{"id":"944367","latitude":"19.36666670","longitude":"-71.81666670","name":"Carrefour"},{"id":"944379","latitude":"19.58333330","longitude":"-71.80000000","name":"Carrefour D\u00e9p\u00e9"},{"id":"944472","latitude":"19.63333330","longitude":"-71.83333330","name":"Carrefour Vieux Bourg"},{"id":"944477","latitude":"19.63333330","longitude":"-71.90000000","name":"Carrier"},{"id":"944493","latitude":"19.41666670","longitude":"-71.81666670","name":"Casimir"},{"id":"944524","latitude":"19.53333330","longitude":"-71.93333330","name":"Castagne"},{"id":"944530","latitude":"19.48333330","longitude":"-71.73333330","name":"Castel"},{"id":"944542","latitude":"19.13333330","longitude":"-71.68333330","name":"Cataline"},{"id":"944597","latitude":"19.50000000","longitude":"-71.91666670","name":"Cazeau"},{"id":"944613","latitude":"19.58333330","longitude":"-71.95000000","name":"Cerca"},{"id":"944624","latitude":"19.36666670","longitude":"-71.81666670","name":"C\u00e9sar"},{"id":"944634","latitude":"19.56666670","longitude":"-71.93333330","name":"Chaber"},{"id":"944653","latitude":"19.35000000","longitude":"-71.81666670","name":"Cha\u00eene Janvier"},{"id":"944668","latitude":"19.61666670","longitude":"-71.83333330","name":"Chalopin"},{"id":"944672","latitude":"19.41666670","longitude":"-71.70000000","name":"Chambellan"},{"id":"944693","latitude":"19.48333330","longitude":"-71.73333330","name":"Chancerelles"},{"id":"944714","latitude":"19.26666670","longitude":"-71.83333330","name":"Chapelette"},{"id":"944728","latitude":"19.45000000","longitude":"-71.80000000","name":"Chapotin"},{"id":"944750","latitude":"19.31666670","longitude":"-71.88333330","name":"Charles"},{"id":"944754","latitude":"19.58333330","longitude":"-72.06666670","name":"Charles Sec"},{"id":"944755","latitude":"19.58333330","longitude":"-72.06666670","name":"Charles S\u00e8gue"},{"id":"944812","latitude":"19.63333330","longitude":"-71.95000000","name":"Chaviac"},{"id":"944836","latitude":"19.41666670","longitude":"-71.70000000","name":"Chevalier"},{"id":"944853","latitude":"19.43333330","longitude":"-71.75000000","name":"Chifonnette"},{"id":"944873","latitude":"19.43333330","longitude":"-71.78333330","name":"Chuite"},{"id":"944874","latitude":"19.41666670","longitude":"-71.80000000","name":"Chuitte"},{"id":"944877","latitude":"19.41666670","longitude":"-71.86666670","name":"Cigara"},{"id":"944878","latitude":"19.41666670","longitude":"-71.86666670","name":"Cigarra"},{"id":"944948","latitude":"19.55000000","longitude":"-72.05000000","name":"Cocoloco"},{"id":"944951","latitude":"19.20000000","longitude":"-71.63333330","name":"Cocoyer"},{"id":"944956","latitude":"19.45000000","longitude":"-72.00000000","name":"Codaly"},{"id":"944974","latitude":"19.63333330","longitude":"-71.85000000","name":"Colette"},{"id":"944981","latitude":"19.66666670","longitude":"-71.75000000","name":"Colin"},{"id":"945005","latitude":"19.58333330","longitude":"-71.93333330","name":"Colonie Agricole de Grand Bassin"},{"id":"945008","latitude":"19.51666670","longitude":"-71.73333330","name":"Colonie Agricole Dosmont"},{"id":"945011","latitude":"19.56666670","longitude":"-71.91666670","name":"Colonie"},{"id":"945014","latitude":"19.31666670","longitude":"-71.81666670","name":"Colora"},{"id":"945035","latitude":"19.46666670","longitude":"-71.86666670","name":"Congo"},{"id":"945044","latitude":"19.58333330","longitude":"-71.93333330","name":"Conseil"},{"id":"945049","latitude":"19.46666670","longitude":"-71.88333330","name":"Contiche"},{"id":"945053","latitude":"19.50000000","longitude":"-71.76666670","name":"Coplo"},{"id":"945099","latitude":"19.60000000","longitude":"-71.93333330","name":"Cormier"},{"id":"945114","latitude":"19.41666670","longitude":"-72.01666670","name":"Corosse"},{"id":"945120","latitude":"19.46666670","longitude":"-71.96666670","name":"Cortin"},{"id":"945142","latitude":"19.46666670","longitude":"-71.78333330","name":"Cotino"},{"id":"945157","latitude":"19.58333330","longitude":"-71.80000000","name":"Coujol"},{"id":"945171","latitude":"19.48333330","longitude":"-71.91666670","name":"Coup\u00e9 Bois"},{"id":"945179","latitude":"19.46666670","longitude":"-71.70000000","name":"Coupin"},{"id":"945194","latitude":"19.45000000","longitude":"-71.75000000","name":"Courtois"},{"id":"945316","latitude":"19.56666670","longitude":"-71.86666670","name":"Danda"},{"id":"945379","latitude":"19.40000000","longitude":"-71.93333330","name":"D\u00e9bauche"},{"id":"945436","latitude":"19.65000000","longitude":"-71.93333330","name":"Degal"},{"id":"945464","latitude":"19.51666670","longitude":"-71.93333330","name":"Delbic"},{"id":"945470","latitude":"19.38333330","longitude":"-71.85000000","name":"De l'Eau Carlos"},{"id":"945473","latitude":"19.25000000","longitude":"-71.91666670","name":"De l'Eau Contr\u00e9e"},{"id":"945496","latitude":"19.46666670","longitude":"-71.91666670","name":"Delp\u00e8che"},{"id":"945530","latitude":"19.65000000","longitude":"-71.98333330","name":"Denler"},{"id":"945540","latitude":"19.45000000","longitude":"-71.78333330","name":"D\u00e9p\u00e9"},{"id":"945543","latitude":"19.65000000","longitude":"-71.81666670","name":"D\u00e9rac"},{"id":"945561","latitude":"19.46666670","longitude":"-71.70000000","name":"Deron-Ville"},{"id":"945568","latitude":"19.33333330","longitude":"-71.86666670","name":"Derri\u00e8re Garde"},{"id":"945644","latitude":"19.53333330","longitude":"-71.83333330","name":"Desmoulins"},{"id":"945672","latitude":"19.40000000","longitude":"-71.95000000","name":"Des Roches"},{"id":"945695","latitude":"19.58333330","longitude":"-71.86666670","name":"Destouches"},{"id":"945713","latitude":"19.63333330","longitude":"-72.05000000","name":"Devarenne"},{"id":"945714","latitude":"19.63333330","longitude":"-72.05000000","name":"Devarennes"},{"id":"945716","latitude":"19.61666670","longitude":"-71.91666670","name":"Devesin"},{"id":"945721","latitude":"19.23333330","longitude":"-71.83333330","name":"Diable Aub\u00e9"},{"id":"945730","latitude":"19.50000000","longitude":"-71.78333330","name":"Diasa"},{"id":"945764","latitude":"19.55000000","longitude":"-71.78333330","name":"Dilaire"},{"id":"945772","latitude":"19.40000000","longitude":"-71.93333330","name":"Dimini"},{"id":"945792","latitude":"19.48333330","longitude":"-71.71666670","name":"Dioute"},{"id":"945797","latitude":"19.45000000","longitude":"-71.81666670","name":"Disara"},{"id":"945798","latitude":"19.45000000","longitude":"-72.03333330","name":"Dissosser"},{"id":"945799","latitude":"19.45000000","longitude":"-72.03333330","name":"Dissossier"},{"id":"945801","latitude":"19.46666670","longitude":"-72.01666670","name":"Distrou"},{"id":"945810","latitude":"19.30000000","longitude":"-71.83333330","name":"D'Leau Contr\u00e9e"},{"id":"945812","latitude":"19.38333330","longitude":"-71.85000000","name":"Dlo Carlos"},{"id":"945815","latitude":"19.25000000","longitude":"-71.91666670","name":"D'Lo Contr\u00e9e"},{"id":"945846","latitude":"19.45000000","longitude":"-71.73333330","name":"Doge"},{"id":"945859","latitude":"19.41666670","longitude":"-72.03333330","name":"Domaille"},{"id":"945869","latitude":"19.43333330","longitude":"-71.76666670","name":"Dominique"},{"id":"945889","latitude":"19.58333330","longitude":"-71.98333330","name":"Dorade"},{"id":"945933","latitude":"19.51666670","longitude":"-71.73333330","name":"D'Osmond"},{"id":"945934","latitude":"19.51666670","longitude":"-71.73333330","name":"Dosmont"},{"id":"945935","latitude":"19.51666670","longitude":"-71.73333330","name":"D'Osmont"},{"id":"945949","latitude":"19.58333330","longitude":"-71.98333330","name":"Dos Rada"},{"id":"945950","latitude":"19.58333330","longitude":"-71.96666670","name":"Dos Rade"},{"id":"945972","latitude":"19.48333330","longitude":"-72.05000000","name":"Dougas"},{"id":"945976","latitude":"19.58333330","longitude":"-72.06666670","name":"Douillard"},{"id":"945982","latitude":"19.43333330","longitude":"-71.91666670","name":"Doute"},{"id":"945992","latitude":"19.58333330","longitude":"-71.90000000","name":"Doval"},{"id":"946003","latitude":"19.46666670","longitude":"-71.93333330","name":"Drouillard"},{"id":"946009","latitude":"19.48333330","longitude":"-71.90000000","name":"Dubaros"},{"id":"946015","latitude":"19.46666670","longitude":"-71.70000000","name":"Dubert"},{"id":"946034","latitude":"19.58333330","longitude":"-71.83333330","name":"Dubrouy\u00e9"},{"id":"946035","latitude":"19.58333330","longitude":"-71.83333330","name":"Dubroye"},{"id":"946041","latitude":"19.43333330","longitude":"-71.96666670","name":"Ducanelle"},{"id":"946050","latitude":"19.50000000","longitude":"-71.90000000","name":"Duchemin"},{"id":"946061","latitude":"19.58333330","longitude":"-72.10000000","name":"Duclos"},{"id":"946076","latitude":"19.48333330","longitude":"-71.86666670","name":"Dufort"},{"id":"946082","latitude":"19.60000000","longitude":"-72.08333330","name":"Dufour"},{"id":"946095","latitude":"19.61666670","longitude":"-71.88333330","name":"Duline"},{"id":"946097","latitude":"19.48333330","longitude":"-71.83333330","name":"Duller"},{"id":"946099","latitude":"19.63333330","longitude":"-71.73333330","name":"Dulno"},{"id":"946106","latitude":"19.56666670","longitude":"-71.81666670","name":"Dumas"},{"id":"946117","latitude":"19.60000000","longitude":"-72.03333330","name":"Dumol"},{"id":"946130","latitude":"19.60000000","longitude":"-72.03333330","name":"Dunol"},{"id":"946147","latitude":"19.48333330","longitude":"-72.05000000","name":"Dupity"},{"id":"946158","latitude":"19.43333330","longitude":"-71.70000000","name":"Dupont"},{"id":"946192","latitude":"19.53333330","longitude":"-71.76666670","name":"Duro"},{"id":"946209","latitude":"19.36666670","longitude":"-71.70000000","name":"Duval"},{"id":"946226","latitude":"19.48333330","longitude":"-71.98333330","name":"Duverny"},{"id":"946232","latitude":"19.41666670","longitude":"-71.85000000","name":"Duvignal"},{"id":"946238","latitude":"19.60000000","longitude":"-71.96666670","name":"Duvray"},{"id":"946245","latitude":"19.38333330","longitude":"-71.85000000","name":"Eau Garice"},{"id":"946261","latitude":"19.43333330","longitude":"-71.76666670","name":"En Bas Buisson"},{"id":"946274","latitude":"19.20000000","longitude":"-71.73333330","name":"En Bas Raf"},{"id":"946302","latitude":"19.41666670","longitude":"-71.90000000","name":"\u00c9trenne"},{"id":"946304","latitude":"19.43333330","longitude":"-71.90000000","name":"\u00c9trennes"},{"id":"946318","latitude":"19.70000000","longitude":"-71.76666670","name":"Fabre"},{"id":"946321","latitude":"19.36666670","longitude":"-71.85000000","name":"Face au Nord"},{"id":"946322","latitude":"19.38333330","longitude":"-71.91666670","name":"Fa\u00e7onnoire"},{"id":"946327","latitude":"19.56666670","longitude":"-71.96666670","name":"Faille"},{"id":"946335","latitude":"19.15000000","longitude":"-71.65000000","name":"Faraion"},{"id":"946359","latitude":"19.61666670","longitude":"-71.78333330","name":"Feri\u00e9"},{"id":"946370","latitude":"19.61666670","longitude":"-71.78333330","name":"Ferrier"},{"id":"946420","latitude":"19.66666670","longitude":"-72.00000000","name":"Fleury"},{"id":"946423","latitude":"19.38333330","longitude":"-71.78333330","name":"Florence"},{"id":"946437","latitude":"19.66666670","longitude":"-71.91666670","name":"Fond Blanc"},{"id":"946442","latitude":"19.20000000","longitude":"-71.65000000","name":"Fond Bleu"},{"id":"946444","latitude":"19.31666670","longitude":"-71.95000000","name":"Fond Bois"},{"id":"946608","latitude":"19.58333330","longitude":"-71.95000000","name":"Foreste"},{"id":"946609","latitude":"19.48333330","longitude":"-71.91666670","name":"Forest"},{"id":"946622","latitude":"19.66777780","longitude":"-71.83972220","name":"Fort-Dauphin"},{"id":"946631","latitude":"19.66777780","longitude":"-71.83972220","name":"Fort Libert\u00e9"},{"id":"946649","latitude":"19.60000000","longitude":"-72.08333330","name":"Foullon"},{"id":"946669","latitude":"19.58333330","longitude":"-71.98333330","name":"Fra\u00eeche"},{"id":"946676","latitude":"19.53333330","longitude":"-71.78333330","name":"Francisque"},{"id":"946683","latitude":"19.30000000","longitude":"-71.78333330","name":"Fran\u00e7ois Pierre"},{"id":"946712","latitude":"19.51666670","longitude":"-71.83333330","name":"Gabriel"},{"id":"946713","latitude":"19.53333330","longitude":"-72.08333330","name":"Gabriel"},{"id":"946720","latitude":"19.56666670","longitude":"-71.73333330","name":"Ga\u00efac"},{"id":"946728","latitude":"19.31666670","longitude":"-71.85000000","name":"Galata"},{"id":"946749","latitude":"19.38333330","longitude":"-71.73333330","name":"Galois"},{"id":"946758","latitude":"19.30000000","longitude":"-71.85000000","name":"Gapi"},{"id":"946761","latitude":"19.60000000","longitude":"-71.85000000","name":"Garate"},{"id":"946773","latitude":"19.60000000","longitude":"-72.03333330","name":"Garde Camp\u00eache"},{"id":"946777","latitude":"19.41666670","longitude":"-71.96666670","name":"Garde Champ\u00eatre"},{"id":"946783","latitude":"19.31666670","longitude":"-71.80000000","name":"Garde Joanem"},{"id":"946791","latitude":"19.36666670","longitude":"-71.86666670","name":"Gardes \u00e0Georges"},{"id":"946805","latitude":"19.46666670","longitude":"-71.76666670","name":"Garene"},{"id":"946811","latitude":"19.45000000","longitude":"-71.93333330","name":"Garlen"},{"id":"946822","latitude":"19.61666670","longitude":"-71.85000000","name":"Garrot"},{"id":"946831","latitude":"19.20000000","longitude":"-71.73333330","name":"Gaspi"},{"id":"946834","latitude":"19.55000000","longitude":"-71.80000000","name":"Gaston"},{"id":"946872","latitude":"19.43333330","longitude":"-71.76666670","name":"Gens de Nantes"},{"id":"946886","latitude":"19.60000000","longitude":"-71.76666670","name":"G\u00e9rard"},{"id":"946892","latitude":"19.53333330","longitude":"-71.91666670","name":"Germain"},{"id":"946907","latitude":"19.45000000","longitude":"-71.81666670","name":"Gilette"},{"id":"946911","latitude":"19.65000000","longitude":"-71.76666670","name":"Gillote"},{"id":"946926","latitude":"19.38333330","longitude":"-71.96666670","name":"Globe"},{"id":"946931","latitude":"19.35000000","longitude":"-71.95000000","name":"Goabarie"},{"id":"946945","latitude":"19.38333330","longitude":"-71.76666670","name":"Godin"},{"id":"946950","latitude":"19.60000000","longitude":"-72.08333330","name":"Gomez"},{"id":"946982","latitude":"19.46666670","longitude":"-71.75000000","name":"Goulin"},{"id":"946984","latitude":"19.56666670","longitude":"-71.80000000","name":"Gounote"},{"id":"946987","latitude":"19.41666670","longitude":"-71.68333330","name":"Gourde"},{"id":"946990","latitude":"19.48333330","longitude":"-72.06666670","name":"Gour\u00e9"},{"id":"946992","latitude":"19.61666670","longitude":"-71.78333330","name":"Gourguel"},{"id":"947005","latitude":"19.35000000","longitude":"-71.98333330","name":"Gramand"},{"id":"947013","latitude":"19.58333330","longitude":"-71.93333330","name":"Grand Bassin"},{"id":"947019","latitude":"19.35000000","longitude":"-71.85000000","name":"Grand Bois"},{"id":"947059","latitude":"19.55000000","longitude":"-71.83333330","name":"Grande Colline"},{"id":"947104","latitude":"19.65000000","longitude":"-71.86666670","name":"Grande Saline"},{"id":"947107","latitude":"19.53333330","longitude":"-71.78333330","name":"Grande Savana"},{"id":"947113","latitude":"19.33333330","longitude":"-71.91666670","name":"Grande Savane"},{"id":"947130","latitude":"19.21666670","longitude":"-71.80000000","name":"Grand Fond"},{"id":"947138","latitude":"19.58333330","longitude":"-71.75000000","name":"Grand Goude"},{"id":"947149","latitude":"19.30000000","longitude":"-71.85000000","name":"Grand Mata"},{"id":"947150","latitude":"19.38333330","longitude":"-71.96666670","name":"Grand Mat"},{"id":"947155","latitude":"19.45000000","longitude":"-71.86666670","name":"Grandon"},{"id":"947201","latitude":"19.38333330","longitude":"-71.75000000","name":"Grenie"},{"id":"947202","latitude":"19.38333330","longitude":"-71.76666670","name":"Grenier"},{"id":"947270","latitude":"19.18333330","longitude":"-71.70000000","name":"Grosse Pi\u00e8ce"},{"id":"947276","latitude":"19.43333330","longitude":"-72.00000000","name":"Grosse Roche"},{"id":"947288","latitude":"19.28333330","longitude":"-71.83333330","name":"Guabobe"},{"id":"947291","latitude":"19.61666670","longitude":"-71.83333330","name":"Guan"},{"id":"947340","latitude":"19.48333330","longitude":"-72.05000000","name":"Guimple"},{"id":"947342","latitude":"19.41666670","longitude":"-71.75000000","name":"Guion"},{"id":"947352","latitude":"19.45000000","longitude":"-71.81666670","name":"Gullouette"},{"id":"947361","latitude":"19.41666670","longitude":"-71.76666670","name":"Hache"},{"id":"947362","latitude":"19.68333330","longitude":"-71.98333330","name":"Hachie Sauvage"},{"id":"947368","latitude":"19.41666670","longitude":"-71.98333330","name":"Harry"},{"id":"947438","latitude":"19.35000000","longitude":"-71.75000000","name":"Haut La Croix"},{"id":"947446","latitude":"19.36666670","longitude":"-71.73333330","name":"Haut Piton"},{"id":"947449","latitude":"19.43333330","longitude":"-72.01666670","name":"Haut Platon"},{"id":"947474","latitude":"19.46666670","longitude":"-71.81666670","name":"Horier"},{"id":"947480","latitude":"19.16666670","longitude":"-71.76666670","name":"Icaque"},{"id":"947515","latitude":"19.68527780","longitude":"-71.99111110","name":"Jacquesy"},{"id":"947518","latitude":"19.68527780","longitude":"-71.99111110","name":"Jacquezy"},{"id":"947522","latitude":"19.58333330","longitude":"-71.76666670","name":"Jacquot"},{"id":"947525","latitude":"19.45000000","longitude":"-71.96666670","name":"Jaloule"},{"id":"947566","latitude":"19.20000000","longitude":"-71.76666670","name":"Jean de Gros"},{"id":"947575","latitude":"19.38333330","longitude":"-71.75000000","name":"Jean Jacques"},{"id":"947582","latitude":"19.38333330","longitude":"-71.80000000","name":"Jean Louis"},{"id":"947603","latitude":"19.45000000","longitude":"-71.80000000","name":"Jean Rabel"},{"id":"947634","latitude":"19.33333330","longitude":"-71.95000000","name":"Jodipe"},{"id":"947651","latitude":"19.53333330","longitude":"-71.95000000","name":"Jonas"},{"id":"947665","latitude":"19.50000000","longitude":"-71.83333330","name":"Joudain"},{"id":"947667","latitude":"19.46666670","longitude":"-71.75000000","name":"Joulin"},{"id":"947670","latitude":"19.46666670","longitude":"-71.73333330","name":"Jourdain"},{"id":"947683","latitude":"19.55000000","longitude":"-71.73333330","name":"Juana Mendez"},{"id":"947719","latitude":"19.53333330","longitude":"-71.96666670","name":"Ka Lacour"},{"id":"947737","latitude":"19.30000000","longitude":"-71.91666670","name":"Ka Paul"},{"id":"947774","latitude":"19.55000000","longitude":"-71.80000000","name":"La Baise"},{"id":"947868","latitude":"19.38333330","longitude":"-71.88333330","name":"La Chaine"},{"id":"947871","latitude":"19.58333330","longitude":"-72.06666670","name":"La Chaise"},{"id":"947923","latitude":"19.53333330","longitude":"-71.95000000","name":"La Coupe"},{"id":"947953","latitude":"19.33333330","longitude":"-71.75000000","name":"La Croix"},{"id":"947962","latitude":"19.38333330","longitude":"-71.88333330","name":"La Cypla\u00eene"},{"id":"947969","latitude":"19.15000000","longitude":"-71.65000000","name":"La Diablesa"},{"id":"947970","latitude":"19.15000000","longitude":"-71.65000000","name":"La Diablesse"},{"id":"948013","latitude":"19.53333330","longitude":"-71.81666670","name":"La Fleur"},{"id":"948020","latitude":"19.53333330","longitude":"-71.80000000","name":"La Fontaine"},{"id":"948039","latitude":"19.46666670","longitude":"-71.76666670","name":"La Gar\u00e8ne"},{"id":"948041","latitude":"19.46666670","longitude":"-71.76666670","name":"La Garenne"},{"id":"948048","latitude":"19.65000000","longitude":"-71.81666670","name":"Lagnon"},{"id":"948059","latitude":"19.30000000","longitude":"-71.80000000","name":"Lagon Jonc"},{"id":"948060","latitude":"19.50000000","longitude":"-71.98333330","name":"Lagonjonc"},{"id":"948084","latitude":"19.30000000","longitude":"-71.90000000","name":"Laguamite"},{"id":"948099","latitude":"19.35000000","longitude":"-71.88333330","name":"La Hatte"},{"id":"948125","latitude":"19.33333330","longitude":"-71.93333330","name":"Lalia"},{"id":"948131","latitude":"19.30000000","longitude":"-71.90000000","name":"La Magueye"},{"id":"948146","latitude":"19.50000000","longitude":"-71.85000000","name":"Lamatry"},{"id":"948157","latitude":"19.30000000","longitude":"-71.78333330","name":"La Mercie"},{"id":"948172","latitude":"19.51666670","longitude":"-71.96666670","name":"Lamothe"},{"id":"948178","latitude":"19.51666670","longitude":"-71.80000000","name":"L'Amy"},{"id":"948231","latitude":"19.46666670","longitude":"-72.00000000","name":"La Palli\u00e8re"},{"id":"948234","latitude":"19.66666670","longitude":"-71.96666670","name":"La Patrie"},{"id":"948249","latitude":"19.38333330","longitude":"-71.80000000","name":"La Pierre"},{"id":"948269","latitude":"19.45000000","longitude":"-71.96666670","name":"La Polli\u00e8re"},{"id":"948282","latitude":"19.45000000","longitude":"-71.96666670","name":"La Pr\u00e9ville"},{"id":"948293","latitude":"19.38333330","longitude":"-71.80000000","name":"La Ray"},{"id":"948319","latitude":"19.48333330","longitude":"-72.00000000","name":"La Roche"},{"id":"948327","latitude":"19.45000000","longitude":"-71.78333330","name":"Larode"},{"id":"948338","latitude":"19.33333330","longitude":"-71.81666670","name":"La Rose"},{"id":"948357","latitude":"19.41666670","longitude":"-71.95000000","name":"La Salle"},{"id":"948388","latitude":"19.15000000","longitude":"-71.78333330","name":"La Source"},{"id":"948395","latitude":"19.40000000","longitude":"-71.78333330","name":"Lassalle"},{"id":"948407","latitude":"19.26666670","longitude":"-71.76666670","name":"La Tablie"},{"id":"948422","latitude":"19.45000000","longitude":"-71.95000000","name":"Latine"},{"id":"948442","latitude":"19.58333330","longitude":"-72.10000000","name":"La Tr\u00e8s Sainte"},{"id":"948458","latitude":"19.61666670","longitude":"-72.03333330","name":"Laury"},{"id":"948498","latitude":"19.51666670","longitude":"-71.88333330","name":"La Visite"},{"id":"948527","latitude":"19.56666670","longitude":"-71.78333330","name":"Le Chat"},{"id":"948528","latitude":"19.31666670","longitude":"-71.90000000","name":"Le Cid"},{"id":"948556","latitude":"19.40000000","longitude":"-71.70000000","name":"Leman"},{"id":"948585","latitude":"19.58333330","longitude":"-72.08333330","name":"Leroux"},{"id":"948598","latitude":"19.56666670","longitude":"-72.05000000","name":"Lesco"},{"id":"948627","latitude":"19.63333330","longitude":"-72.01666670","name":"Le Trou"},{"id":"948637","latitude":"19.51666670","longitude":"-71.95000000","name":"Lexi"},{"id":"948652","latitude":"19.36666670","longitude":"-71.75000000","name":"Liane Panier"},{"id":"948684","latitude":"19.58333330","longitude":"-72.00000000","name":"Limaitre"},{"id":"948686","latitude":"19.41666670","longitude":"-71.76666670","name":"Lima"},{"id":"948694","latitude":"19.58333330","longitude":"-72.00000000","name":"Limette"},{"id":"948710","latitude":"19.65000000","longitude":"-71.86666670","name":"Lizim"},{"id":"948722","latitude":"19.13333330","longitude":"-71.70000000","name":"Locaret"},{"id":"948732","latitude":"19.36666670","longitude":"-71.90000000","name":"Logate"},{"id":"948736","latitude":"19.61666670","longitude":"-71.75000000","name":"Loirier"},{"id":"948737","latitude":"19.50000000","longitude":"-71.86666670","name":"L'Oiseau"},{"id":"948746","latitude":"19.66666670","longitude":"-72.01666670","name":"Lombard"},{"id":"948747","latitude":"19.66666670","longitude":"-72.01666670","name":"Lombart"},{"id":"948766","latitude":"19.46666670","longitude":"-71.81666670","name":"Lorier"},{"id":"948786","latitude":"19.45000000","longitude":"-71.90000000","name":"Losier"},{"id":"948789","latitude":"19.36666670","longitude":"-71.96666670","name":"Los Pinic"},{"id":"948823","latitude":"19.51666670","longitude":"-71.91666670","name":"Loutour"},{"id":"948842","latitude":"19.55000000","longitude":"-71.80000000","name":"Maboule"},{"id":"948843","latitude":"19.55000000","longitude":"-71.80000000","name":"Maboulie"},{"id":"948878","latitude":"19.46666670","longitude":"-71.81666670","name":"Madame Constant"},{"id":"948885","latitude":"19.50000000","longitude":"-71.76666670","name":"Madame Jean Joseph"},{"id":"948904","latitude":"19.48333330","longitude":"-71.90000000","name":"Madeleine"},{"id":"948910","latitude":"19.35000000","longitude":"-71.88333330","name":"Madokin"},{"id":"948912","latitude":"19.68333330","longitude":"-72.05000000","name":"Madras"},{"id":"948932","latitude":"19.45000000","longitude":"-72.00000000","name":"Magriton"},{"id":"948933","latitude":"19.25000000","longitude":"-71.71666670","name":"Maguana"},{"id":"948974","latitude":"19.68333330","longitude":"-71.96666670","name":"Majonas"},{"id":"948978","latitude":"19.25000000","longitude":"-71.75000000","name":"Major Toussaint"},{"id":"948988","latitude":"19.45000000","longitude":"-71.88333330","name":"Maledemon"},{"id":"948989","latitude":"19.43333330","longitude":"-71.96666670","name":"Malen"},{"id":"948995","latitude":"19.63333330","longitude":"-71.85000000","name":"Malf\u00e9ty"},{"id":"949005","latitude":"19.68333330","longitude":"-71.96666670","name":"Malrive"},{"id":"949007","latitude":"19.53333330","longitude":"-71.83333330","name":"Malt\u00e8re"},{"id":"949008","latitude":"19.53333330","longitude":"-71.83333330","name":"Malterie"},{"id":"949011","latitude":"19.66666670","longitude":"-71.93333330","name":"Malvive"},{"id":"949020","latitude":"19.41666670","longitude":"-71.95000000","name":"Manceau"},{"id":"949022","latitude":"19.68333330","longitude":"-71.76666670","name":"Mancerille"},{"id":"949045","latitude":"19.51666670","longitude":"-72.00000000","name":"Manniza"},{"id":"949053","latitude":"19.53333330","longitude":"-71.71666670","name":"Manquette"},{"id":"949065","latitude":"19.67916670","longitude":"-72.02194440","name":"Manyon"},{"id":"949077","latitude":"19.35000000","longitude":"-71.88333330","name":"Mapou"},{"id":"949135","latitude":"19.16666670","longitude":"-71.66666670","name":"Mare Bois d'Orme"},{"id":"949158","latitude":"19.30000000","longitude":"-71.78333330","name":"Mare Gilot"},{"id":"949206","latitude":"19.53333330","longitude":"-71.98333330","name":"Marette"},{"id":"949222","latitude":"19.46666670","longitude":"-71.71666670","name":"Marie Bobin"},{"id":"949229","latitude":"19.43333330","longitude":"-71.83333330","name":"Marie Louise"},{"id":"949232","latitude":"19.46666670","longitude":"-71.95000000","name":"Marie Pangnol"},{"id":"949240","latitude":"19.61666670","longitude":"-71.78333330","name":"Marigot"},{"id":"949244","latitude":"19.45000000","longitude":"-71.73333330","name":"Marinette"},{"id":"949271","latitude":"19.45000000","longitude":"-71.71666670","name":"Marquis Mara"},{"id":"949272","latitude":"19.58333330","longitude":"-71.75000000","name":"Marquis Marat"},{"id":"949276","latitude":"19.48333330","longitude":"-71.78333330","name":"Marseille"},{"id":"949332","latitude":"19.43333330","longitude":"-71.76666670","name":"Matayer"},{"id":"949340","latitude":"19.65000000","longitude":"-71.98333330","name":"Mathelier"},{"id":"949341","latitude":"19.63333330","longitude":"-71.98333330","name":"Matheller"},{"id":"949356","latitude":"19.50000000","longitude":"-71.75000000","name":"Mathurin"},{"id":"949383","latitude":"19.50000000","longitude":"-71.93333330","name":"Maurice"},{"id":"949391","latitude":"19.50000000","longitude":"-71.95000000","name":"Mayembe"},{"id":"949393","latitude":"19.45000000","longitude":"-71.68333330","name":"Mayer"},{"id":"949424","latitude":"19.66666670","longitude":"-71.76666670","name":"M\u00e9illac"},{"id":"949427","latitude":"19.41666670","longitude":"-71.75000000","name":"Melia"},{"id":"949431","latitude":"19.40000000","longitude":"-71.76666670","name":"Mellard"},{"id":"949457","latitude":"19.36666670","longitude":"-71.70000000","name":"M\u00e9rande"},{"id":"949464","latitude":"19.65000000","longitude":"-71.85000000","name":"Mere\u00e9"},{"id":"949466","latitude":"19.65000000","longitude":"-71.85000000","name":"M\u00e8re"},{"id":"949490","latitude":"19.20000000","longitude":"-71.76666670","name":"Meule Fil\u00e9e"},{"id":"949512","latitude":"19.58333330","longitude":"-71.95000000","name":"Michel"},{"id":"949545","latitude":"19.38333330","longitude":"-71.70000000","name":"Minge"},{"id":"949552","latitude":"19.56666670","longitude":"-71.86666670","name":"Mini\u00e8re"},{"id":"949582","latitude":"19.41666670","longitude":"-71.93333330","name":"Mo\u00ebl"},{"id":"949589","latitude":"19.35000000","longitude":"-71.83333330","name":"Mo\u00efse"},{"id":"949607","latitude":"19.36666670","longitude":"-71.98333330","name":"Mombin Crochu"},{"id":"949616","latitude":"19.61666670","longitude":"-71.98333330","name":"Moncey"},{"id":"949627","latitude":"19.51666670","longitude":"-71.98333330","name":"Mongeal"},{"id":"949637","latitude":"19.63333330","longitude":"-71.88333330","name":"Mon Repos"},{"id":"949667","latitude":"19.40000000","longitude":"-71.78333330","name":"Mont Organis\u00e9"},{"id":"949668","latitude":"19.50000000","longitude":"-71.81666670","name":"Mont Premier"},{"id":"949689","latitude":"19.63333330","longitude":"-72.01666670","name":"Morency"},{"id":"949708","latitude":"19.35000000","longitude":"-71.83333330","name":"Morne \u00e0 Tuf"},{"id":"949741","latitude":"19.58333330","longitude":"-71.78333330","name":"Morne Cassa"},{"id":"949756","latitude":"19.38333330","longitude":"-71.98333330","name":"Morne Dor\u00e9"},{"id":"949761","latitude":"19.43333330","longitude":"-71.85000000","name":"Morne Duvignal"},{"id":"949777","latitude":"19.38333330","longitude":"-71.86666670","name":"Morne Janvier"},{"id":"949784","latitude":"19.56666670","longitude":"-71.83333330","name":"Morne Long"},{"id":"949785","latitude":"19.56666670","longitude":"-71.83333330","name":"Morne Longue"},{"id":"949832","latitude":"19.35000000","longitude":"-71.83333330","name":"Morne Tuf"},{"id":"949852","latitude":"19.63333330","longitude":"-71.95000000","name":"Mouchinette"},{"id":"949871","latitude":"19.60000000","longitude":"-72.01666670","name":"Moussignac"},{"id":"949872","latitude":"19.60000000","longitude":"-72.01666670","name":"Moussillac"},{"id":"949884","latitude":"19.18333330","longitude":"-71.80000000","name":"Mule"},{"id":"949961","latitude":"19.45000000","longitude":"-71.78333330","name":"Nan Bois Pin"},{"id":"949982","latitude":"19.50000000","longitude":"-71.70000000","name":"Nan Cadeau"},{"id":"950050","latitude":"19.66944440","longitude":"-71.75611110","name":"Nan Contr\u00e9e"},{"id":"950052","latitude":"19.66944440","longitude":"-71.75611110","name":"Nan Contr\u00e9"},{"id":"950065","latitude":"19.55000000","longitude":"-71.85000000","name":"Nan Cotton"},{"id":"950141","latitude":"19.41666670","longitude":"-71.90000000","name":"Nan Fran\u00e7ois"},{"id":"950147","latitude":"19.35000000","longitude":"-71.76666670","name":"Nan Garien"},{"id":"950152","latitude":"19.26666670","longitude":"-71.81666670","name":"Nan Gilot"},{"id":"950174","latitude":"19.36666670","longitude":"-71.95000000","name":"Nan Guape"},{"id":"950181","latitude":"19.35000000","longitude":"-71.81666670","name":"Nan Gustin"},{"id":"950195","latitude":"19.30000000","longitude":"-71.86666670","name":"Nan Jean Pierre"},{"id":"950228","latitude":"19.31666670","longitude":"-71.80000000","name":"Nan l'\u00c9tat"},{"id":"950236","latitude":"19.31666670","longitude":"-71.83333330","name":"Nan Macaye"},{"id":"950259","latitude":"19.35000000","longitude":"-71.88333330","name":"Nan Mapou"},{"id":"950289","latitude":"19.43333330","longitude":"-71.71666670","name":"Nan Mine"},{"id":"950324","latitude":"19.36666670","longitude":"-71.98333330","name":"Nan Paques"},{"id":"950373","latitude":"19.38333330","longitude":"-71.98333330","name":"Nan Raque"},{"id":"950381","latitude":"19.56666670","longitude":"-71.93333330","name":"Nan R\u00e9gis"},{"id":"950385","latitude":"19.38333330","longitude":"-71.76666670","name":"Nan Rente"},{"id":"950388","latitude":"19.58333330","longitude":"-72.08333330","name":"Nan Richard"},{"id":"950398","latitude":"19.26666670","longitude":"-71.81666670","name":"Nan Ronfl\u00e9"},{"id":"950414","latitude":"19.35000000","longitude":"-71.78333330","name":"Nan Sable"},{"id":"950424","latitude":"19.41666670","longitude":"-71.70000000","name":"Nan Saut"},{"id":"950449","latitude":"19.43333330","longitude":"-71.98333330","name":"Nanthor"},{"id":"950457","latitude":"19.55000000","longitude":"-71.85000000","name":"Nan Tongui"},{"id":"950459","latitude":"19.33333330","longitude":"-71.86666670","name":"Nan Toussaint"},{"id":"950471","latitude":"19.28333330","longitude":"-71.76666670","name":"Nan Vilm\u00e9"},{"id":"950475","latitude":"19.38333330","longitude":"-71.85000000","name":"Nan Vincent"},{"id":"950488","latitude":"19.61666670","longitude":"-71.88333330","name":"Naple"},{"id":"950490","latitude":"19.58333330","longitude":"-72.01666670","name":"Nappe"},{"id":"950494","latitude":"19.48333330","longitude":"-71.75000000","name":"Nau"},{"id":"950531","latitude":"19.50000000","longitude":"-71.85000000","name":"Noisy"},{"id":"950555","latitude":"19.41666670","longitude":"-71.73333330","name":"Octon"},{"id":"950561","latitude":"19.60000000","longitude":"-71.90000000","name":"Og\u00e9"},{"id":"950570","latitude":"19.38333330","longitude":"-71.86666670","name":"Orange Bois"},{"id":"950586","latitude":"19.55000000","longitude":"-71.73333330","name":"Ouanaminthe"},{"id":"950601","latitude":"19.43333330","longitude":"-71.76666670","name":"Pacot"},{"id":"950603","latitude":"19.48333330","longitude":"-71.90000000","name":"Padouze"},{"id":"950614","latitude":"19.51666670","longitude":"-71.76666670","name":"Pain Chorte"},{"id":"950626","latitude":"19.53333330","longitude":"-71.91666670","name":"Palason"},{"id":"950669","latitude":"19.36666670","longitude":"-71.98333330","name":"P\u00e2ques"},{"id":"950674","latitude":"19.60000000","longitude":"-71.75000000","name":"Parades"},{"id":"950686","latitude":"19.63333330","longitude":"-71.98333330","name":"Pardieu"},{"id":"950699","latitude":"19.41666670","longitude":"-71.73333330","name":"Parisse"},{"id":"950703","latitude":"19.46666670","longitude":"-72.00000000","name":"Parois"},{"id":"950706","latitude":"19.45000000","longitude":"-71.88333330","name":"Pascale"},{"id":"950709","latitude":"19.45000000","longitude":"-71.88333330","name":"Pascal"},{"id":"950713","latitude":"19.20000000","longitude":"-71.76666670","name":"Pas de Rail"},{"id":"950724","latitude":"19.55000000","longitude":"-71.81666670","name":"Passe Caf\u00e9"},{"id":"950730","latitude":"19.26666670","longitude":"-71.81666670","name":"Passe Citron"},{"id":"950754","latitude":"19.40000000","longitude":"-71.78333330","name":"Patois"},{"id":"950757","latitude":"19.60000000","longitude":"-71.90000000","name":"Patrio"},{"id":"950759","latitude":"19.66861110","longitude":"-71.92277780","name":"Paulette"},{"id":"950762","latitude":"19.41666670","longitude":"-71.75000000","name":"Paul Martin"},{"id":"950772","latitude":"19.46666670","longitude":"-72.00000000","name":"Pavois"},{"id":"950787","latitude":"19.43333330","longitude":"-72.00000000","name":"Pelaro"},{"id":"950814","latitude":"19.58333330","longitude":"-71.80000000","name":"P\u00e9rard"},{"id":"950816","latitude":"19.51666670","longitude":"-71.91666670","name":"Perches"},{"id":"950867","latitude":"19.55000000","longitude":"-71.88333330","name":"Petit Bourg de Danda"},{"id":"950890","latitude":"19.46666670","longitude":"-71.96666670","name":"Petite Place"},{"id":"950922","latitude":"19.16666670","longitude":"-71.65000000","name":"Petit Trou"},{"id":"950926","latitude":"19.48333330","longitude":"-71.98333330","name":"Pevaga"},{"id":"950933","latitude":"19.67416670","longitude":"-71.89722220","name":"Pha\u00e9ton"},{"id":"950936","latitude":"19.65000000","longitude":"-71.76666670","name":"Philibert"},{"id":"950955","latitude":"19.45000000","longitude":"-72.06666670","name":"Picot"},{"id":"950959","latitude":"19.58333330","longitude":"-71.86666670","name":"Pied d'Or"},{"id":"950983","latitude":"19.46666670","longitude":"-71.81666670","name":"Pierrot"},{"id":"950995","latitude":"19.55000000","longitude":"-72.01666670","name":"Pilette"},{"id":"950998","latitude":"19.55000000","longitude":"-72.01666670","name":"Pillette"},{"id":"951023","latitude":"19.56666670","longitude":"-71.73333330","name":"Pirobert"},{"id":"951042","latitude":"19.38333330","longitude":"-71.96666670","name":"Piton"},{"id":"951059","latitude":"19.56666670","longitude":"-71.80000000","name":"Place Prudhomme"},{"id":"951127","latitude":"19.28333330","longitude":"-71.85000000","name":"Plate-Forma"},{"id":"951166","latitude":"19.46666670","longitude":"-72.03333330","name":"Platon Mat"},{"id":"951177","latitude":"19.41666670","longitude":"-71.86666670","name":"Platon"},{"id":"951226","latitude":"19.46666670","longitude":"-71.80000000","name":"Poirier"},{"id":"951244","latitude":"19.41666670","longitude":"-71.71666670","name":"Polo"},{"id":"951262","latitude":"19.63333330","longitude":"-72.01666670","name":"Ponsey"},{"id":"951269","latitude":"19.60000000","longitude":"-71.75000000","name":"Pontgot"},{"id":"951277","latitude":"19.40000000","longitude":"-71.93333330","name":"Pont Sable"},{"id":"951349","latitude":"19.45000000","longitude":"-72.06666670","name":"Poux"},{"id":"951358","latitude":"19.45000000","longitude":"-72.01666670","name":"Pr\u00eacot"},{"id":"951371","latitude":"19.43333330","longitude":"-72.05000000","name":"Pr\u00e9vaux"},{"id":"951374","latitude":"19.51666670","longitude":"-71.75000000","name":"Prevoyance"},{"id":"951388","latitude":"19.48333330","longitude":"-71.70000000","name":"Prudhomme"},{"id":"951402","latitude":"19.55000000","longitude":"-71.73333330","name":"Quanamenthe"},{"id":"951420","latitude":"19.60000000","longitude":"-71.96666670","name":"Quvray"},{"id":"951464","latitude":"19.25000000","longitude":"-71.78333330","name":"Rapha\u00ebl"},{"id":"951485","latitude":"19.60000000","longitude":"-71.78333330","name":"Ravine Blanche"},{"id":"951496","latitude":"19.35000000","longitude":"-71.86666670","name":"Ravine Froide"},{"id":"951499","latitude":"19.16666670","longitude":"-71.66666670","name":"Ravine la Salle"},{"id":"951505","latitude":"19.28333330","longitude":"-71.88333330","name":"Ravine Pite"},{"id":"951533","latitude":"19.46666670","longitude":"-71.76666670","name":"R\u00e9forme"},{"id":"951550","latitude":"19.25000000","longitude":"-71.95000000","name":"Ren\u00e9"},{"id":"951573","latitude":"19.58333330","longitude":"-72.08333330","name":"Richard"},{"id":"951592","latitude":"19.25000000","longitude":"-71.75000000","name":"Rincon"},{"id":"951608","latitude":"19.53333330","longitude":"-71.75000000","name":"Rivi\u00e8re Sabe"},{"id":"951619","latitude":"19.55000000","longitude":"-72.08333330","name":"Robert"},{"id":"951624","latitude":"19.35000000","longitude":"-71.98333330","name":"Robinet"},{"id":"951627","latitude":"19.56666670","longitude":"-71.78333330","name":"Robino"},{"id":"951632","latitude":"19.45000000","longitude":"-72.00000000","name":"Roblin"},{"id":"951680","latitude":"19.30000000","longitude":"-71.91666670","name":"Roche Temp\u00e9e"},{"id":"951681","latitude":"19.30000000","longitude":"-71.91666670","name":"Roche Tempe"},{"id":"951682","latitude":"19.38333330","longitude":"-71.91666670","name":"Roche Tendre"},{"id":"951700","latitude":"19.58333330","longitude":"-71.91666670","name":"Roman"},{"id":"951702","latitude":"19.63333330","longitude":"-71.86666670","name":"Rom\u00e9o"},{"id":"951704","latitude":"19.41666670","longitude":"-71.80000000","name":"Rondelle"},{"id":"951708","latitude":"19.45000000","longitude":"-72.06666670","name":"Roquet"},{"id":"951711","latitude":"19.33333330","longitude":"-71.85000000","name":"Rosalie"},{"id":"951730","latitude":"19.33333330","longitude":"-71.85000000","name":"Rosolie"},{"id":"951736","latitude":"19.45000000","longitude":"-71.98333330","name":"Rossoli\u00e8re"},{"id":"951750","latitude":"19.58333330","longitude":"-71.78333330","name":"Rouvoie"},{"id":"951751","latitude":"19.58333330","longitude":"-71.78333330","name":"Rouvoy\u00e9"},{"id":"951774","latitude":"19.53333330","longitude":"-71.90000000","name":"Sacristin"},{"id":"951777","latitude":"19.23333330","longitude":"-71.81666670","name":"Sagonjou"},{"id":"951789","latitude":"19.61666670","longitude":"-71.06666670","name":"Saint-Deck"},{"id":"951797","latitude":"19.26666670","longitude":"-71.73333330","name":"Saintelus"},{"id":"951804","latitude":"19.58333330","longitude":"-72.08333330","name":"Sainte-Suzanne"},{"id":"951807","latitude":"19.45000000","longitude":"-71.75000000","name":"Saint-Fol"},{"id":"951818","latitude":"19.60000000","longitude":"-71.75000000","name":"Saint-Jean"},{"id":"951859","latitude":"19.40000000","longitude":"-71.73333330","name":"Saint Simon"},{"id":"951861","latitude":"19.53333330","longitude":"-71.98333330","name":"Sainyette"},{"id":"951865","latitude":"19.20000000","longitude":"-71.63333330","name":"Salgodon"},{"id":"951873","latitude":"19.43333330","longitude":"-71.88333330","name":"Salnave"},{"id":"951874","latitude":"19.48333330","longitude":"-72.05000000","name":"Salnave"},{"id":"951884","latitude":"19.67166670","longitude":"-72.05861110","name":"Samson"},{"id":"951907","latitude":"19.40000000","longitude":"-71.80000000","name":"Saou"},{"id":"951932","latitude":"19.36666670","longitude":"-71.81666670","name":"Saut d'Eau"},{"id":"951947","latitude":"19.58333330","longitude":"-72.01666670","name":"Savane au Camp"},{"id":"951971","latitude":"19.63333330","longitude":"-71.90000000","name":"Savane Carri\u00e9"},{"id":"951977","latitude":"19.51666670","longitude":"-71.88333330","name":"Savane Cotton"},{"id":"951979","latitude":"19.51666670","longitude":"-71.86666670","name":"Savane Declay"},{"id":"952006","latitude":"19.48333330","longitude":"-71.75000000","name":"Savane Longue"},{"id":"952010","latitude":"19.51666670","longitude":"-71.85000000","name":"Savane Manigat"},{"id":"952029","latitude":"19.58333330","longitude":"-71.98333330","name":"Savane Pomme"},{"id":"952045","latitude":"19.36666670","longitude":"-71.78333330","name":"Savanette"},{"id":"952050","latitude":"19.50000000","longitude":"-71.86666670","name":"Savane Visite"},{"id":"952061","latitude":"19.55000000","longitude":"-71.81666670","name":"Sayant"},{"id":"952063","latitude":"19.28333330","longitude":"-71.76666670","name":"Sebatan"},{"id":"952069","latitude":"19.55000000","longitude":"-72.08333330","name":"Seguin"},{"id":"952085","latitude":"19.46666670","longitude":"-71.75000000","name":"Senc\u00e9"},{"id":"952088","latitude":"19.58333330","longitude":"-71.75000000","name":"Sens\u00e9"},{"id":"952098","latitude":"19.65000000","longitude":"-71.83333330","name":"Sicard"},{"id":"952116","latitude":"19.48333330","longitude":"-71.93333330","name":"Singo"},{"id":"952189","latitude":"19.58333330","longitude":"-71.80000000","name":"Source"},{"id":"952221","latitude":"19.41666670","longitude":"-71.80000000","name":"Tabli"},{"id":"952253","latitude":"19.18333330","longitude":"-71.66666670","name":"Tati"},{"id":"952259","latitude":"19.58333330","longitude":"-71.75000000","name":"Tavot"},{"id":"952271","latitude":"19.46666670","longitude":"-71.80000000","name":"Templier"},{"id":"952284","latitude":"19.58333330","longitude":"-71.95000000","name":"Terou"},{"id":"952290","latitude":"19.25000000","longitude":"-71.76666670","name":"Terre Blanche"},{"id":"952296","latitude":"19.23333330","longitude":"-71.70000000","name":"Terre Canne"},{"id":"952317","latitude":"19.41666670","longitude":"-71.85000000","name":"Terre Neuve"},{"id":"952328","latitude":"19.45000000","longitude":"-71.95000000","name":"Terre Rouge"},{"id":"952329","latitude":"19.51666670","longitude":"-71.93333330","name":"Terre-Rouge"},{"id":"952333","latitude":"19.33333330","longitude":"-71.95000000","name":"Terre Sal\u00e9e"},{"id":"952338","latitude":"19.63333330","longitude":"-71.95000000","name":"Terrier Rouge"},{"id":"952346","latitude":"19.58333330","longitude":"-71.78333330","name":"T\u00eatard"},{"id":"952386","latitude":"19.48333330","longitude":"-71.88333330","name":"Thoman"},{"id":"952401","latitude":"19.45000000","longitude":"-72.00000000","name":"Ti Bal"},{"id":"952414","latitude":"19.58333330","longitude":"-71.93333330","name":"Tibo"},{"id":"952447","latitude":"19.53333330","longitude":"-71.73333330","name":"Ti Dosmond"},{"id":"952466","latitude":"19.55000000","longitude":"-71.73333330","name":"Ti Laurier"},{"id":"952467","latitude":"19.23333330","longitude":"-71.68333330","name":"Ti Lauri"},{"id":"952470","latitude":"19.23333330","longitude":"-71.70000000","name":"Tilory"},{"id":"952472","latitude":"19.23333330","longitude":"-71.68333330","name":"Ti Louri"},{"id":"952473","latitude":"19.45000000","longitude":"-71.91666670","name":"Ti Ma\u00eetre"},{"id":"952478","latitude":"19.41666670","longitude":"-71.75000000","name":"Ti M\u00e9lia"},{"id":"952535","latitude":"19.18333330","longitude":"-71.66666670","name":"Ti Trou"},{"id":"952538","latitude":"19.50000000","longitude":"-71.96666670","name":"Todivi"},{"id":"952557","latitude":"19.43333330","longitude":"-71.93333330","name":"Toquette"},{"id":"952563","latitude":"19.60000000","longitude":"-71.95000000","name":"Toreste"},{"id":"952566","latitude":"19.53333330","longitude":"-72.06666670","name":"Torsini"},{"id":"952569","latitude":"19.53333330","longitude":"-72.06666670","name":"Torzin"},{"id":"952605","latitude":"19.55000000","longitude":"-71.96666670","name":"Trembl\u00e9"},{"id":"952627","latitude":"19.46666670","longitude":"-71.95000000","name":"Trois La Passe"},{"id":"952631","latitude":"19.48333330","longitude":"-71.93333330","name":"Trois Palmistes"},{"id":"952636","latitude":"19.43333330","longitude":"-71.91666670","name":"Trois Platons"},{"id":"952647","latitude":"19.18333330","longitude":"-71.75000000","name":"Trompette"},{"id":"952675","latitude":"19.63333330","longitude":"-72.01666670","name":"Trou du Nord"},{"id":"952685","latitude":"19.43333330","longitude":"-71.76666670","name":"Trou Jean de Nantes"},{"id":"952710","latitude":"19.63333330","longitude":"-72.01666670","name":"Trou"},{"id":"952746","latitude":"19.43333330","longitude":"-71.91666670","name":"Valli\u00e8res"},{"id":"952747","latitude":"19.43333330","longitude":"-71.91666670","name":"Valli\u00e8re"},{"id":"952757","latitude":"19.45000000","longitude":"-71.76666670","name":"Vano"},{"id":"952779","latitude":"19.63333330","longitude":"-71.83333330","name":"Verbouc"},{"id":"952783","latitude":"19.63333330","longitude":"-71.85000000","name":"Verdun"},{"id":"952806","latitude":"19.41666670","longitude":"-71.93333330","name":"Viaud"},{"id":"952810","latitude":"19.18333330","longitude":"-71.83333330","name":"Victorine"},{"id":"952836","latitude":"19.63333330","longitude":"-71.83333330","name":"Vieux Bourg"},{"id":"952846","latitude":"19.45000000","longitude":"-71.83333330","name":"Vieux Calle"},{"id":"952851","latitude":"19.45000000","longitude":"-71.83333330","name":"Vieux Gaille"},{"id":"952874","latitude":"19.41666670","longitude":"-72.03333330","name":"Villate"},{"id":"952885","latitude":"19.66777780","longitude":"-71.83972220","name":"Ville de Fort-Libert\u00e9"},{"id":"952916","latitude":"19.33333330","longitude":"-71.91666670","name":"Vimbale"},{"id":"952921","latitude":"19.58333330","longitude":"-72.08333330","name":"Vincent"},{"id":"952941","latitude":"19.66666670","longitude":"-72.00000000","name":"Volant"},{"id":"952949","latitude":"19.31666670","longitude":"-71.78333330","name":"Wacacou"},{"id":"952952","latitude":"19.20000000","longitude":"-71.73333330","name":"Wan Degras"},{"id":"952955","latitude":"19.46666670","longitude":"-71.71666670","name":"Welch"}]