[{"id":"137887","latitude":"39.95000000","longitude":"48.36666670","name":"Abasbeyli"},{"id":"137895","latitude":"39.95000000","longitude":"48.36666670","name":"Abbasbeyli"},{"id":"138011","latitude":"39.90111110","longitude":"48.32138890","name":"\u00c6\u008flisoltanl\u00c4\u00b1"},{"id":"138139","latitude":"39.86777780","longitude":"48.90805560","name":"Agamamedli"},{"id":"138141","latitude":"39.86777780","longitude":"48.90805560","name":"Aga-Mamedly"},{"id":"138149","latitude":"39.93333330","longitude":"48.33333330","name":"Agaragimli"},{"id":"138400","latitude":"39.86666670","longitude":"48.46666670","name":"Aliabad"},{"id":"138462","latitude":"39.90111110","longitude":"48.32138890","name":"Alisoltanly"},{"id":"139118","latitude":"39.79305560","longitude":"48.55694440","name":"Azadk\u00c7\u009dnd"},{"id":"139120","latitude":"39.79305560","longitude":"48.55694440","name":"Azadkend"},{"id":"139276","latitude":"39.95000000","longitude":"48.45000000","name":"Balakend"},{"id":"139463","latitude":"39.86916670","longitude":"48.38833330","name":"Bayramovka"},{"id":"139495","latitude":"39.96527780","longitude":"48.42111110","name":"B\u00c7\u009dylik"},{"id":"139508","latitude":"39.96527780","longitude":"48.42111110","name":"Beilyar"},{"id":"139529","latitude":"39.88333330","longitude":"48.60000000","name":"Beriyakend"},{"id":"139557","latitude":"39.96527780","longitude":"48.42111110","name":"Beylik"},{"id":"139838","latitude":"39.93138890","longitude":"48.45305560","name":"Budenovka"},{"id":"140401","latitude":"39.97055560","longitude":"48.37250000","name":"Dalliar"},{"id":"140403","latitude":"39.97055560","longitude":"48.37250000","name":"Dallyar"},{"id":"140563","latitude":"39.97055560","longitude":"48.37250000","name":"D\u00c7\u009dlil\u00c7\u009dr"},{"id":"140860","latitude":"39.94305560","longitude":"48.49166670","name":"Dzhafarkhan"},{"id":"141157","latitude":"39.87777780","longitude":"48.55666670","name":"F\u00c7\u009dt\u00c7\u009dlik\u00c7\u009dnd"},{"id":"141218","latitude":"39.91555560","longitude":"48.24583330","name":"Gadzhi-Kasumly"},{"id":"141219","latitude":"39.91555560","longitude":"48.24583330","name":"Gadzhikasymly"},{"id":"141264","latitude":"39.91555560","longitude":"48.24583330","name":"Gadzhykasymly"},{"id":"141427","latitude":"39.86666670","longitude":"48.28333330","name":"Gemyushchi"},{"id":"141600","latitude":"39.85666670","longitude":"48.41138890","name":"Golovino"},{"id":"141601","latitude":"39.85666670","longitude":"48.41138890","name":"Golovinovka"},{"id":"141606","latitude":"39.86666670","longitude":"48.28333330","name":"Gomushchu"},{"id":"141818","latitude":"39.86666670","longitude":"48.28333330","name":"Gyumushchi"},{"id":"142529","latitude":"39.88333330","longitude":"48.30000000","name":"Karadzhalar"},{"id":"142534","latitude":"39.88333330","longitude":"48.30000000","name":"Karadzhalyar"},{"id":"142632","latitude":"39.88027780","longitude":"48.30166670","name":"Karalar"},{"id":"142635","latitude":"39.88027780","longitude":"48.30166670","name":"Karaliar"},{"id":"142705","latitude":"39.91111110","longitude":"48.64750000","name":"Karayevka"},{"id":"142706","latitude":"39.91111110","longitude":"48.64750000","name":"Karayevkend"},{"id":"142802","latitude":"39.92250000","longitude":"48.27722220","name":"Kayamally"},{"id":"142989","latitude":"39.92250000","longitude":"48.27722220","name":"Kemally"},{"id":"143207","latitude":"39.88166670","longitude":"48.61027780","name":"Khanlarkend"},{"id":"143500","latitude":"39.84666670","longitude":"48.63388890","name":"Kirovkend"},{"id":"143727","latitude":"39.95833330","longitude":"48.39666670","name":"Kragly"},{"id":"143731","latitude":"39.91833330","longitude":"48.51138890","name":"Krasnoselski"},{"id":"143732","latitude":"39.91833330","longitude":"48.51138890","name":"Krasnosel'sk"},{"id":"143733","latitude":"39.91833330","longitude":"48.51138890","name":"Krasnosel'skoye"},{"id":"143904","latitude":"39.92250000","longitude":"48.27722220","name":"Kyamally"},{"id":"143940","latitude":"39.95833330","longitude":"48.39666670","name":"Kyragly"},{"id":"144166","latitude":"39.95916670","longitude":"48.41527780","name":"Leninkend"},{"id":"144170","latitude":"39.76250000","longitude":"48.57583330","name":"Lenino"},{"id":"144337","latitude":"39.87000000","longitude":"48.47111110","name":"Mamedabad"},{"id":"144509","latitude":"39.87000000","longitude":"48.47111110","name":"M\u00c7\u009dmm\u00c7\u009ddabad"},{"id":"144686","latitude":"39.94944440","longitude":"48.37722220","name":"Minbashly"},{"id":"144688","latitude":"39.94944440","longitude":"48.37722220","name":"Minbashyly"},{"id":"144715","latitude":"39.84333330","longitude":"48.64500000","name":"Mirc\u00c7\u009dlal"},{"id":"144796","latitude":"39.93333330","longitude":"48.38333330","name":"Molday"},{"id":"145004","latitude":"39.95916670","longitude":"48.41527780","name":"Mustafabeyli"},{"id":"145007","latitude":"39.98416670","longitude":"48.45361110","name":"Mustafa"},{"id":"145173","latitude":"39.96111110","longitude":"48.38138890","name":"N\u00c7\u009drimanov"},{"id":"145175","latitude":"39.83888890","longitude":"48.61277780","name":"N\u00c7\u009dsimik\u00c7\u009dnd"},{"id":"145321","latitude":"39.99000000","longitude":"48.39805560","name":"Novruzlu"},{"id":"145345","latitude":"39.99000000","longitude":"48.39805560","name":"Nuruzly"},{"id":"145403","latitude":"39.86666670","longitude":"48.50361110","name":"Oktyabrabad"},{"id":"145504","latitude":"39.92944440","longitude":"48.45250000","name":"Otradnoye"},{"id":"145759","latitude":"39.88194440","longitude":"48.39500000","name":"Potub\u00c7\u009dyli"},{"id":"145760","latitude":"39.88194440","longitude":"48.39500000","name":"Potubeyli"},{"id":"145866","latitude":"39.88027780","longitude":"48.30166670","name":"Qaracalar"},{"id":"145936","latitude":"39.91833330","longitude":"48.51138890","name":"Qara Nuru"},{"id":"145955","latitude":"39.95833330","longitude":"48.39666670","name":"Q\u00c4\u00b1raql\u00c4\u00b1"},{"id":"145992","latitude":"39.91111110","longitude":"48.64750000","name":"Qarayevk\u00c7\u009dnd"},{"id":"146071","latitude":"39.92944440","longitude":"48.45250000","name":"Qazanbatan"},{"id":"146137","latitude":"39.85666670","longitude":"48.41138890","name":"Qolovinovka"},{"id":"146259","latitude":"39.84805560","longitude":"48.74638890","name":"Razy-Kend"},{"id":"146325","latitude":"39.93111110","longitude":"48.36972220","name":"Saatl\u00c4\u00b1"},{"id":"146327","latitude":"39.93111110","longitude":"48.36972220","name":"Saatly"},{"id":"146446","latitude":"39.76500000","longitude":"48.65833330","name":"S\u00c4\u00b1mada"},{"id":"146476","latitude":"39.93111110","longitude":"48.36972220","name":"Saotly"},{"id":"146486","latitude":"39.93944440","longitude":"48.49527780","name":"Sar\u00c4\u00b1calar"},{"id":"146494","latitude":"39.93944440","longitude":"48.49527780","name":"Saradzhalyar"},{"id":"146739","latitude":"39.87722220","longitude":"48.55694440","name":"Severskoye"},{"id":"146778","latitude":"39.89777780","longitude":"48.30027780","name":"Seytdar"},{"id":"147141","latitude":"39.86666670","longitude":"48.50361110","name":"Sirinb\u00c7\u009dyli"},{"id":"147585","latitude":"39.89055560","longitude":"48.38583330","name":"Tel'mankend"},{"id":"147642","latitude":"39.88250000","longitude":"48.29805560","name":"Tomushlv"},{"id":"147751","latitude":"39.86944440","longitude":"48.50138890","name":"Tverskoye"},{"id":"147823","latitude":"39.93333330","longitude":"48.55000000","name":"Ukrainskiye Otruba"},{"id":"147824","latitude":"39.93333330","longitude":"48.55000000","name":"Ukrainskiy"},{"id":"147935","latitude":"39.86444440","longitude":"48.24500000","name":"Varkhan"},{"id":"147949","latitude":"39.86444440","longitude":"48.24500000","name":"Varxan"},{"id":"148118","latitude":"39.88166670","longitude":"48.61027780","name":"Xanlark\u00c7\u009dnd"},{"id":"148422","latitude":"39.82111110","longitude":"48.40916670","name":"Yevdokimovka"},{"id":"148488","latitude":"39.91555560","longitude":"48.24583330","name":"Yukhary-Gadzhykasymly"},{"id":"148580","latitude":"39.91555560","longitude":"48.24583330","name":"Yuxar\u00c4\u00b1 Hac\u00c4\u00b1qas\u00c4\u00b1ml\u00c4\u00b1"}]