[{"id":"953023","latitude":"48.31666670","longitude":"21.23333330","name":"Aba\u00fajalp\u00e1r"},{"id":"953024","latitude":"48.33333330","longitude":"21.13333330","name":"Aba\u00fajdevecser"},{"id":"953025","latitude":"48.30000000","longitude":"21.20000000","name":"Aba\u00fajk\u00e9r"},{"id":"953026","latitude":"48.40000000","longitude":"20.96666670","name":"Aba\u00fajlak"},{"id":"953027","latitude":"48.31666670","longitude":"21.00000000","name":"Aba\u00fajs\u00e1p"},{"id":"953028","latitude":"48.28333330","longitude":"21.20000000","name":"Aba\u00fajsz\u00e1nt\u00f3"},{"id":"953029","latitude":"48.36666670","longitude":"20.98333330","name":"Aba\u00fajszolnok"},{"id":"953030","latitude":"48.53333330","longitude":"21.31666670","name":"Aba\u00fajv\u00e1r"},{"id":"953032","latitude":"48.40000000","longitude":"20.80000000","name":"Abod"},{"id":"953073","latitude":"47.95000000","longitude":"20.85000000","name":"Adorj\u00e1ntanya"},{"id":"953076","latitude":"48.16666670","longitude":"20.63333330","name":"Adri\u00e1ntelep"},{"id":"953098","latitude":"48.46666670","longitude":"20.51666670","name":"Aggtelek"},{"id":"953104","latitude":"48.33333330","longitude":"21.66666670","name":"\u00c1g\u00f3cpuszta"},{"id":"953105","latitude":"48.33333330","longitude":"21.66666670","name":"\u00c1g\u00f3ctanya"},{"id":"953115","latitude":"47.85000000","longitude":"20.58333330","name":"\u00c1gostontanya"},{"id":"953164","latitude":"48.21666670","longitude":"20.65000000","name":"Alacska"},{"id":"953165","latitude":"48.23333330","longitude":"20.63333330","name":"Alacskai-Koszenbanyatelep"},{"id":"953166","latitude":"48.23333330","longitude":"20.63333330","name":"Alacskaisz\u00e9nb\u00e1nya"},{"id":"953173","latitude":"47.88333330","longitude":"20.66666670","name":"Alajosh\u00e1zatanya"},{"id":"953256","latitude":"48.45000000","longitude":"20.45000000","name":"Alm\u00e1sv\u00f6lgytanya"},{"id":"953257","latitude":"47.80000000","longitude":"20.81666670","name":"Alm\u00e1sytanya"},{"id":"953266","latitude":"47.88333330","longitude":"20.68333330","name":"Als\u00f3\u00e1br\u00e1ny"},{"id":"953281","latitude":"48.35000000","longitude":"21.70000000","name":"Als\u00f3berecki"},{"id":"953296","latitude":"48.35000000","longitude":"21.20000000","name":"Als\u00f3c\u00e9ce"},{"id":"953323","latitude":"48.18333330","longitude":"21.00000000","name":"Als\u00f3dobsza"},{"id":"953349","latitude":"48.40000000","longitude":"21.03333330","name":"Als\u00f3gagy"},{"id":"953368","latitude":"48.30000000","longitude":"20.73333330","name":"Als\u00f3hegy"},{"id":"953437","latitude":"48.35000000","longitude":"21.15000000","name":"Als\u00f3m\u00e9ra"},{"id":"953442","latitude":"48.40000000","longitude":"21.66666670","name":"Als\u00f3mocs\u00e1r"},{"id":"953458","latitude":"48.40000000","longitude":"21.18333330","name":"Alson\u00f3vaj"},{"id":"953461","latitude":"47.96666670","longitude":"20.83333330","name":"Als\u00f3ny\u00e9ki Tany\u00e1k"},{"id":"953498","latitude":"48.46666670","longitude":"21.61666670","name":"Als\u00f3regmec"},{"id":"953499","latitude":"48.46666670","longitude":"21.61666670","name":"Als\u00f3regmeci Tany\u00e1k"},{"id":"953548","latitude":"48.36666670","longitude":"20.51666670","name":"Als\u00f3szuha"},{"id":"953551","latitude":"48.11666670","longitude":"20.91666670","name":"Als\u00f3tanya"},{"id":"953561","latitude":"48.41666670","longitude":"20.66666670","name":"Als\u00f3telekes"},{"id":"953569","latitude":"48.21666670","longitude":"21.03333330","name":"Alsotovistetotanya"},{"id":"953576","latitude":"48.25000000","longitude":"20.91666670","name":"Als\u00f3vad\u00e1sz"},{"id":"953588","latitude":"48.06666670","longitude":"20.88333330","name":"Als\u00f3zsolca"},{"id":"953626","latitude":"48.20000000","longitude":"21.73333330","name":"Andr\u00e1stanya"},{"id":"953638","latitude":"47.70000000","longitude":"20.85000000","name":"Angyalostanya"},{"id":"953670","latitude":"48.53333330","longitude":"20.86666670","name":"Antalmajor"},{"id":"953721","latitude":"48.26666670","longitude":"21.60000000","name":"Apr\u00f3homok"},{"id":"953722","latitude":"48.31666670","longitude":"21.58333330","name":"Apr\u00f3ny\u00e1rf\u00e1s"},{"id":"953744","latitude":"48.30000000","longitude":"21.23333330","name":"Aranyos"},{"id":"953749","latitude":"48.30000000","longitude":"21.30000000","name":"Aranyosfurdo"},{"id":"953770","latitude":"48.33333330","longitude":"21.75000000","name":"Aranyt\u00f3tanya"},{"id":"953775","latitude":"48.35000000","longitude":"21.25000000","name":"Arka"},{"id":"953782","latitude":"48.18333330","longitude":"20.26666670","name":"Arl\u00f3"},{"id":"953784","latitude":"48.13333330","longitude":"20.86666670","name":"Arn\u00f3t"},{"id":"953787","latitude":"47.38333330","longitude":"17.03333330","name":"\u00c1rokh\u00e1timajor"},{"id":"953789","latitude":"47.73333330","longitude":"20.95000000","name":"Arokto"},{"id":"953797","latitude":"47.96666670","longitude":"20.61666670","name":"\u00c1rp\u00e1dtanya"},{"id":"953804","latitude":"48.28333330","longitude":"21.73333330","name":"\u00c1rp\u00e1si Tany\u00e1k"},{"id":"953805","latitude":"48.28333330","longitude":"21.73333330","name":"\u00c1rp\u00e1stanya"},{"id":"953808","latitude":"48.15000000","longitude":"21.00000000","name":"\u00c1rvai J\u00e1nos-tanya"},{"id":"953809","latitude":"48.15000000","longitude":"21.00000000","name":"\u00c1rvaitanya"},{"id":"953829","latitude":"48.21666670","longitude":"20.96666670","name":"Aszal\u00f3"},{"id":"953830","latitude":"48.23333330","longitude":"21.00000000","name":"Aszal\u00f3i Kistanya"},{"id":"953831","latitude":"48.25000000","longitude":"20.96666670","name":"Aszal\u00f3i Nagytanya"},{"id":"953835","latitude":"48.28333330","longitude":"20.40000000","name":"Asz\u00f3b\u00e1nyatelep"},{"id":"953920","latitude":"47.75000000","longitude":"20.78333330","name":"Bacs\u00f3h\u00e1ztanya"},{"id":"953943","latitude":"48.21666670","longitude":"21.51666670","name":"Bagdytanya"},{"id":"953956","latitude":"47.76666670","longitude":"20.70000000","name":"Baglyostanya"},{"id":"953963","latitude":"48.18333330","longitude":"20.26666670","name":"Bag\u00f3l\u00e1papuszta"},{"id":"953964","latitude":"48.18333330","longitude":"20.26666670","name":"Bag\u00f3l\u00e1patanya"},{"id":"953966","latitude":"48.43333330","longitude":"20.93333330","name":"Bagolyfog\u00f3"},{"id":"953967","latitude":"48.35000000","longitude":"20.96666670","name":"Bagolyfog\u00f3tanya"},{"id":"953970","latitude":"48.43333330","longitude":"20.93333330","name":"Bagolytanya"},{"id":"953993","latitude":"48.06666670","longitude":"21.31666670","name":"B\u00e1j"},{"id":"954067","latitude":"48.30000000","longitude":"21.61666670","name":"Baksa"},{"id":"954068","latitude":"48.11666670","longitude":"21.41666670","name":"Baksadulo"},{"id":"954074","latitude":"48.36666670","longitude":"21.03333330","name":"Bakta"},{"id":"954075","latitude":"48.38333330","longitude":"21.03333330","name":"Baktak\u00e9k"},{"id":"954080","latitude":"48.30000000","longitude":"20.73333330","name":"Balajt"},{"id":"954082","latitude":"48.25000000","longitude":"20.26666670","name":"Balajtitanya"},{"id":"954144","latitude":"48.25000000","longitude":"21.60000000","name":"Balazsdulo"},{"id":"954147","latitude":"47.76666670","longitude":"20.95000000","name":"Bal\u00e1zsitanya"},{"id":"954150","latitude":"48.25000000","longitude":"21.60000000","name":"Bal\u00e1zslapos"},{"id":"954173","latitude":"48.08333330","longitude":"21.35000000","name":"B\u00e1lintcsere"},{"id":"954182","latitude":"48.05000000","longitude":"21.35000000","name":"Balkaitanya"},{"id":"954198","latitude":"48.48333330","longitude":"21.53333330","name":"Balogh\u00e1z"},{"id":"954203","latitude":"48.25000000","longitude":"20.83333330","name":"Baloghtanya"},{"id":"954211","latitude":"48.25000000","longitude":"20.83333330","name":"Balog-tanya"},{"id":"954226","latitude":"48.20000000","longitude":"21.66666670","name":"B\u00e1lv\u00e1nyos"},{"id":"954234","latitude":"48.23333330","longitude":"20.51666670","name":"B\u00e1nfalva"},{"id":"954254","latitude":"48.23333330","longitude":"20.51666670","name":"B\u00e1nhorv\u00e1t"},{"id":"954255","latitude":"48.23333330","longitude":"20.51666670","name":"B\u00e1nhorv\u00e1ti"},{"id":"954257","latitude":"48.20000000","longitude":"21.28333330","name":"Banka"},{"id":"954292","latitude":"48.30000000","longitude":"20.36666670","name":"B\u00e1nr\u00e9ve"},{"id":"954293","latitude":"48.25000000","longitude":"20.36666670","name":"B\u00e1nsz\u00e1ll\u00e1s"},{"id":"954294","latitude":"48.25000000","longitude":"20.36666670","name":"B\u00e1nsz\u00e1ll\u00e1sb\u00e1nya"},{"id":"954295","latitude":"48.25000000","longitude":"20.36666670","name":"B\u00e1nsz\u00e1ll\u00e1sb\u00e1nyatelep"},{"id":"954296","latitude":"48.18333330","longitude":"20.48333330","name":"B\u00e1ntapolcs\u00e1ny"},{"id":"954303","latitude":"48.23333330","longitude":"20.53333330","name":"Banya"},{"id":"954306","latitude":"48.06666670","longitude":"20.50000000","name":"B\u00e1nyahegy"},{"id":"954311","latitude":"48.23333330","longitude":"21.23333330","name":"B\u00e1ny\u00e1sz"},{"id":"954314","latitude":"48.15000000","longitude":"20.25000000","name":"B\u00e1nyatelep"},{"id":"954323","latitude":"48.35000000","longitude":"21.58333330","name":"B\u00e1nyihegy"},{"id":"954377","latitude":"48.30000000","longitude":"20.66666670","name":"Bar\u00e1tv\u00f6lgyi B\u00e1nyatelep"},{"id":"954381","latitude":"48.26666670","longitude":"20.63333330","name":"Barcika"},{"id":"954390","latitude":"48.26666670","longitude":"20.63333330","name":"Barczika"},{"id":"954395","latitude":"48.08333330","longitude":"21.41666670","name":"B\u00e1rdos-tanya"},{"id":"954402","latitude":"48.23333330","longitude":"20.51666670","name":"B\u00e1riuspad"},{"id":"954403","latitude":"48.23333330","longitude":"20.51666670","name":"B\u00e1riuspart"},{"id":"954406","latitude":"48.26666670","longitude":"20.63333330","name":"Bark\u00f3czytelep"},{"id":"954409","latitude":"48.48333330","longitude":"20.56666670","name":"Barlang"},{"id":"954434","latitude":"48.15000000","longitude":"20.65000000","name":"Barossakna"},{"id":"954437","latitude":"47.76666670","longitude":"20.96666670","name":"B\u00e1r\u00f3tagtanya"},{"id":"954443","latitude":"47.81666670","longitude":"20.83333330","name":"B\u00e1rsonytanya"},{"id":"954450","latitude":"48.23333330","longitude":"21.23333330","name":"B\u00e1rtffaitanya"},{"id":"954457","latitude":"48.08333330","longitude":"21.41666670","name":"Bartosdulo"},{"id":"954469","latitude":"48.33333330","longitude":"21.33333330","name":"Bask\u00f3"},{"id":"954495","latitude":"48.25000000","longitude":"20.83333330","name":"Battatanya"},{"id":"954508","latitude":"47.71666670","longitude":"20.91666670","name":"Bay-tanya"},{"id":"954518","latitude":"48.06666670","longitude":"21.11666670","name":"Bazsipuszta"},{"id":"954540","latitude":"48.23333330","longitude":"20.91666670","name":"B\u00e9csitanya"},{"id":"954544","latitude":"48.53333330","longitude":"20.85000000","name":"Becskeh\u00e1za"},{"id":"954567","latitude":"47.96666670","longitude":"20.60000000","name":"B\u00e9kah\u00e1zatanya"},{"id":"954568","latitude":"48.31666670","longitude":"21.80000000","name":"B\u00e9kak\u00fat"},{"id":"954580","latitude":"48.15000000","longitude":"21.18333330","name":"Bekecs"},{"id":"954586","latitude":"48.45000000","longitude":"21.18333330","name":"Bekekaljatanya"},{"id":"954588","latitude":"48.01666670","longitude":"20.65000000","name":"B\u00e9k\u00e9ny"},{"id":"954589","latitude":"48.15000000","longitude":"21.26666670","name":"Bek\u00e9nyitanya"},{"id":"954590","latitude":"48.01666670","longitude":"20.65000000","name":"B\u00e9k\u00e9nypuszta"},{"id":"954621","latitude":"48.28333330","longitude":"21.90000000","name":"B\u00e9latanya"},{"id":"954625","latitude":"48.30000000","longitude":"20.38333330","name":"B\u00e9latelep"},{"id":"954657","latitude":"48.05000000","longitude":"20.96666670","name":"Belsobocs"},{"id":"954701","latitude":"48.33333330","longitude":"21.86666670","name":"Belsotanya"},{"id":"954710","latitude":"48.30000000","longitude":"20.95000000","name":"Bence J\u00f3zsef-tanya"},{"id":"954722","latitude":"48.35000000","longitude":"20.75000000","name":"Benedektanya"},{"id":"954744","latitude":"48.40000000","longitude":"21.66666670","name":"Berecki H\u00edd"},{"id":"954747","latitude":"48.40000000","longitude":"21.66666670","name":"Bereczkih\u00edd"},{"id":"954750","latitude":"47.83333330","longitude":"20.70000000","name":"Berecztanya"},{"id":"954756","latitude":"48.41666670","longitude":"21.13333330","name":"Beregtanya"},{"id":"954761","latitude":"48.45000000","longitude":"21.18333330","name":"Berekaljatanya"},{"id":"954792","latitude":"48.35000000","longitude":"21.03333330","name":"Beret"},{"id":"954800","latitude":"48.41666670","longitude":"21.13333330","name":"Berge-tanya"},{"id":"954814","latitude":"48.20000000","longitude":"21.73333330","name":"Berketanya"},{"id":"954837","latitude":"48.01666670","longitude":"20.95000000","name":"Berz\u00e9k"},{"id":"954855","latitude":"47.83333330","longitude":"20.70000000","name":"Bethlenfalvytanya"},{"id":"954880","latitude":"48.36666670","longitude":"21.65000000","name":"Bib\u00e9rctanya"},{"id":"954912","latitude":"48.38333330","longitude":"20.58333330","name":"Bikak\u00fat"},{"id":"954913","latitude":"48.38333330","longitude":"20.58333330","name":"Bikak\u00fatpuszta"},{"id":"954923","latitude":"48.16666670","longitude":"20.65000000","name":"Bikkestelep"},{"id":"954930","latitude":"48.16666670","longitude":"20.53333330","name":"Billat\u00e1r\u00f3"},{"id":"954931","latitude":"48.16666670","longitude":"20.53333330","name":"Billat\u00e1r\u00f3telep"},{"id":"954998","latitude":"48.05000000","longitude":"20.96666670","name":"Bocs"},{"id":"955002","latitude":"48.20000000","longitude":"21.28333330","name":"Bocskaytanya"},{"id":"955012","latitude":"48.40000000","longitude":"21.66666670","name":"Bodadulo"},{"id":"955037","latitude":"48.31666670","longitude":"20.61666670","name":"B\u00f3ditelep"},{"id":"955042","latitude":"47.83333330","longitude":"20.70000000","name":"Bodn\u00e1rtanya"},{"id":"955066","latitude":"48.30000000","longitude":"21.71666670","name":"Bodroghalom"},{"id":"955067","latitude":"48.16666670","longitude":"21.36666670","name":"Bodrogkereszt\u00far"},{"id":"955068","latitude":"48.18333330","longitude":"21.36666670","name":"Bodrogkisfalud"},{"id":"955069","latitude":"48.28333330","longitude":"21.51666670","name":"Bodrogolaszi"},{"id":"955070","latitude":"48.20000000","longitude":"21.38333330","name":"Bodrogszegi"},{"id":"955071","latitude":"48.26666670","longitude":"21.50000000","name":"Bodrogzsad\u00e1ny"},{"id":"955072","latitude":"48.55000000","longitude":"20.81666670","name":"B\u00f3dvalenke"},{"id":"955073","latitude":"48.51666670","longitude":"20.75000000","name":"B\u00f3dvar\u00e1k\u00f3"},{"id":"955074","latitude":"48.53333330","longitude":"20.73333330","name":"B\u00f3dvaszilas"},{"id":"955076","latitude":"48.33333330","longitude":"20.60000000","name":"B\u00f3dytanya"},{"id":"955077","latitude":"48.31666670","longitude":"20.61666670","name":"B\u00f3dytelep"},{"id":"955082","latitude":"47.90000000","longitude":"20.53333330","name":"Bog\u00e1cs"},{"id":"955101","latitude":"48.13333330","longitude":"21.35000000","name":"Bogd\u00e1nytanya"},{"id":"955117","latitude":"48.28333330","longitude":"21.63333330","name":"Bogyai-tanya"},{"id":"955119","latitude":"48.28333330","longitude":"21.63333330","name":"Bogyaytanya"},{"id":"955132","latitude":"48.21666670","longitude":"20.80000000","name":"Bojtostanya"},{"id":"955163","latitude":"48.31666670","longitude":"21.25000000","name":"Boldogkoujfalu"},{"id":"955164","latitude":"48.33333330","longitude":"21.23333330","name":"Boldogkovaralja"},{"id":"955166","latitude":"48.21666670","longitude":"20.80000000","name":"Boldva"},{"id":"955178","latitude":"48.38333330","longitude":"20.68333330","name":"Bolhatanya"},{"id":"955190","latitude":"48.21666670","longitude":"20.30000000","name":"Bolyok"},{"id":"955205","latitude":"47.78333330","longitude":"21.00000000","name":"B\u00f3n\u00e9stanya"},{"id":"955239","latitude":"48.35000000","longitude":"20.71666670","name":"Bordatetotanya"},{"id":"955276","latitude":"48.23333330","longitude":"20.30000000","name":"Boroszl\u00f3"},{"id":"955277","latitude":"48.23333330","longitude":"20.30000000","name":"Boroszl\u00f3tanya"},{"id":"955285","latitude":"48.21666670","longitude":"21.51666670","name":"Bors\u00e1nyitanya"},{"id":"955290","latitude":"48.31666670","longitude":"20.75000000","name":"Borsod"},{"id":"955291","latitude":"48.21666670","longitude":"20.40000000","name":"Borsodb\u00f3ta"},{"id":"955293","latitude":"47.95000000","longitude":"20.70000000","name":"Borsodgeszt"},{"id":"955295","latitude":"47.70000000","longitude":"20.66666670","name":"Borsodiv\u00e1nka"},{"id":"955296","latitude":"48.11666670","longitude":"20.25000000","name":"Borsodn\u00e1dasd"},{"id":"955299","latitude":"48.18333330","longitude":"20.20000000","name":"Borsodszentgy\u00f6rgy"},{"id":"955301","latitude":"48.26666670","longitude":"20.76666670","name":"Borsodszir\u00e1k"},{"id":"955326","latitude":"48.31666670","longitude":"20.50000000","name":"Borz\u00f3ctanya"},{"id":"955327","latitude":"48.31666670","longitude":"20.50000000","name":"Borz\u00f3cztanya"},{"id":"955330","latitude":"47.78333330","longitude":"21.00000000","name":"Borzostanya"},{"id":"955346","latitude":"48.21666670","longitude":"20.40000000","name":"B\u00f3ta"},{"id":"955353","latitude":"48.48333330","longitude":"21.61666670","name":"Botkatanya"},{"id":"955354","latitude":"48.31666670","longitude":"21.58333330","name":"Botkoalj"},{"id":"955370","latitude":"48.46666670","longitude":"21.46666670","name":"B\u00f3zsva"},{"id":"955371","latitude":"48.31666670","longitude":"20.88333330","name":"B\u00f3zsvapuszta"},{"id":"955372","latitude":"48.31666670","longitude":"20.88333330","name":"B\u00f3zsva-tanya"},{"id":"955387","latitude":"48.31666670","longitude":"21.58333330","name":"Brodroghal\u00e1sz"},{"id":"955408","latitude":"48.11666670","longitude":"20.28333330","name":"Budaberkepuszta"},{"id":"955418","latitude":"48.30000000","longitude":"21.95000000","name":"Budahomok"},{"id":"955419","latitude":"48.30000000","longitude":"21.95000000","name":"Buda Homok Tanya"},{"id":"955432","latitude":"48.36666670","longitude":"20.45000000","name":"Budav\u00f6lgyi Tanya"},{"id":"955438","latitude":"48.38333330","longitude":"20.71666670","name":"B\u00fcd\u00f6sk\u00fatpuszta"},{"id":"955453","latitude":"48.36666670","longitude":"22.00000000","name":"Buglyoska"},{"id":"955456","latitude":"48.13333330","longitude":"20.86666670","name":"Bugyikos"},{"id":"955465","latitude":"48.25000000","longitude":"20.26666670","name":"Bujatanya"},{"id":"955470","latitude":"47.88333330","longitude":"20.68333330","name":"B\u00fckk\u00e1br\u00e1ny"},{"id":"955471","latitude":"47.98333330","longitude":"20.78333330","name":"B\u00fckkaranyos"},{"id":"955474","latitude":"48.13333330","longitude":"20.36666670","name":"B\u00fckkmogyor\u00f3sd"},{"id":"955480","latitude":"48.06666670","longitude":"20.63333330","name":"B\u00fckkszentkereszt"},{"id":"955484","latitude":"47.96666670","longitude":"20.50000000","name":"B\u00fckkzs\u00e9rc"},{"id":"955485","latitude":"48.30000000","longitude":"20.91666670","name":"Buksz\u00e1rtanya"},{"id":"955487","latitude":"47.68333330","longitude":"20.81666670","name":"Bul\u00e1tpuszta"},{"id":"955496","latitude":"48.21666670","longitude":"21.15000000","name":"Buritanya"},{"id":"955509","latitude":"47.88333330","longitude":"20.68333330","name":"B\u00faszermalom"},{"id":"955514","latitude":"48.48333330","longitude":"21.01666670","name":"B\u00fctt\u00f6s"},{"id":"955515","latitude":"48.48333330","longitude":"21.05000000","name":"B\u00fctt\u00f6slyuba"},{"id":"955525","latitude":"47.80000000","longitude":"20.86666670","name":"Buz\u00e1stanya"},{"id":"955534","latitude":"47.83333330","longitude":"20.70000000","name":"B\u00faztanya"},{"id":"955540","latitude":"48.20000000","longitude":"21.73333330","name":"C\u00e9dulah\u00e1z"},{"id":"955552","latitude":"48.28333330","longitude":"21.21666670","name":"Cekeh\u00e1za"},{"id":"955557","latitude":"48.21666670","longitude":"20.30000000","name":"Center"},{"id":"955568","latitude":"48.21666670","longitude":"20.50000000","name":"Chorintelep"},{"id":"955588","latitude":"48.25000000","longitude":"21.90000000","name":"Cig\u00e1nd"},{"id":"955596","latitude":"48.55000000","longitude":"21.46666670","name":"Cig\u00e1nysor"},{"id":"955611","latitude":"48.15000000","longitude":"21.26666670","name":"Cinderitanya"},{"id":"955616","latitude":"48.43333330","longitude":"20.66666670","name":"Cineg\u00e9s Puszta"},{"id":"955617","latitude":"47.76666670","longitude":"21.05000000","name":"Cinegetanya"},{"id":"955625","latitude":"47.68333330","longitude":"20.86666670","name":"Cinner"},{"id":"955631","latitude":"48.31666670","longitude":"21.58333330","name":"Cirk\u00e1l\u00f3"},{"id":"955634","latitude":"48.31666670","longitude":"21.58333330","name":"Cir\u00f3ka"},{"id":"955675","latitude":"48.15000000","longitude":"21.26666670","name":"Csakanyszollo"},{"id":"955685","latitude":"48.25000000","longitude":"20.26666670","name":"Cs\u00e1ktanya"},{"id":"955747","latitude":"47.98333330","longitude":"20.78333330","name":"Cs\u00e1rda"},{"id":"955791","latitude":"48.31666670","longitude":"20.70000000","name":"Cs\u00e1szta"},{"id":"955794","latitude":"48.31666670","longitude":"20.70000000","name":"Cs\u00e1sztapuszta"},{"id":"955817","latitude":"48.33333330","longitude":"21.75000000","name":"Csatorna"},{"id":"955841","latitude":"48.43333330","longitude":"20.75000000","name":"Csehipuszta"},{"id":"955849","latitude":"48.36666670","longitude":"21.98333330","name":"Cs\u00e9ke"},{"id":"955856","latitude":"48.13333330","longitude":"21.35000000","name":"Csekotanya"},{"id":"955878","latitude":"48.11666670","longitude":"21.31666670","name":"Csendestanya"},{"id":"955895","latitude":"48.43333330","longitude":"21.05000000","name":"Cseny\u00e9te"},{"id":"955901","latitude":"48.30000000","longitude":"20.38333330","name":"Cs\u00e9p\u00e1nyberektanya"},{"id":"955902","latitude":"48.30000000","longitude":"20.38333330","name":"Cs\u00e9p\u00e1nyberki-tanya"},{"id":"955911","latitude":"47.88333330","longitude":"20.68333330","name":"Csepreghytanya"},{"id":"955925","latitude":"48.26666670","longitude":"22.03333330","name":"Cserdulokerulohaz"},{"id":"955930","latitude":"48.31666670","longitude":"21.58333330","name":"Cseredulo"},{"id":"955948","latitude":"47.93333330","longitude":"20.53333330","name":"Cser\u00e9pfalu"},{"id":"955950","latitude":"48.46666670","longitude":"21.61666670","name":"Cser\u00e9pt\u00f3"},{"id":"955952","latitude":"47.93333330","longitude":"20.56666670","name":"Cser\u00e9pv\u00e1ralja"},{"id":"955955","latitude":"48.30000000","longitude":"20.70000000","name":"Cserestanya"},{"id":"955957","latitude":"48.18333330","longitude":"20.61666670","name":"Cserestelep"},{"id":"956023","latitude":"48.15000000","longitude":"20.35000000","name":"Csernely"},{"id":"956058","latitude":"48.31666670","longitude":"21.58333330","name":"Csetehomok"},{"id":"956066","latitude":"47.73333330","longitude":"20.86666670","name":"Csetrengtanya"},{"id":"956104","latitude":"48.36666670","longitude":"21.03333330","name":"Csihontanya"},{"id":"956145","latitude":"48.11666670","longitude":"21.13333330","name":"Csillagharangod"},{"id":"956174","latitude":"47.88333330","longitude":"20.76666670","name":"Csincsetanya"},{"id":"956175","latitude":"47.88333330","longitude":"20.76666670","name":"Csincse-tany\u00e1k"},{"id":"956197","latitude":"47.96666670","longitude":"20.50000000","name":"Csirkeb\u00e9rc"},{"id":"956209","latitude":"48.28333330","longitude":"21.03333330","name":"Csob\u00e1d"},{"id":"956211","latitude":"48.05000000","longitude":"21.35000000","name":"Csobaj"},{"id":"956244","latitude":"48.23333330","longitude":"20.91666670","name":"Cs\u00f3k\u00e1stanya"},{"id":"956258","latitude":"48.16666670","longitude":"20.38333330","name":"Csokvaom\u00e1ny"},{"id":"956273","latitude":"47.78333330","longitude":"20.93333330","name":"Csomar\u00e9vtanya"},{"id":"956276","latitude":"47.78333330","longitude":"21.00000000","name":"Csomatanya"},{"id":"956282","latitude":"48.21666670","longitude":"20.65000000","name":"Csom\u00f3patakitanya"},{"id":"956329","latitude":"48.15000000","longitude":"20.35000000","name":"Csorbatanya"},{"id":"956390","latitude":"48.26666670","longitude":"20.58333330","name":"Csuk\u00e1st\u00f3tanya"},{"id":"956397","latitude":"48.25000000","longitude":"20.26666670","name":"Csurdatanya"},{"id":"956408","latitude":"48.11666670","longitude":"21.41666670","name":"Csurg\u00f3k\u00f6z"},{"id":"956414","latitude":"48.11666670","longitude":"20.91666670","name":"Cs\u00fcrjetanya"},{"id":"956429","latitude":"48.15000000","longitude":"21.15000000","name":"Czectanya"},{"id":"956433","latitude":"48.28333330","longitude":"21.21666670","name":"Czekeh\u00e1za"},{"id":"956434","latitude":"48.40000000","longitude":"20.81666670","name":"Czekeh\u00e1zymajor"},{"id":"956469","latitude":"48.31666670","longitude":"20.83333330","name":"Damak"},{"id":"956470","latitude":"48.36666670","longitude":"22.03333330","name":"D\u00e1m\u00f3c"},{"id":"956504","latitude":"47.78333330","longitude":"21.00000000","name":"Dargaitanya"},{"id":"956515","latitude":"48.45000000","longitude":"21.01666670","name":"Darusz\u00e1ll\u00e1s"},{"id":"956518","latitude":"48.36666670","longitude":"22.06666670","name":"Darvas"},{"id":"956522","latitude":"48.15000000","longitude":"20.90000000","name":"Darvastanya"},{"id":"956542","latitude":"48.50000000","longitude":"20.86666670","name":"Debr\u00e9te"},{"id":"956548","latitude":"48.18333330","longitude":"20.50000000","name":"D\u00e9des"},{"id":"956551","latitude":"48.18333330","longitude":"20.48333330","name":"D\u00e9destapolcs\u00e1ny"},{"id":"956552","latitude":"48.28333330","longitude":"20.91666670","name":"De\u00e9rh\u00e1za"},{"id":"956576","latitude":"48.40000000","longitude":"20.43333330","name":"Demeterpuszta"},{"id":"956580","latitude":"47.83333330","longitude":"20.78333330","name":"Demj\u00e9ntanya"},{"id":"956587","latitude":"48.18333330","longitude":"21.11666670","name":"D\u00e9nesmajor"},{"id":"956607","latitude":"48.25000000","longitude":"20.26666670","name":"Derencs\u00e9nyitanya"},{"id":"956608","latitude":"48.55000000","longitude":"20.65000000","name":"Derenk"},{"id":"956618","latitude":"47.81666670","longitude":"20.98333330","name":"Derzstanya"},{"id":"956634","latitude":"48.33333330","longitude":"21.03333330","name":"Detek"},{"id":"956647","latitude":"48.26666670","longitude":"20.90000000","name":"Dezsotanya"},{"id":"956651","latitude":"48.28333330","longitude":"20.90000000","name":"Dich\u00e1za"},{"id":"956652","latitude":"48.26666670","longitude":"20.55000000","name":"Didergotanya"},{"id":"956677","latitude":"48.21666670","longitude":"21.33333330","name":"Di\u00f3s"},{"id":"956693","latitude":"48.21666670","longitude":"20.85000000","name":"Di\u00f3stanya"},{"id":"956705","latitude":"48.15000000","longitude":"21.26666670","name":"Disznoko"},{"id":"956706","latitude":"48.15000000","longitude":"21.26666670","name":"Disznokoszollo"},{"id":"956712","latitude":"48.30000000","longitude":"20.66666670","name":"Diszn\u00f3shorv\u00e1t"},{"id":"956717","latitude":"47.98333330","longitude":"20.78333330","name":"Dobaitanya"},{"id":"956723","latitude":"48.50000000","longitude":"20.71666670","name":"Dob\u00f3d\u00e9l"},{"id":"956724","latitude":"48.11666670","longitude":"21.41666670","name":"Dobodulo"},{"id":"956741","latitude":"47.78333330","longitude":"21.00000000","name":"Dobostanya"},{"id":"956748","latitude":"48.30000000","longitude":"20.95000000","name":"Dobozytanya"},{"id":"956762","latitude":"48.15000000","longitude":"20.21666670","name":"Dobronyapuszta"},{"id":"956763","latitude":"48.15000000","longitude":"20.21666670","name":"Dobronyatanya"},{"id":"956764","latitude":"48.40000000","longitude":"20.55000000","name":"Dobros\u00f3-tanya"},{"id":"956765","latitude":"48.40000000","longitude":"20.55000000","name":"Dobroz\u00f3tanya"},{"id":"956780","latitude":"48.30000000","longitude":"20.73333330","name":"D\u00f6gt\u00e9r"},{"id":"956785","latitude":"48.08333330","longitude":"21.15000000","name":"Doh\u00e1nymajor"},{"id":"956791","latitude":"47.78333330","longitude":"21.00000000","name":"Doh\u00e1nytanya"},{"id":"956795","latitude":"48.41666670","longitude":"21.66666670","name":"D\u00f3kustanya"},{"id":"956806","latitude":"47.88333330","longitude":"20.96666670","name":"Doll\u00e1rtanya"},{"id":"956808","latitude":"48.18333330","longitude":"20.11666670","name":"Domah\u00e1za"},{"id":"956836","latitude":"48.18333330","longitude":"20.26666670","name":"D\u00f3natanya"},{"id":"956845","latitude":"48.00000000","longitude":"20.91666670","name":"D\u00f3ratanya"},{"id":"956849","latitude":"48.15000000","longitude":"21.26666670","name":"Dorg\u00f3"},{"id":"956850","latitude":"48.15000000","longitude":"21.26666670","name":"Dorgoszollo"},{"id":"956851","latitude":"48.26666670","longitude":"21.63333330","name":"Dork\u00f3"},{"id":"956853","latitude":"48.13333330","longitude":"21.35000000","name":"Dornertanya"},{"id":"956872","latitude":"48.35000000","longitude":"20.55000000","name":"D\u00f6v\u00e9ny"},{"id":"956873","latitude":"47.83333330","longitude":"20.70000000","name":"D\u00f6v\u00e9nyitanya"},{"id":"956914","latitude":"48.28333330","longitude":"20.50000000","name":"Dubics\u00e1ny"},{"id":"956976","latitude":"48.23333330","longitude":"20.73333330","name":"Dusnokpuszta"},{"id":"956978","latitude":"48.23333330","longitude":"20.73333330","name":"D\u00fazsnokpuszta"},{"id":"956980","latitude":"48.05000000","longitude":"20.96666670","name":"Duzzaszt\u00f3-telep"},{"id":"957007","latitude":"48.30000000","longitude":"20.73333330","name":"Edel\u00e9ny"},{"id":"957023","latitude":"48.31666670","longitude":"21.58333330","name":"Egerditanya"},{"id":"957027","latitude":"47.71666670","longitude":"20.63333330","name":"Egerlovo"},{"id":"957038","latitude":"48.45000000","longitude":"20.58333330","name":"\u00c9gersz\u00f6g"},{"id":"957048","latitude":"47.93333330","longitude":"20.63333330","name":"\u00c9gettmalom"},{"id":"957049","latitude":"47.93333330","longitude":"20.63333330","name":"\u00c9gettmalomtelep"},{"id":"957100","latitude":"48.13333330","longitude":"21.35000000","name":"\u00c9lestanya"},{"id":"957126","latitude":"48.40000000","longitude":"20.85000000","name":"Emmamajor"},{"id":"957132","latitude":"47.93333330","longitude":"20.81666670","name":"Emod"},{"id":"957135","latitude":"48.33333330","longitude":"21.13333330","name":"Encs"},{"id":"957161","latitude":"47.75000000","longitude":"20.86666670","name":"Eperjestanya"},{"id":"957179","latitude":"48.26666670","longitude":"21.36666670","name":"Erdobenye"},{"id":"957201","latitude":"48.31666670","longitude":"21.43333330","name":"Erdohorvati"},{"id":"957224","latitude":"48.18333330","longitude":"21.06666670","name":"Erdotanya"},{"id":"957281","latitude":"48.21666670","longitude":"20.71666670","name":"Erzs\u00e9betb\u00e1nyatelep"},{"id":"957289","latitude":"48.26666670","longitude":"21.85000000","name":"Erzs\u00e9betmajor"},{"id":"957307","latitude":"48.05000000","longitude":"20.85000000","name":"Erzs\u00e9bettanya"},{"id":"957326","latitude":"48.40000000","longitude":"21.66666670","name":"Eszt\u00e1ra"},{"id":"957328","latitude":"48.40000000","longitude":"21.66666670","name":"Eszt\u00e1va"},{"id":"957333","latitude":"48.28333330","longitude":"21.53333330","name":"Eszterg\u00e1lyhomok"},{"id":"957341","latitude":"47.93333330","longitude":"20.75000000","name":"Esztertanya"},{"id":"957358","latitude":"48.35000000","longitude":"22.08333330","name":"\u00c9vatanya"},{"id":"957372","latitude":"48.18333330","longitude":"21.00000000","name":"F\u00e1bi\u00e1ntanya"},{"id":"957387","latitude":"48.41666670","longitude":"21.08333330","name":"F\u00e1j"},{"id":"957413","latitude":"48.35000000","longitude":"21.06666670","name":"Fancsa"},{"id":"957414","latitude":"48.35000000","longitude":"21.06666670","name":"Fancsal"},{"id":"957415","latitude":"48.35000000","longitude":"21.06666670","name":"Fancsali Tanya"},{"id":"957424","latitude":"48.11666670","longitude":"21.18333330","name":"Fany\u00f3tanya"},{"id":"957454","latitude":"48.18333330","longitude":"20.31666670","name":"Farkaslyuk B\u00e1nyatelep"},{"id":"957455","latitude":"48.18333330","longitude":"20.31666670","name":"Farkaslyuk"},{"id":"957456","latitude":"48.18333330","longitude":"20.31666670","name":"Farkaslyuki B\u00e1nyatelep"},{"id":"957463","latitude":"47.78333330","longitude":"20.81666670","name":"Farkastanya"},{"id":"957481","latitude":"47.78333330","longitude":"21.00000000","name":"F\u00e1s\u00e9rtanya"},{"id":"957484","latitude":"48.26666670","longitude":"21.45000000","name":"Fatelep"},{"id":"957491","latitude":"47.80000000","longitude":"20.81666670","name":"F\u00e1ytanya"},{"id":"957498","latitude":"48.31666670","longitude":"20.93333330","name":"Fecsketanya"},{"id":"957500","latitude":"48.46666670","longitude":"21.61666670","name":"Fedormalom"},{"id":"957501","latitude":"48.10000000","longitude":"21.38333330","name":"Fegyverestanya"},{"id":"957514","latitude":"47.71666670","longitude":"20.81666670","name":"Feh\u00e9rl\u00f3cs\u00e1rda"},{"id":"957515","latitude":"47.71666670","longitude":"20.81666670","name":"Feh\u00e9rl\u00f3puszta"},{"id":"957525","latitude":"48.18333330","longitude":"21.23333330","name":"Feh\u00e9rt\u00f3i Tanya"},{"id":"957526","latitude":"48.18333330","longitude":"21.23333330","name":"Feh\u00e9rt\u00f3-tanya"},{"id":"957534","latitude":"48.10000000","longitude":"21.31666670","name":"Fejo"},{"id":"957535","latitude":"48.10000000","longitude":"21.31666670","name":"Fejotanya"},{"id":"957559","latitude":"48.38333330","longitude":"21.61666670","name":"Feketehegy"},{"id":"957576","latitude":"47.83333330","longitude":"20.70000000","name":"Feketetanya"},{"id":"957600","latitude":"47.88333330","longitude":"20.68333330","name":"Felsoabrany"},{"id":"957611","latitude":"48.21666670","longitude":"20.71666670","name":"Felsobanya"},{"id":"957619","latitude":"48.36666670","longitude":"21.70000000","name":"Felsoberecki"},{"id":"957638","latitude":"48.36666670","longitude":"21.20000000","name":"Felsocece"},{"id":"957661","latitude":"48.26666670","longitude":"21.06666670","name":"Felsodobsza"},{"id":"957682","latitude":"48.43333330","longitude":"21.01666670","name":"Felsogagy"},{"id":"957687","latitude":"48.15000000","longitude":"21.15000000","name":"Felsogilip"},{"id":"957727","latitude":"48.23333330","longitude":"20.30000000","name":"Felsokaru"},{"id":"957730","latitude":"48.56666670","longitude":"21.35000000","name":"Felsokeked"},{"id":"957731","latitude":"48.36666670","longitude":"20.60000000","name":"Felsokelecseny"},{"id":"957771","latitude":"48.36666670","longitude":"21.15000000","name":"Felsomera"},{"id":"957783","latitude":"48.33333330","longitude":"20.60000000","name":"Felsonyarad"},{"id":"957823","latitude":"48.48333330","longitude":"21.61666670","name":"Felsoregmec"},{"id":"957824","latitude":"47.95000000","longitude":"20.66666670","name":"Felsoret"},{"id":"957875","latitude":"48.41666670","longitude":"20.45000000","name":"Felso-Szuha"},{"id":"957893","latitude":"48.40000000","longitude":"20.63333330","name":"Felsotelekes"},{"id":"957907","latitude":"48.36666670","longitude":"20.93333330","name":"Felsovadasz"},{"id":"957917","latitude":"48.10000000","longitude":"20.86666670","name":"Felsozsolca"},{"id":"957927","latitude":"47.75000000","longitude":"20.81666670","name":"Fendudatanya"},{"id":"957968","latitude":"47.98333330","longitude":"20.78333330","name":"Ferencitanya"},{"id":"957973","latitude":"48.36666670","longitude":"20.60000000","name":"Ferencmajor"},{"id":"958014","latitude":"48.11666670","longitude":"20.96666670","name":"Fesustanya"},{"id":"958029","latitude":"48.50000000","longitude":"21.50000000","name":"Filkeh\u00e1za"},{"id":"958030","latitude":"48.26666670","longitude":"20.68333330","name":"Filk\u00f3h\u00e1zitanya"},{"id":"958036","latitude":"48.28333330","longitude":"20.75000000","name":"Finke"},{"id":"958037","latitude":"48.28333330","longitude":"20.76666670","name":"Finkei Tanya"},{"id":"958060","latitude":"47.83333330","longitude":"20.70000000","name":"Fodortanya"},{"id":"958112","latitude":"48.28333330","longitude":"20.58333330","name":"Folyofulapa"},{"id":"958118","latitude":"48.40000000","longitude":"21.30000000","name":"Fony"},{"id":"958150","latitude":"48.30000000","longitude":"20.43333330","name":"Forr\u00e1sv\u00f6lgy"},{"id":"958151","latitude":"47.83333330","longitude":"20.81666670","name":"Forraytanya"},{"id":"958152","latitude":"48.31666670","longitude":"21.08333330","name":"Forr\u00f3"},{"id":"958154","latitude":"48.31666670","longitude":"21.58333330","name":"Forr\u00f3k\u00fat"},{"id":"958177","latitude":"47.86666670","longitude":"20.88333330","name":"Fridmantanya"},{"id":"958191","latitude":"48.38333330","longitude":"21.68333330","name":"Fuchstanya"},{"id":"958198","latitude":"48.35000000","longitude":"21.93333330","name":"F\u00fcgeditanya"},{"id":"958200","latitude":"48.33333330","longitude":"21.13333330","name":"F\u00fcg\u00f6d"},{"id":"958212","latitude":"48.43333330","longitude":"21.11666670","name":"Ful\u00f3k\u00e9rcs"},{"id":"958225","latitude":"47.90000000","longitude":"20.60000000","name":"F\u00fcl\u00f6ptanya"},{"id":"958233","latitude":"48.23333330","longitude":"21.23333330","name":"Furdosdulo"},{"id":"958234","latitude":"48.35000000","longitude":"21.55000000","name":"Furdos"},{"id":"958236","latitude":"48.21666670","longitude":"21.55000000","name":"Furdotanya"},{"id":"958238","latitude":"48.23333330","longitude":"21.35000000","name":"Furdotelep"},{"id":"958252","latitude":"48.21666670","longitude":"20.80000000","name":"F\u00fcrjestanya"},{"id":"958262","latitude":"48.48333330","longitude":"21.06666670","name":"F\u00fcrt\u00f6slyuba"},{"id":"958273","latitude":"48.55000000","longitude":"21.46666670","name":"F\u00fcz\u00e9r"},{"id":"958274","latitude":"48.51666670","longitude":"21.50000000","name":"F\u00fcz\u00e9rkajata"},{"id":"958275","latitude":"48.51666670","longitude":"21.46666670","name":"F\u00fcz\u00e9rkoml\u00f3s"},{"id":"958276","latitude":"48.48333330","longitude":"21.53333330","name":"F\u00fcz\u00e9rradv\u00e1ny"},{"id":"958284","latitude":"48.08333330","longitude":"21.35000000","name":"F\u00fczes\u00e9r"},{"id":"958288","latitude":"48.20000000","longitude":"21.66666670","name":"F\u00fczes"},{"id":"958292","latitude":"48.20000000","longitude":"21.66666670","name":"F\u00fczestanya"},{"id":"958298","latitude":"47.81666670","longitude":"20.70000000","name":"Fuzfasmalom"},{"id":"958329","latitude":"48.05000000","longitude":"21.08333330","name":"Gabriella"},{"id":"958330","latitude":"48.05000000","longitude":"21.08333330","name":"Gabriellatanya"},{"id":"958334","latitude":"47.83333330","longitude":"20.70000000","name":"Gacs\u00f3tanya"},{"id":"958337","latitude":"48.40000000","longitude":"20.93333330","name":"Gadna"},{"id":"958339","latitude":"48.05000000","longitude":"20.85000000","name":"Gad\u00f3tanya"},{"id":"958341","latitude":"48.41666670","longitude":"21.00000000","name":"Gagyap\u00e1ti"},{"id":"958342","latitude":"48.43333330","longitude":"20.95000000","name":"Gagyb\u00e1tor"},{"id":"958343","latitude":"48.43333330","longitude":"20.98333330","name":"Gagyvend\u00e9gi"},{"id":"958350","latitude":"47.86666670","longitude":"20.81666670","name":"Gajlatanya"},{"id":"958371","latitude":"48.15000000","longitude":"21.26666670","name":"Galambostanya"},{"id":"958381","latitude":"48.20000000","longitude":"21.66666670","name":"Galg\u00f3czitanya"},{"id":"958394","latitude":"47.83333330","longitude":"20.70000000","name":"G\u00e1ltanya"},{"id":"958402","latitude":"48.41666670","longitude":"20.78333330","name":"Galv\u00e1cs"},{"id":"958417","latitude":"48.41666670","longitude":"21.18333330","name":"Garadna"},{"id":"958419","latitude":"48.36666670","longitude":"20.73333330","name":"Garadnapusza"},{"id":"958420","latitude":"48.36666670","longitude":"20.73333330","name":"Garadnapuszta"},{"id":"958425","latitude":"47.78333330","longitude":"21.00000000","name":"Garastanya"},{"id":"958427","latitude":"48.31666670","longitude":"21.80000000","name":"Garatka"},{"id":"958439","latitude":"48.15000000","longitude":"20.35000000","name":"G\u00e1rdonytanya"},{"id":"958455","latitude":"48.33333330","longitude":"21.65000000","name":"Gatorhaz"},{"id":"958456","latitude":"48.33333330","longitude":"21.65000000","name":"Gatorlak"},{"id":"958473","latitude":"48.33333330","longitude":"20.60000000","name":"Gecsetanya"},{"id":"958490","latitude":"47.83333330","longitude":"20.78333330","name":"Gelej"},{"id":"958565","latitude":"48.10000000","longitude":"20.96666670","name":"Gesztely"},{"id":"958584","latitude":"48.33333330","longitude":"21.13333330","name":"Gib\u00e1rt"},{"id":"958596","latitude":"47.96666670","longitude":"20.98333330","name":"Girincs"},{"id":"958633","latitude":"47.96666670","longitude":"20.61666670","name":"G\u00f6d\u00f6rmalom"},{"id":"958654","latitude":"48.23333330","longitude":"21.20000000","name":"Golop"},{"id":"958658","latitude":"47.76666670","longitude":"20.83333330","name":"G\u00f3ly\u00e1stanya"},{"id":"958670","latitude":"47.88333330","longitude":"20.78333330","name":"Gombatanya"},{"id":"958676","latitude":"47.90000000","longitude":"20.50000000","name":"G\u00f6mb\u00f6sfalva"},{"id":"958681","latitude":"48.38333330","longitude":"20.43333330","name":"Gomorszollos"},{"id":"958682","latitude":"48.38333330","longitude":"20.43333330","name":"Gomorszolos"},{"id":"958683","latitude":"48.46666670","longitude":"21.28333330","name":"G\u00f6nc"},{"id":"958684","latitude":"48.45000000","longitude":"21.25000000","name":"G\u00f6ncruszka"},{"id":"958745","latitude":"48.41666670","longitude":"20.80000000","name":"G\u00f6r\u00f6gtanya"},{"id":"958758","latitude":"48.25000000","longitude":"21.83333330","name":"Gors\u00f3tanya"},{"id":"958759","latitude":"47.81666670","longitude":"20.91666670","name":"Gorza"},{"id":"958791","latitude":"47.83333330","longitude":"20.70000000","name":"Gr\u00f3ftanya"},{"id":"958800","latitude":"48.20000000","longitude":"20.26666670","name":"Gubanapuszta"},{"id":"958806","latitude":"48.20000000","longitude":"20.26666670","name":"Gubonnapuszta"},{"id":"958814","latitude":"48.31666670","longitude":"21.58333330","name":"Gulyalegelodulo"},{"id":"958815","latitude":"48.31666670","longitude":"21.58333330","name":"Gulyalegelo"},{"id":"958822","latitude":"48.18333330","longitude":"20.26666670","name":"G\u00fan\u00e1rtanya"},{"id":"958825","latitude":"48.48333330","longitude":"21.40000000","name":"G\u00fanyak\u00fat"},{"id":"958826","latitude":"48.48333330","longitude":"21.40000000","name":"Gunyamajor"},{"id":"958877","latitude":"48.11666670","longitude":"20.91666670","name":"Gy\u00e1rv\u00e1s"},{"id":"958884","latitude":"47.81666670","longitude":"20.73333330","name":"Gy\u00e9k\u00e9nyestanya"},{"id":"958931","latitude":"48.05000000","longitude":"20.91666670","name":"Gyomroi Tanya"},{"id":"958965","latitude":"48.20000000","longitude":"21.66666670","name":"Gyorgyhomokdulo"},{"id":"958972","latitude":"47.98333330","longitude":"21.06666670","name":"Gy\u00f6rgymajor"},{"id":"958980","latitude":"48.20000000","longitude":"21.66666670","name":"Gy\u00f6rgytarl\u00f3"},{"id":"959070","latitude":"47.81666670","longitude":"20.91666670","name":"Gyurk\u00f3"},{"id":"959101","latitude":"48.18333330","longitude":"20.66666670","name":"Hagym\u00e1sb\u00e9rc"},{"id":"959102","latitude":"48.18333330","longitude":"20.66666670","name":"Hagym\u00e1sb\u00e9rcitelep"},{"id":"959128","latitude":"47.83333330","longitude":"20.70000000","name":"Hajdutanya"},{"id":"959141","latitude":"48.30000000","longitude":"20.88333330","name":"Hajnalostanya"},{"id":"959170","latitude":"48.40000000","longitude":"21.66666670","name":"Halaskadulo"},{"id":"959172","latitude":"48.31666670","longitude":"21.58333330","name":"Halastodulo"},{"id":"959175","latitude":"47.96666670","longitude":"20.75000000","name":"Halast\u00f3"},{"id":"959194","latitude":"48.31666670","longitude":"21.63333330","name":"Hal\u00e1szhomok"},{"id":"959221","latitude":"48.31666670","longitude":"21.58333330","name":"H\u00e1listendomb"},{"id":"959224","latitude":"48.25000000","longitude":"21.00000000","name":"Halmaj"},{"id":"959244","latitude":"48.21666670","longitude":"21.51666670","name":"Hanalyatanya"},{"id":"959245","latitude":"48.18333330","longitude":"20.65000000","name":"Hancatelep"},{"id":"959249","latitude":"48.30000000","longitude":"20.83333330","name":"Hang\u00e1cs"},{"id":"959253","latitude":"48.23333330","longitude":"20.20000000","name":"Hangony"},{"id":"959277","latitude":"48.53333330","longitude":"20.51666670","name":"Haragistya"},{"id":"959280","latitude":"48.13333330","longitude":"21.08333330","name":"Harangod"},{"id":"959327","latitude":"48.23333330","longitude":"21.78333330","name":"Hark\u00f3itany\u00e1k"},{"id":"959357","latitude":"48.30000000","longitude":"20.43333330","name":"H\u00e1romh\u00e1z"},{"id":"959364","latitude":"48.38333330","longitude":"21.43333330","name":"H\u00e1romhuta"},{"id":"959373","latitude":"47.96666670","longitude":"20.75000000","name":"Hars\u00e1ny"},{"id":"959380","latitude":"48.50000000","longitude":"21.28333330","name":"H\u00e1rsasimalom"},{"id":"959405","latitude":"48.23333330","longitude":"21.78333330","name":"Hat\u00e1rsz\u00e9l"},{"id":"959406","latitude":"48.23333330","longitude":"21.78333330","name":"Hat\u00e1rsz\u00e9li \u00dajtelep"},{"id":"959407","latitude":"48.36666670","longitude":"21.95000000","name":"Hat\u00e1rtanya"},{"id":"959455","latitude":"48.31666670","longitude":"22.05000000","name":"Hecske"},{"id":"959464","latitude":"48.21666670","longitude":"20.80000000","name":"Hegedustanya"},{"id":"959516","latitude":"48.33333330","longitude":"20.86666670","name":"Hegymeg"},{"id":"959528","latitude":"48.43333330","longitude":"21.28333330","name":"Hejce"},{"id":"959529","latitude":"47.90000000","longitude":"20.95000000","name":"Hejobaba"},{"id":"959531","latitude":"47.96666670","longitude":"20.88333330","name":"Hejokeresztur"},{"id":"959532","latitude":"47.86666670","longitude":"21.00000000","name":"Hejokurt"},{"id":"959533","latitude":"47.90000000","longitude":"20.91666670","name":"Hejopapi"},{"id":"959534","latitude":"47.93333330","longitude":"20.88333330","name":"Hejoszalonta"},{"id":"959557","latitude":"48.23333330","longitude":"20.60000000","name":"Herbolyab\u00e1nya"},{"id":"959558","latitude":"48.26666670","longitude":"20.63333330","name":"Herbolya\u00fajtelep"},{"id":"959561","latitude":"48.33333330","longitude":"21.53333330","name":"Hercegk\u00fat"},{"id":"959567","latitude":"47.95000000","longitude":"20.93333330","name":"Hercegtanya"},{"id":"959574","latitude":"47.68333330","longitude":"20.90000000","name":"Herebtanya"},{"id":"959602","latitude":"48.30000000","longitude":"21.13333330","name":"Hernadbud"},{"id":"959603","latitude":"48.35000000","longitude":"21.20000000","name":"Hern\u00e1dc\u00e9ce"},{"id":"959606","latitude":"48.08333330","longitude":"20.96666670","name":"Hern\u00e1dkak"},{"id":"959607","latitude":"48.25000000","longitude":"21.05000000","name":"Hern\u00e1dk\u00e9rcs"},{"id":"959608","latitude":"48.06666670","longitude":"20.98333330","name":"Hern\u00e1dn\u00e9meti"},{"id":"959609","latitude":"48.48333330","longitude":"21.16666670","name":"Hern\u00e1dpetri"},{"id":"959610","latitude":"48.28333330","longitude":"21.10000000","name":"Hern\u00e1dszentandr\u00e1s"},{"id":"959611","latitude":"48.48333330","longitude":"21.21666670","name":"Hern\u00e1dszurdok"},{"id":"959612","latitude":"48.45000000","longitude":"21.16666670","name":"Hern\u00e1dv\u00e9cse"},{"id":"959613","latitude":"48.48333330","longitude":"21.21666670","name":"Hern\u00e1dzsurdok"},{"id":"959636","latitude":"48.28333330","longitude":"20.38333330","name":"H\u00e9t"},{"id":"959637","latitude":"48.11666670","longitude":"21.41666670","name":"Hetszollo"},{"id":"959638","latitude":"48.11666670","longitude":"21.41666670","name":"Hetszolo"},{"id":"959658","latitude":"48.50000000","longitude":"21.23333330","name":"Hidasn\u00e9meti"},{"id":"959663","latitude":"48.23333330","longitude":"21.23333330","name":"Hidegk\u00fat"},{"id":"959671","latitude":"48.31666670","longitude":"21.11666670","name":"Hidegoltv\u00e1nyos"},{"id":"959672","latitude":"47.95000000","longitude":"20.53333330","name":"Hidegpataka"},{"id":"959673","latitude":"47.95000000","longitude":"20.53333330","name":"Hidegpatak"},{"id":"959677","latitude":"48.30000000","longitude":"20.88333330","name":"Hidegv\u00f6lgytanya"},{"id":"959686","latitude":"48.56666670","longitude":"20.85000000","name":"Hidv\u00e9gard\u00f3"},{"id":"959716","latitude":"48.21666670","longitude":"20.30000000","name":"Hodoscs\u00e9p\u00e1ny"},{"id":"959742","latitude":"48.23333330","longitude":"21.78333330","name":"Holecsk\u00f3tanya"},{"id":"959743","latitude":"48.23333330","longitude":"21.78333330","name":"Holecsk\u00f3tany\u00e1k"},{"id":"959745","latitude":"48.55000000","longitude":"21.41666670","name":"Holl\u00f3h\u00e1za"},{"id":"959749","latitude":"48.06666670","longitude":"20.60000000","name":"Hollosteto"},{"id":"959750","latitude":"48.06666670","longitude":"20.60000000","name":"Hollostetoi Menedekhaz"},{"id":"959816","latitude":"48.28333330","longitude":"20.91666670","name":"Homrogd"},{"id":"959852","latitude":"47.68333330","longitude":"20.86666670","name":"Horv\u00e1th-f\u00e9le Tanya"},{"id":"959857","latitude":"47.75000000","longitude":"20.61666670","name":"Horv\u00e1thtanya"},{"id":"959920","latitude":"47.96666670","longitude":"20.50000000","name":"Hossz\u00fav\u00f6lgy"},{"id":"959932","latitude":"48.30000000","longitude":"20.66666670","name":"Hubaytanya"},{"id":"959933","latitude":"48.30000000","longitude":"20.66666670","name":"Hubaytelep"},{"id":"959941","latitude":"48.26666670","longitude":"20.63333330","name":"Hujadulo"},{"id":"959956","latitude":"48.31666670","longitude":"21.16666670","name":"Huppontanya"},{"id":"959968","latitude":"47.86666670","longitude":"20.78333330","name":"Husztitanya"},{"id":"959970","latitude":"47.86666670","longitude":"20.78333330","name":"Huszty-tanya"},{"id":"959974","latitude":"48.18333330","longitude":"21.38333330","name":"Huzadulo"},{"id":"959985","latitude":"48.11666670","longitude":"21.05000000","name":"Idatanya"},{"id":"960004","latitude":"47.81666670","longitude":"20.91666670","name":"Ig\u00f3tanya"},{"id":"960006","latitude":"47.86666670","longitude":"20.88333330","name":"Igrici"},{"id":"960027","latitude":"48.36666670","longitude":"21.03333330","name":"Ilkah\u00e1za"},{"id":"960036","latitude":"48.21666670","longitude":"21.03333330","name":"Ill\u00e9sytanya"},{"id":"960056","latitude":"48.48333330","longitude":"21.08333330","name":"Ilonatanya"},{"id":"960061","latitude":"48.13333330","longitude":"21.35000000","name":"Ilosvaitanya"},{"id":"960063","latitude":"48.41666670","longitude":"20.55000000","name":"Imola"},{"id":"960075","latitude":"48.28333330","longitude":"21.06666670","name":"In\u00e1ncs"},{"id":"960082","latitude":"47.96666670","longitude":"21.11666670","name":"In\u00e9rh\u00e1ttanya"},{"id":"960101","latitude":"48.46666670","longitude":"21.50000000","name":"Ipartelep"},{"id":"960122","latitude":"47.90000000","longitude":"20.65000000","name":"Irmatanya"},{"id":"960126","latitude":"48.40000000","longitude":"20.88333330","name":"Irota"},{"id":"960135","latitude":"48.23333330","longitude":"20.51666670","name":"\u00cdrt\u00e1stanya"},{"id":"960165","latitude":"47.90000000","longitude":"20.83333330","name":"Istv\u00e1nmajor"},{"id":"960176","latitude":"48.00000000","longitude":"20.91666670","name":"Istv\u00e1ntanya"},{"id":"960195","latitude":"48.13333330","longitude":"21.35000000","name":"Iv\u00e1ncs\u00f3tanya"},{"id":"960204","latitude":"48.15000000","longitude":"20.21666670","name":"Iv\u00e1nkapuszta"},{"id":"960206","latitude":"48.15000000","longitude":"20.21666670","name":"Iv\u00e1nkatanya"},{"id":"960220","latitude":"48.21666670","longitude":"20.58333330","name":"Izbony\u00f3tanya"},{"id":"960224","latitude":"48.15000000","longitude":"20.30000000","name":"Izrapuszta"},{"id":"960225","latitude":"48.15000000","longitude":"20.30000000","name":"Izratanya"},{"id":"960230","latitude":"48.30000000","longitude":"20.66666670","name":"Izs\u00f3falva"},{"id":"960246","latitude":"48.08333330","longitude":"21.10000000","name":"Jajhalom"},{"id":"960264","latitude":"48.33333330","longitude":"20.58333330","name":"J\u00e1kfalva"},{"id":"960302","latitude":"47.85000000","longitude":"20.95000000","name":"J\u00e1nos\u00e9r"},{"id":"960303","latitude":"47.85000000","longitude":"20.95000000","name":"J\u00e1nos\u00e9rtanya"},{"id":"960333","latitude":"48.20000000","longitude":"21.21666670","name":"J\u00e1nostanya"},{"id":"960338","latitude":"48.50000000","longitude":"21.08333330","name":"J\u00e1nosv\u00f6lgy"},{"id":"960347","latitude":"48.15000000","longitude":"20.25000000","name":"J\u00e1rd\u00e1nh\u00e1za"},{"id":"960353","latitude":"48.16666670","longitude":"20.18333330","name":"Jarmokfoi-tanya"},{"id":"960354","latitude":"48.16666670","longitude":"20.18333330","name":"Jarmokfotanya"},{"id":"960357","latitude":"48.16666670","longitude":"20.18333330","name":"Jarnokfoitanya"},{"id":"960414","latitude":"48.31666670","longitude":"21.58333330","name":"Jellatanya"},{"id":"960422","latitude":"48.15000000","longitude":"21.11666670","name":"Jeneytanya"},{"id":"960442","latitude":"47.83333330","longitude":"20.78333330","name":"J\u00f3ciktanya"},{"id":"960455","latitude":"48.23333330","longitude":"21.23333330","name":"J\u00f3nap"},{"id":"960467","latitude":"48.48333330","longitude":"20.56666670","name":"Josvafo"},{"id":"960497","latitude":"47.86666670","longitude":"20.61666670","name":"Jozseforlak"},{"id":"960527","latitude":"48.01666670","longitude":"20.91666670","name":"J\u00faliatanya"},{"id":"960530","latitude":"48.05000000","longitude":"20.85000000","name":"Juliskatanya"},{"id":"960552","latitude":"48.28333330","longitude":"20.61666670","name":"Kacolab\u00e1nya"},{"id":"960553","latitude":"48.28333330","longitude":"20.61666670","name":"Kacola"},{"id":"960554","latitude":"48.28333330","longitude":"20.58333330","name":"Kacolapuszta"},{"id":"960558","latitude":"48.31666670","longitude":"21.58333330","name":"K\u00e1cs\u00e1rd"},{"id":"960563","latitude":"47.95000000","longitude":"20.61666670","name":"K\u00e1cs"},{"id":"960573","latitude":"48.15000000","longitude":"21.03333330","name":"K\u00e1dastanya"},{"id":"960590","latitude":"48.48333330","longitude":"20.56666670","name":"Kajta"},{"id":"960592","latitude":"48.15000000","longitude":"20.36666670","name":"Kakarcs\u00f3tanya"},{"id":"960606","latitude":"48.23333330","longitude":"20.60000000","name":"Kakastanya"},{"id":"960659","latitude":"47.95000000","longitude":"20.60000000","name":"K\u00e1lm\u00e1ntanya"},{"id":"960706","latitude":"48.43333330","longitude":"20.60000000","name":"K\u00e1n\u00f3"},{"id":"960720","latitude":"48.51666670","longitude":"21.01666670","name":"K\u00e1ny"},{"id":"960725","latitude":"48.06666670","longitude":"20.88333330","name":"Kapar\u00f3sitanya"},{"id":"960748","latitude":"48.48333330","longitude":"21.45000000","name":"K\u00e1polna"},{"id":"960756","latitude":"48.48333330","longitude":"21.45000000","name":"K\u00e1polnatanya"},{"id":"960795","latitude":"47.73333330","longitude":"20.93333330","name":"K\u00e1ptalani Kis-tanya"},{"id":"960796","latitude":"47.73333330","longitude":"20.93333330","name":"Kaptalani-tanya"},{"id":"960801","latitude":"47.86666670","longitude":"20.70000000","name":"K\u00e1ptalantanya"},{"id":"960804","latitude":"48.18333330","longitude":"21.13333330","name":"Kapt\u00e1r"},{"id":"960805","latitude":"48.18333330","longitude":"21.13333330","name":"Kapt\u00e1rtanya"},{"id":"960806","latitude":"48.20000000","longitude":"20.30000000","name":"Kapud"},{"id":"960811","latitude":"47.80000000","longitude":"21.05000000","name":"Karacsatanya"},{"id":"960812","latitude":"48.43333330","longitude":"20.91666670","name":"Kar\u00e1csond"},{"id":"960816","latitude":"48.10000000","longitude":"20.23333330","name":"Kar\u00e1csonylovapuszta"},{"id":"960817","latitude":"48.10000000","longitude":"20.23333330","name":"Kar\u00e1csonylovatanya"},{"id":"960853","latitude":"48.11666670","longitude":"21.18333330","name":"K\u00e1r\u00e1sztanya"},{"id":"960862","latitude":"48.31666670","longitude":"21.80000000","name":"Karcsa"},{"id":"960880","latitude":"48.45000000","longitude":"20.80000000","name":"Karolamajor"},{"id":"960888","latitude":"48.40000000","longitude":"21.66666670","name":"K\u00e1rolyfalva"},{"id":"960914","latitude":"48.31666670","longitude":"21.80000000","name":"Karosalatt"},{"id":"960915","latitude":"48.33333330","longitude":"21.75000000","name":"Karos"},{"id":"960925","latitude":"48.20000000","longitude":"20.30000000","name":"Karub\u00e1nya-telep"},{"id":"960926","latitude":"48.20000000","longitude":"20.30000000","name":"Karu"},{"id":"960940","latitude":"48.46666670","longitude":"20.48333330","name":"Kast\u00e9lyk\u00fatitanya"},{"id":"960941","latitude":"48.46666670","longitude":"20.48333330","name":"Kast\u00e9lyk\u00fat-tanya"},{"id":"960945","latitude":"48.20000000","longitude":"21.51666670","name":"Kast\u00e9lytanya"},{"id":"960970","latitude":"48.55000000","longitude":"20.90000000","name":"Katalinmajor"},{"id":"960980","latitude":"48.26666670","longitude":"20.46666670","name":"Katalintanya"},{"id":"960991","latitude":"48.20000000","longitude":"21.73333330","name":"Katonatanya"},{"id":"960999","latitude":"48.35000000","longitude":"21.71666670","name":"Katronytanya"},{"id":"961012","latitude":"48.01666670","longitude":"20.85000000","name":"Kavicsb\u00e1nya"},{"id":"961013","latitude":"48.06666670","longitude":"20.88333330","name":"Kavics-banya"},{"id":"961016","latitude":"48.06666670","longitude":"20.88333330","name":"Kavicsg\u00f6d\u00f6r"},{"id":"961023","latitude":"48.25000000","longitude":"20.63333330","name":"Kazincbarcika"},{"id":"961024","latitude":"48.18333330","longitude":"21.38333330","name":"Kazsaidulo"},{"id":"961025","latitude":"48.28333330","longitude":"20.98333330","name":"K\u00e1zsm\u00e1rk"},{"id":"961034","latitude":"48.46666670","longitude":"21.10000000","name":"Kecerlyuba"},{"id":"961042","latitude":"47.95000000","longitude":"20.63333330","name":"Kecskekomalom"},{"id":"961044","latitude":"47.95000000","longitude":"20.63333330","name":"Kecskekotanya"},{"id":"961046","latitude":"48.21666670","longitude":"20.80000000","name":"Kecskem\u00e9titanya"},{"id":"961061","latitude":"48.21666670","longitude":"20.80000000","name":"Kecsk\u00e9stanya"},{"id":"961073","latitude":"47.78333330","longitude":"21.00000000","name":"K\u00e9keditanya"},{"id":"961074","latitude":"48.55000000","longitude":"21.35000000","name":"K\u00e9ked"},{"id":"961082","latitude":"48.03333330","longitude":"20.71666670","name":"Kekmezo"},{"id":"961091","latitude":"48.35000000","longitude":"20.43333330","name":"Kelem\u00e9r"},{"id":"961111","latitude":"48.45000000","longitude":"21.45000000","name":"Kemencepatak"},{"id":"961112","latitude":"48.45000000","longitude":"21.45000000","name":"Kemencpatak"},{"id":"961155","latitude":"48.31666670","longitude":"21.58333330","name":"Kendersor"},{"id":"961157","latitude":"48.31666670","longitude":"20.93333330","name":"Kendipuszta"},{"id":"961158","latitude":"48.31666670","longitude":"20.93333330","name":"Kenditanya"},{"id":"961163","latitude":"48.20000000","longitude":"21.53333330","name":"Kenezlo"},{"id":"961171","latitude":"48.25000000","longitude":"21.70000000","name":"Kengyeltanya"},{"id":"961178","latitude":"48.31666670","longitude":"21.58333330","name":"Keny\u00e9rv\u00e1ri"},{"id":"961180","latitude":"47.75000000","longitude":"20.81666670","name":"Keny\u00e9rv\u00e1r\u00f3tanya"},{"id":"961189","latitude":"48.28333330","longitude":"20.86666670","name":"K\u00e9rcsik\u00fattanya"},{"id":"961199","latitude":"47.91666670","longitude":"20.63333330","name":"Kerekestanya"},{"id":"961201","latitude":"48.05000000","longitude":"21.35000000","name":"Ker\u00e9kgy\u00e1rt\u00f3tanya"},{"id":"961219","latitude":"48.21666670","longitude":"20.63333330","name":"Kerekr\u00e9titanya"},{"id":"961221","latitude":"48.16666670","longitude":"21.30000000","name":"Kerektanya"},{"id":"961249","latitude":"47.83333330","longitude":"20.70000000","name":"Keresztesp\u00fcsp\u00f6ki"},{"id":"961252","latitude":"48.50000000","longitude":"20.95000000","name":"Kereszt\u00e9te"},{"id":"961259","latitude":"48.26666670","longitude":"21.36666670","name":"Keresztonokdulo"},{"id":"961260","latitude":"48.28333330","longitude":"20.88333330","name":"Keresztpataktanya"},{"id":"961261","latitude":"48.21666670","longitude":"21.51666670","name":"Kereszt\u00faritanya"},{"id":"961307","latitude":"48.26666670","longitude":"22.03333330","name":"Kerulohaz"},{"id":"961319","latitude":"47.81666670","longitude":"20.95000000","name":"Keselyuhalom"},{"id":"961320","latitude":"47.81666670","longitude":"20.95000000","name":"Keselyushalom"},{"id":"961323","latitude":"48.18333330","longitude":"20.26666670","name":"Keserutanya"},{"id":"961338","latitude":"47.96666670","longitude":"21.05000000","name":"Keszny\u00e9ten"},{"id":"961364","latitude":"48.15000000","longitude":"21.26666670","name":"Kettoscsarda"},{"id":"961389","latitude":"48.43333330","longitude":"20.83333330","name":"K\u00edgy\u00f3sz\u00f6gtanya"},{"id":"961398","latitude":"48.35000000","longitude":"20.96666670","name":"Kil\u00f6kitanya"},{"id":"961420","latitude":"48.23333330","longitude":"20.38333330","name":"Kir\u00e1ld B\u00e1nyatelep"},{"id":"961421","latitude":"48.23333330","longitude":"20.38333330","name":"Kir\u00e1ldib\u00e1nya"},{"id":"961422","latitude":"48.25000000","longitude":"20.40000000","name":"Kir\u00e1ld"},{"id":"961429","latitude":"48.15000000","longitude":"20.80000000","name":"Kir\u00e1lyhegy"},{"id":"961431","latitude":"48.41666670","longitude":"20.83333330","name":"Kir\u00e1lyk\u00fat"},{"id":"961440","latitude":"48.15000000","longitude":"21.26666670","name":"Kiralyszollo"},{"id":"961462","latitude":"47.81666670","longitude":"20.73333330","name":"Kisalm\u00e1sytanya"},{"id":"961504","latitude":"48.23333330","longitude":"20.53333330","name":"Kisbarca"},{"id":"961525","latitude":"48.21666670","longitude":"20.40000000","name":"Kisbikk"},{"id":"961536","latitude":"48.46666670","longitude":"21.46666670","name":"Kisb\u00f3zsva"},{"id":"961545","latitude":"48.40000000","longitude":"21.66666670","name":"Kiscepre"},{"id":"961546","latitude":"48.40000000","longitude":"21.66666670","name":"Kiscepre-Nagycepre"},{"id":"961553","latitude":"48.30000000","longitude":"20.73333330","name":"Kiscs\u00e1szta"},{"id":"961554","latitude":"48.30000000","longitude":"20.73333330","name":"Kiscs\u00e1sztatanya"},{"id":"961556","latitude":"47.96666670","longitude":"21.01666670","name":"Kiscs\u00e9cs"},{"id":"961584","latitude":"47.81666670","longitude":"20.98333330","name":"Kisderzs-tanya"},{"id":"961600","latitude":"47.76666670","longitude":"20.80000000","name":"Kisecs\u00e9rtanya"},{"id":"961625","latitude":"48.11666670","longitude":"21.18333330","name":"Kisfaluditanya"},{"id":"961635","latitude":"48.21666670","longitude":"20.80000000","name":"Kisf\u00e1stanya"},{"id":"961646","latitude":"47.81666670","longitude":"20.91666670","name":"Kisgajla"},{"id":"961649","latitude":"48.31666670","longitude":"21.58333330","name":"Kisg\u00e1t"},{"id":"961658","latitude":"47.81666670","longitude":"20.73333330","name":"Kisg\u00f3ly\u00e1stanya"},{"id":"961669","latitude":"47.73333330","longitude":"20.90000000","name":"Kisgy\u00e9k\u00e9nyes"},{"id":"961670","latitude":"47.73333330","longitude":"20.90000000","name":"Kisgy\u00e9k\u00e9nyes-tanya"},{"id":"961678","latitude":"48.01666670","longitude":"20.70000000","name":"Kisgyor"},{"id":"961683","latitude":"48.23333330","longitude":"21.78333330","name":"Kishal\u00e1szitany\u00e1k"},{"id":"961731","latitude":"48.10000000","longitude":"21.36666670","name":"Kishomokos"},{"id":"961732","latitude":"48.10000000","longitude":"21.36666670","name":"Kishomokos K\u00f6zs\u00e9g"},{"id":"961733","latitude":"48.10000000","longitude":"21.36666670","name":"Kishomokostanya"},{"id":"961735","latitude":"48.25000000","longitude":"21.73333330","name":"Kishomoktanya"},{"id":"961738","latitude":"48.30000000","longitude":"20.66666670","name":"Kishorv\u00e1t"},{"id":"961743","latitude":"48.45000000","longitude":"21.48333330","name":"Kishuta"},{"id":"961753","latitude":"47.81666670","longitude":"20.91666670","name":"Kisj\u00e1k\u00f3"},{"id":"961762","latitude":"48.15000000","longitude":"21.26666670","name":"Kiskapi"},{"id":"961779","latitude":"48.26666670","longitude":"21.03333330","name":"Kiskinizsi Malom"},{"id":"961780","latitude":"48.25000000","longitude":"21.05000000","name":"Kiskinizs"},{"id":"961821","latitude":"48.15000000","longitude":"21.26666670","name":"Kis Lajos-tanya"},{"id":"961857","latitude":"47.96666670","longitude":"20.61666670","name":"Kismalomtelep"},{"id":"961872","latitude":"48.46666670","longitude":"21.51666670","name":"Kismezo"},{"id":"961876","latitude":"48.15000000","longitude":"20.38333330","name":"Kismezopuszta"},{"id":"961898","latitude":"48.16666670","longitude":"20.38333330","name":"Kisom\u00e1nyitanya"},{"id":"961899","latitude":"48.16666670","longitude":"20.38333330","name":"Kisom\u00e1ny"},{"id":"961941","latitude":"47.96666670","longitude":"20.50000000","name":"Kispozsag"},{"id":"961964","latitude":"47.95000000","longitude":"20.66666670","name":"Kisr\u00e9t"},{"id":"961969","latitude":"48.35000000","longitude":"21.95000000","name":"Kisrozv\u00e1gy"},{"id":"961976","latitude":"48.20000000","longitude":"20.13333330","name":"Kissik\u00e1tor"},{"id":"962025","latitude":"48.13333330","longitude":"21.00000000","name":"Kistag"},{"id":"962028","latitude":"48.13333330","longitude":"21.00000000","name":"Kistag-tanya"},{"id":"962033","latitude":"47.73333330","longitude":"20.93333330","name":"Kistanya"},{"id":"962076","latitude":"48.05000000","longitude":"20.85000000","name":"Kistokaj"},{"id":"962089","latitude":"47.98333330","longitude":"20.88333330","name":"Kistullus"},{"id":"962125","latitude":"47.81666670","longitude":"20.85000000","name":"Kiszelytanya"},{"id":"962154","latitude":"47.83333330","longitude":"20.63333330","name":"Klementina"},{"id":"962155","latitude":"47.83333330","longitude":"20.63333330","name":"Klementinatanya"},{"id":"962174","latitude":"48.48333330","longitude":"20.78333330","name":"K\u00f6b\u00f6lk\u00fattanya"},{"id":"962176","latitude":"48.30000000","longitude":"20.95000000","name":"Kobzos Istv\u00e1n-tanya"},{"id":"962188","latitude":"48.28333330","longitude":"22.00000000","name":"Kocsistanya"},{"id":"962245","latitude":"48.45000000","longitude":"21.48333330","name":"Kokapu"},{"id":"962250","latitude":"48.25000000","longitude":"21.76666670","name":"K\u00f6k\u00e9nyes"},{"id":"962255","latitude":"48.25000000","longitude":"21.76666670","name":"K\u00f6k\u00e9nyestanya"},{"id":"962259","latitude":"48.28333330","longitude":"20.81666670","name":"K\u00f6k\u00e9nyv\u00f6lgytanya"},{"id":"962262","latitude":"48.20000000","longitude":"20.85000000","name":"Kokosartanya"},{"id":"962273","latitude":"48.21666670","longitude":"20.65000000","name":"Kokuttanya"},{"id":"962291","latitude":"47.73333330","longitude":"20.83333330","name":"K\u00f6lesh\u00e1ttanya"},{"id":"962304","latitude":"48.48333330","longitude":"21.05000000","name":"Kolompostanya"},{"id":"962308","latitude":"48.30000000","longitude":"20.66666670","name":"Kolyuk"},{"id":"962323","latitude":"47.80000000","longitude":"20.96666670","name":"Komj\u00e1thytanya"},{"id":"962324","latitude":"48.55000000","longitude":"20.76666670","name":"Komj\u00e1ti"},{"id":"962333","latitude":"48.33333330","longitude":"21.46666670","name":"Koml\u00f3ska"},{"id":"962343","latitude":"48.20000000","longitude":"20.65000000","name":"Kond\u00f3"},{"id":"962369","latitude":"48.15000000","longitude":"21.26666670","name":"Koparadulo"},{"id":"962373","latitude":"48.30000000","longitude":"20.66666670","name":"Kopaszhegyi Szollosor"},{"id":"962387","latitude":"48.48333330","longitude":"21.43333330","name":"Koplal\u00f3"},{"id":"962391","latitude":"48.05000000","longitude":"21.30000000","name":"Koplal\u00f3tanya"},{"id":"962428","latitude":"48.38333330","longitude":"21.25000000","name":"Korl\u00e1t"},{"id":"962455","latitude":"47.98333330","longitude":"20.95000000","name":"K\u00f6r\u00f6m"},{"id":"962475","latitude":"47.78333330","longitude":"21.00000000","name":"Korossytanya"},{"id":"962529","latitude":"48.28333330","longitude":"20.76666670","name":"Kossuthtelep"},{"id":"962567","latitude":"47.78333330","longitude":"21.00000000","name":"Kottatanya"},{"id":"962574","latitude":"48.20000000","longitude":"20.26666670","name":"Kov\u00e1csb\u00fckkitany\u00e1k"},{"id":"962575","latitude":"48.20000000","longitude":"20.26666670","name":"Kov\u00e1csb\u00fckki Tanya"},{"id":"962578","latitude":"48.21666670","longitude":"20.11666670","name":"Kov\u00e1csh\u00e1ny\u00e1s"},{"id":"962582","latitude":"48.51666670","longitude":"20.80000000","name":"Kov\u00e1csipuszta"},{"id":"962601","latitude":"47.70000000","longitude":"20.71666670","name":"Kov\u00e1cstanya"},{"id":"962609","latitude":"48.45000000","longitude":"21.53333330","name":"Kov\u00e1csv\u00e1g\u00e1s"},{"id":"962611","latitude":"48.21666670","longitude":"20.80000000","name":"Kovago"},{"id":"962616","latitude":"48.21666670","longitude":"20.80000000","name":"Kovagotanyak"},{"id":"962618","latitude":"48.23333330","longitude":"20.20000000","name":"Kov\u00e1ktanya"},{"id":"962637","latitude":"48.36666670","longitude":"21.61666670","name":"K\u00f6veshegy"},{"id":"962738","latitude":"47.73333330","longitude":"20.68333330","name":"K\u00f6zs\u00e9gi Tanya"},{"id":"962748","latitude":"48.46666670","longitude":"20.98333330","name":"Krasznokvajda"},{"id":"962772","latitude":"47.88333330","longitude":"20.80000000","name":"Kubiktanya"},{"id":"962778","latitude":"48.21666670","longitude":"20.80000000","name":"Kucc\u00f3tanya"},{"id":"962784","latitude":"48.13333330","longitude":"21.35000000","name":"Kuh\u00e1rek"},{"id":"962787","latitude":"47.91666670","longitude":"21.11666670","name":"Kukoricah\u00e1ttanya"},{"id":"962813","latitude":"48.03333330","longitude":"20.96666670","name":"Kulsobocs"},{"id":"962860","latitude":"48.05000000","longitude":"21.23333330","name":"Kulsotelep"},{"id":"962904","latitude":"48.33333330","longitude":"20.91666670","name":"Kupa"},{"id":"962921","latitude":"47.68333330","longitude":"20.86666670","name":"Kuripinty\u00f3"},{"id":"962922","latitude":"48.31666670","longitude":"20.63333330","name":"Kurity\u00e1n"},{"id":"962968","latitude":"48.51666670","longitude":"20.68333330","name":"K\u00fatfejpuszta"},{"id":"962982","latitude":"48.31666670","longitude":"21.58333330","name":"K\u00fatpatka"},{"id":"963002","latitude":"48.25000000","longitude":"21.38333330","name":"L\u00e1basmalom"},{"id":"963006","latitude":"48.25000000","longitude":"21.38333330","name":"L\u00e1bos-tanya"},{"id":"963007","latitude":"48.36666670","longitude":"22.00000000","name":"L\u00e1cacs\u00e9ke"},{"id":"963008","latitude":"48.35000000","longitude":"20.96666670","name":"L\u00e1caitanya"},{"id":"963009","latitude":"48.36666670","longitude":"22.00000000","name":"L\u00e1ca"},{"id":"963012","latitude":"48.20000000","longitude":"20.56666670","name":"Lacitanya"},{"id":"963014","latitude":"48.20000000","longitude":"20.56666670","name":"Laczitanya"},{"id":"963019","latitude":"48.30000000","longitude":"20.73333330","name":"Ladbesenyo"},{"id":"963020","latitude":"47.98333330","longitude":"20.83333330","name":"L\u00e1dh\u00e1za"},{"id":"963025","latitude":"47.98333330","longitude":"20.93333330","name":"Lajos Bertalan-tanya"},{"id":"963072","latitude":"48.35000000","longitude":"20.86666670","name":"Lak"},{"id":"963073","latitude":"48.13333330","longitude":"21.35000000","name":"Laknertanya"},{"id":"963075","latitude":"48.51666670","longitude":"20.88333330","name":"Lak\u00f3tanya"},{"id":"963076","latitude":"48.11666670","longitude":"21.41666670","name":"Laktanya"},{"id":"963081","latitude":"48.30000000","longitude":"21.90000000","name":"L\u00e1ncitanya"},{"id":"963082","latitude":"48.30000000","longitude":"21.90000000","name":"L\u00e1nczi-tanya"},{"id":"963110","latitude":"48.21666670","longitude":"21.61666670","name":"L\u00e1pl\u00f3"},{"id":"963114","latitude":"48.26666670","longitude":"20.68333330","name":"Laposdulo"},{"id":"963127","latitude":"48.16666670","longitude":"21.36666670","name":"Laposszollo"},{"id":"963139","latitude":"48.45000000","longitude":"20.66666670","name":"L\u00e1szipuszta"},{"id":"963140","latitude":"48.45000000","longitude":"20.66666670","name":"L\u00e1szitanya"},{"id":"963158","latitude":"48.16666670","longitude":"20.93333330","name":"L\u00e1szl\u00f3tanya"},{"id":"963172","latitude":"48.15000000","longitude":"20.50000000","name":"Latoko"},{"id":"963174","latitude":"47.98333330","longitude":"20.65000000","name":"Lator \u00dat"},{"id":"963175","latitude":"48.40000000","longitude":"20.46666670","name":"Latr\u00e1npuszta"},{"id":"963176","latitude":"48.40000000","longitude":"20.46666670","name":"Latr\u00e1n-tanya"},{"id":"963187","latitude":"48.31666670","longitude":"20.96666670","name":"Le\u00e1ny\u00e1gtanya"},{"id":"963189","latitude":"47.95000000","longitude":"20.66666670","name":"Le\u00e1nyfalumalom"},{"id":"963190","latitude":"47.90000000","longitude":"20.68333330","name":"Le\u00e1nyfalutanya"},{"id":"963217","latitude":"48.16666670","longitude":"21.15000000","name":"Legyesb\u00e9nye"},{"id":"963221","latitude":"48.16666670","longitude":"21.36666670","name":"L\u00e9hej"},{"id":"963223","latitude":"48.28333330","longitude":"20.98333330","name":"L\u00e9h"},{"id":"963235","latitude":"48.15000000","longitude":"20.38333330","name":"L\u00e9n\u00e1rddar\u00f3c"},{"id":"963236","latitude":"47.83333330","longitude":"20.70000000","name":"L\u00e9n\u00e1rthtanya"},{"id":"963237","latitude":"47.83333330","longitude":"20.70000000","name":"L\u00e9n\u00e1rttanya"},{"id":"963243","latitude":"48.31666670","longitude":"20.91666670","name":"Lencs\u00e9stanya"},{"id":"963263","latitude":"47.88333330","longitude":"20.75000000","name":"Lengyeltanya"},{"id":"963267","latitude":"47.93333330","longitude":"21.08333330","name":"Leninv\u00e1ros"},{"id":"963288","latitude":"48.38333330","longitude":"21.01666670","name":"Lesetanya"},{"id":"963314","latitude":"48.33333330","longitude":"21.75000000","name":"Libatanya"},{"id":"963331","latitude":"48.28333330","longitude":"21.33333330","name":"Ligetmajor"},{"id":"963335","latitude":"48.25000000","longitude":"21.90000000","name":"Ligetsz\u00f6g"},{"id":"963336","latitude":"48.25000000","longitude":"21.90000000","name":"Ligetsz\u00f6gtanya"},{"id":"963338","latitude":"48.26666670","longitude":"20.51666670","name":"Ligettanya"},{"id":"963379","latitude":"48.45000000","longitude":"21.06666670","name":"Litka"},{"id":"963391","latitude":"48.20000000","longitude":"20.83333330","name":"Loboclitanya"},{"id":"963393","latitude":"48.26666670","longitude":"21.36666670","name":"Locseszollotelep"},{"id":"963398","latitude":"48.30000000","longitude":"20.40000000","name":"L\u00f3dombpuszta"},{"id":"963399","latitude":"48.21666670","longitude":"20.58333330","name":"L\u00f3fartanya"},{"id":"963418","latitude":"48.40000000","longitude":"21.66666670","name":"Longerdo"},{"id":"963438","latitude":"47.76666670","longitude":"21.05000000","name":"Lorinctanyak"},{"id":"963440","latitude":"47.83333330","longitude":"20.70000000","name":"Lorinctanya"},{"id":"963442","latitude":"47.76666670","longitude":"21.05000000","name":"Lorincztanyak"},{"id":"963443","latitude":"47.83333330","longitude":"20.70000000","name":"Lorincztanya"},{"id":"963471","latitude":"48.40000000","longitude":"20.63333330","name":"Lucskateto"},{"id":"963486","latitude":"47.78333330","longitude":"21.00000000","name":"Ludastanya"},{"id":"963495","latitude":"48.18333330","longitude":"20.65000000","name":"Ludnapuszta"},{"id":"963499","latitude":"48.00000000","longitude":"20.80000000","name":"Lujzamajor"},{"id":"963502","latitude":"48.00000000","longitude":"20.80000000","name":"Lujzatanya"},{"id":"963522","latitude":"48.35000000","longitude":"22.08333330","name":"Lyukasmezo"},{"id":"963552","latitude":"48.20000000","longitude":"21.28333330","name":"M\u00e1di Tany\u00e1k"},{"id":"963554","latitude":"48.20000000","longitude":"21.28333330","name":"M\u00e1d"},{"id":"963564","latitude":"48.28333330","longitude":"21.53333330","name":"Magashegypal\u00e1nti"},{"id":"963576","latitude":"48.35000000","longitude":"20.76666670","name":"Magostetostanya"},{"id":"963641","latitude":"48.11666670","longitude":"21.18333330","name":"Magyartanya"},{"id":"963671","latitude":"47.90000000","longitude":"20.91666670","name":"Majorostanya"},{"id":"963692","latitude":"48.35000000","longitude":"21.51666670","name":"Makkoshotyka"},{"id":"963693","latitude":"48.33333330","longitude":"22.06666670","name":"Makkos"},{"id":"963706","latitude":"47.83333330","longitude":"20.70000000","name":"Mak\u00f3tanya"},{"id":"963711","latitude":"48.30000000","longitude":"20.66666670","name":"M\u00e1kv\u00f6lgytanya"},{"id":"963727","latitude":"48.30000000","longitude":"20.73333330","name":"Malombirtokoss\u00e1g"},{"id":"963734","latitude":"48.11666670","longitude":"21.41666670","name":"Malomfeli Szolloskert"},{"id":"963743","latitude":"48.26666670","longitude":"21.36666670","name":"Malomkertdulo"},{"id":"963746","latitude":"47.98333330","longitude":"20.83333330","name":"Malom"},{"id":"963752","latitude":"48.55000000","longitude":"20.76666670","name":"Malompart"},{"id":"963758","latitude":"48.15000000","longitude":"21.21666670","name":"Malomtanya"},{"id":"963759","latitude":"47.95000000","longitude":"21.03333330","name":"Malomtelep"},{"id":"963769","latitude":"48.01666670","longitude":"20.83333330","name":"M\u00e1lyi"},{"id":"963770","latitude":"48.15000000","longitude":"20.50000000","name":"M\u00e1lyinka"},{"id":"963779","latitude":"48.31666670","longitude":"21.58333330","name":"Mandulasdulo"},{"id":"963780","latitude":"48.31666670","longitude":"21.58333330","name":"Mandul\u00e1s"},{"id":"963785","latitude":"48.31666670","longitude":"20.63333330","name":"M\u00e1niktelep"},{"id":"963805","latitude":"48.16666670","longitude":"21.20000000","name":"M\u00e1rcitanya"},{"id":"963824","latitude":"47.71666670","longitude":"20.66666670","name":"Margittanya"},{"id":"963826","latitude":"47.71666670","longitude":"20.66666670","name":"Margittatanya"},{"id":"963831","latitude":"48.30000000","longitude":"20.43333330","name":"Mariafurdo"},{"id":"963847","latitude":"48.35000000","longitude":"21.43333330","name":"M\u00e1riamajor"},{"id":"963865","latitude":"48.35000000","longitude":"21.43333330","name":"M\u00e1ria-tanya"},{"id":"963896","latitude":"48.30000000","longitude":"20.73333330","name":"Markovicstanya"},{"id":"963899","latitude":"47.80000000","longitude":"20.81666670","name":"M\u00e1rktanya"},{"id":"963963","latitude":"48.46666670","longitude":"20.76666670","name":"Martonyi"},{"id":"963978","latitude":"48.13333330","longitude":"21.35000000","name":"Matesztanya"},{"id":"964002","latitude":"47.81666670","longitude":"20.91666670","name":"Mat\u00f3tatamya"},{"id":"964046","latitude":"48.18333330","longitude":"21.38333330","name":"Maur\u00e1ny"},{"id":"964077","latitude":"48.25000000","longitude":"21.90000000","name":"M\u00e9diumtanya"},{"id":"964080","latitude":"48.21666670","longitude":"21.51666670","name":"Medvetanya"},{"id":"964095","latitude":"48.18333330","longitude":"21.05000000","name":"Megyasz\u00f3"},{"id":"964100","latitude":"48.31666670","longitude":"21.58333330","name":"Megyerhegy"},{"id":"964105","latitude":"48.31666670","longitude":"21.58333330","name":"Megyer"},{"id":"964114","latitude":"48.26666670","longitude":"20.73333330","name":"M\u00e9hestanya"},{"id":"964131","latitude":"48.40000000","longitude":"21.66666670","name":"Melegoldal"},{"id":"964133","latitude":"48.01666670","longitude":"20.70000000","name":"Melegv\u00f6lgy"},{"id":"964140","latitude":"48.53333330","longitude":"21.05000000","name":"M\u00e9lyv\u00f6lgyi-tanya"},{"id":"964143","latitude":"48.53333330","longitude":"21.05000000","name":"M\u00e9lyv\u00f6lgytanya"},{"id":"964163","latitude":"48.35000000","longitude":"21.15000000","name":"M\u00e9ra"},{"id":"964181","latitude":"48.16666670","longitude":"21.36666670","name":"Messzelatodulo"},{"id":"964183","latitude":"48.16666670","longitude":"21.36666670","name":"Messzel\u00e1t\u00f3"},{"id":"964198","latitude":"48.23333330","longitude":"21.38333330","name":"Meszesmajor"},{"id":"964200","latitude":"48.43333330","longitude":"20.80000000","name":"Meszes"},{"id":"964218","latitude":"47.78333330","longitude":"21.00000000","name":"Mezeitanya"},{"id":"964224","latitude":"47.81666670","longitude":"20.91666670","name":"Mezocsat"},{"id":"964239","latitude":"47.83333330","longitude":"20.70000000","name":"Mezokeresztes"},{"id":"964243","latitude":"47.81666670","longitude":"20.58333330","name":"Mezokovesd"},{"id":"964248","latitude":"47.81666670","longitude":"20.73333330","name":"Mezonagymihaly"},{"id":"964249","latitude":"47.86666670","longitude":"20.68333330","name":"Mezonyarad"},{"id":"964250","latitude":"47.98333330","longitude":"20.83333330","name":"Mezonyek"},{"id":"964268","latitude":"48.15000000","longitude":"21.26666670","name":"Mezozombor"},{"id":"964297","latitude":"48.25000000","longitude":"20.16666670","name":"Mih\u00e1lyv\u00f6lgyi Tanya"},{"id":"964298","latitude":"48.25000000","longitude":"20.16666670","name":"Mih\u00e1lyv\u00f6lgy-tanya"},{"id":"964317","latitude":"48.31666670","longitude":"20.40000000","name":"Mikl\u00f3sfalvi Puszta"},{"id":"964319","latitude":"48.26666670","longitude":"21.80000000","name":"Mikl\u00f3sf\u00f6ld"},{"id":"964331","latitude":"48.31666670","longitude":"20.40000000","name":"Mikl\u00f3spuszta"},{"id":"964336","latitude":"47.90000000","longitude":"20.73333330","name":"Mikl\u00f3stanya"},{"id":"964400","latitude":"48.31666670","longitude":"21.58333330","name":"Mocsardulo"},{"id":"964401","latitude":"48.40000000","longitude":"21.66666670","name":"Mocs\u00e1rka"},{"id":"964409","latitude":"48.13333330","longitude":"20.28333330","name":"Mocsoly\u00e1s"},{"id":"964410","latitude":"47.98333330","longitude":"20.68333330","name":"Mocsoly\u00e1s Puszta"},{"id":"964411","latitude":"48.13333330","longitude":"20.28333330","name":"Mocsoly\u00e1spuszta"},{"id":"964412","latitude":"48.18333330","longitude":"20.18333330","name":"Mocsoly\u00e1s-puszta"},{"id":"964413","latitude":"48.13333330","longitude":"20.28333330","name":"Mocsoly\u00e1stanya"},{"id":"964414","latitude":"47.98333330","longitude":"20.68333330","name":"Mocsoly\u00e1stelep"},{"id":"964415","latitude":"48.13333330","longitude":"20.28333330","name":"Mocsoly\u00e1s Telep"},{"id":"964416","latitude":"48.18333330","longitude":"20.18333330","name":"Mocsoly\u00e1stelep"},{"id":"964429","latitude":"48.38333330","longitude":"21.33333330","name":"Mogyor\u00f3ska"},{"id":"964433","latitude":"48.30000000","longitude":"20.73333330","name":"Mogyor\u00f3stanya"},{"id":"964456","latitude":"48.08333330","longitude":"21.20000000","name":"Moln\u00e1rtanya"},{"id":"964466","latitude":"48.30000000","longitude":"20.95000000","name":"Monaj"},{"id":"964469","latitude":"48.21666670","longitude":"21.15000000","name":"Monok"},{"id":"964499","latitude":"47.78333330","longitude":"20.70000000","name":"Morgodulo"},{"id":"964500","latitude":"47.78333330","longitude":"20.70000000","name":"Morg\u00f3gyepi Tany\u00e1k"},{"id":"964501","latitude":"47.78333330","longitude":"20.70000000","name":"Morg\u00f3k\u00fati Tany\u00e1k"},{"id":"964502","latitude":"48.21666670","longitude":"20.80000000","name":"Morg\u00f3"},{"id":"964522","latitude":"48.21666670","longitude":"21.15000000","name":"Morok"},{"id":"964538","latitude":"48.31666670","longitude":"21.58333330","name":"Mosott\u00f3"},{"id":"964549","latitude":"48.26666670","longitude":"20.68333330","name":"M\u00facsony"},{"id":"964552","latitude":"47.98333330","longitude":"20.93333330","name":"Muhi"},{"id":"964553","latitude":"48.26666670","longitude":"21.36666670","name":"Mulat\u00f3alj"},{"id":"964554","latitude":"48.26666670","longitude":"21.36666670","name":"Mulatohegydulo"},{"id":"964555","latitude":"48.26666670","longitude":"21.36666670","name":"Mulat\u00f3park"},{"id":"964561","latitude":"47.98333330","longitude":"20.78333330","name":"Munk\u00e1csitanya"},{"id":"964582","latitude":"47.96666670","longitude":"21.05000000","name":"Muszkah\u00e1t"},{"id":"964595","latitude":"48.20000000","longitude":"21.66666670","name":"Nadasdulo"},{"id":"964614","latitude":"48.25000000","longitude":"21.65000000","name":"Nadhomokdulo"},{"id":"964615","latitude":"48.25000000","longitude":"21.65000000","name":"N\u00e1dhomok"},{"id":"964634","latitude":"47.96666670","longitude":"21.05000000","name":"Nagy\u00e1ll\u00e1s"},{"id":"964639","latitude":"47.96666670","longitude":"21.05000000","name":"Nagy\u00e1ll\u00e1stanya"},{"id":"964666","latitude":"48.23333330","longitude":"20.53333330","name":"Nagybarcaib\u00e1nyatelep"},{"id":"964667","latitude":"48.25000000","longitude":"20.53333330","name":"Nagybarca"},{"id":"964672","latitude":"48.33333330","longitude":"21.86666670","name":"Nagybelso Tanya"},{"id":"964689","latitude":"47.68333330","longitude":"20.86666670","name":"Nagybot-f\u00e9le Puszta"},{"id":"964691","latitude":"48.46666670","longitude":"21.46666670","name":"Nagyb\u00f3zsva"},{"id":"964697","latitude":"48.40000000","longitude":"21.66666670","name":"Nagycepre"},{"id":"964701","latitude":"47.96666670","longitude":"20.95000000","name":"Nagycs\u00e9cs"},{"id":"964702","latitude":"48.08333330","longitude":"21.21666670","name":"Nagycseger"},{"id":"964714","latitude":"47.81666670","longitude":"20.98333330","name":"Nagy Derzs-tanya"},{"id":"964728","latitude":"47.76666670","longitude":"20.80000000","name":"Nagyecs\u00e9r"},{"id":"964729","latitude":"47.76666670","longitude":"20.80000000","name":"Nagyecs\u00e9rtanya"},{"id":"964732","latitude":"48.31666670","longitude":"21.90000000","name":"Nagyegesi-orhaz"},{"id":"964733","latitude":"48.31666670","longitude":"21.90000000","name":"Nagy\u00e9g\u00e9s"},{"id":"964764","latitude":"47.81666670","longitude":"20.91666670","name":"Nagygajla"},{"id":"964798","latitude":"47.76666670","longitude":"20.98333330","name":"Nagyh\u00e1tastanya"},{"id":"964803","latitude":"47.75000000","longitude":"20.85000000","name":"Nagyh\u00e1ztanya"},{"id":"964807","latitude":"48.35000000","longitude":"20.80000000","name":"Nagyhegy"},{"id":"964825","latitude":"48.25000000","longitude":"21.73333330","name":"Nagyhomok"},{"id":"964828","latitude":"48.06666670","longitude":"21.38333330","name":"Nagyhomokos"},{"id":"964830","latitude":"48.25000000","longitude":"21.73333330","name":"Nagyhomoktanya"},{"id":"964835","latitude":"48.43333330","longitude":"21.50000000","name":"Nagyhuta"},{"id":"964852","latitude":"48.15000000","longitude":"21.26666670","name":"Nagykapi"},{"id":"964862","latitude":"48.28333330","longitude":"21.53333330","name":"Nagykast\u00e9lykert"},{"id":"964870","latitude":"48.23333330","longitude":"21.03333330","name":"Nagykinizs"},{"id":"964896","latitude":"48.15000000","longitude":"21.26666670","name":"Nagy Lajos-tanya"},{"id":"964901","latitude":"47.90000000","longitude":"20.68333330","name":"Nagyl\u00e1nyfalutanya"},{"id":"964909","latitude":"47.90000000","longitude":"20.68333330","name":"Nagy-le\u00e1nyfalu-tanya"},{"id":"964930","latitude":"47.90000000","longitude":"20.60000000","name":"Nagymajor"},{"id":"964932","latitude":"47.90000000","longitude":"20.60000000","name":"Nagymajortanya"},{"id":"964934","latitude":"48.26666670","longitude":"20.63333330","name":"Nagymal Koszenbanyatelep"},{"id":"964953","latitude":"48.40000000","longitude":"21.66666670","name":"Nagymocsardulo"},{"id":"964964","latitude":"48.20000000","longitude":"20.36666670","name":"Nagyom\u00e1nyi-tany\u00e1k"},{"id":"964965","latitude":"48.20000000","longitude":"20.36666670","name":"Nagyom\u00e1nytanya"},{"id":"964975","latitude":"47.78333330","longitude":"21.00000000","name":"Nagyp\u00e1ltanya"},{"id":"965021","latitude":"48.33333330","longitude":"21.91666670","name":"Nagyrozv\u00e1gy"},{"id":"965034","latitude":"48.40000000","longitude":"21.50000000","name":"Nagy-Som Erd\u00e9szlak"},{"id":"965035","latitude":"48.40000000","longitude":"21.50000000","name":"Nagysom"},{"id":"965055","latitude":"47.71666670","longitude":"20.81666670","name":"Nagysz\u00e9kl\u00e1pa-tanya"},{"id":"965085","latitude":"47.71666670","longitude":"20.91666670","name":"Nagytanya"},{"id":"965180","latitude":"47.70000000","longitude":"20.71666670","name":"N\u00e9gyes"},{"id":"965181","latitude":"47.83333330","longitude":"20.70000000","name":"N\u00e9gyessytanya"},{"id":"965194","latitude":"48.16666670","longitude":"20.43333330","name":"Nek\u00e9zseny"},{"id":"965197","latitude":"48.36666670","longitude":"21.63333330","name":"N\u00e9mahegy"},{"id":"965205","latitude":"47.88333330","longitude":"20.96666670","name":"Nemesbikki Tany\u00e1k"},{"id":"965206","latitude":"47.88333330","longitude":"20.96666670","name":"Nemesbikk"},{"id":"965324","latitude":"48.40000000","longitude":"21.18333330","name":"Novajidr\u00e1ny"},{"id":"965330","latitude":"48.40000000","longitude":"21.66666670","name":"Nove Mesto Pod Siatrom"},{"id":"965336","latitude":"47.78333330","longitude":"21.00000000","name":"Nyakastanya"},{"id":"965352","latitude":"47.73333330","longitude":"20.73333330","name":"Ny\u00e1rjaspuszta"},{"id":"965353","latitude":"48.23333330","longitude":"21.70000000","name":"Ny\u00e1rjastanya"},{"id":"965374","latitude":"47.98333330","longitude":"20.83333330","name":"Ny\u00e9kl\u00e1dh\u00e1za"},{"id":"965380","latitude":"48.30000000","longitude":"21.66666670","name":"Nyergestanya"},{"id":"965384","latitude":"48.36666670","longitude":"20.95000000","name":"Ny\u00e9sta"},{"id":"965388","latitude":"48.11666670","longitude":"21.41666670","name":"Nyestidulo"},{"id":"965428","latitude":"48.50000000","longitude":"21.45000000","name":"Ny\u00edri"},{"id":"965437","latitude":"48.23333330","longitude":"20.20000000","name":"Nyirjestanya"},{"id":"965463","latitude":"48.28333330","longitude":"21.78333330","name":"Ny\u00edrtanya"},{"id":"965471","latitude":"48.28333330","longitude":"20.81666670","name":"Nyom\u00e1r"},{"id":"965535","latitude":"48.15000000","longitude":"20.98333330","name":"\u00d3falui Part"},{"id":"965537","latitude":"48.15000000","longitude":"20.98333330","name":"\u00d3falu"},{"id":"965593","latitude":"48.25000000","longitude":"21.43333330","name":"Olaszliszka"},{"id":"965603","latitude":"47.96666670","longitude":"20.50000000","name":"Oldalv\u00f6lgy"},{"id":"965626","latitude":"48.50000000","longitude":"21.28333330","name":"Oncsatelep"},{"id":"965637","latitude":"48.16666670","longitude":"21.20000000","name":"Ond"},{"id":"965638","latitude":"48.11666670","longitude":"21.18333330","name":"Ond\u00f3tanya"},{"id":"965639","latitude":"48.11666670","longitude":"20.91666670","name":"Onga"},{"id":"965641","latitude":"48.00000000","longitude":"20.91666670","name":"\u00d3nod"},{"id":"965739","latitude":"48.40000000","longitude":"21.66666670","name":"Or\u00e9muszhegy"},{"id":"965750","latitude":"48.35000000","longitude":"22.05000000","name":"Orhegy"},{"id":"965769","latitude":"48.35000000","longitude":"20.65000000","name":"Ormosb\u00e1nya"},{"id":"965770","latitude":"48.30000000","longitude":"20.66666670","name":"Ormosi Tanya"},{"id":"965771","latitude":"48.35000000","longitude":"20.65000000","name":"Orm\u00f3spuszta"},{"id":"965797","latitude":"47.76666670","longitude":"20.73333330","name":"Orosz\u00e9ri Tany\u00e1k"},{"id":"965803","latitude":"47.76666670","longitude":"20.73333330","name":"Orosztanya"},{"id":"965814","latitude":"48.25000000","longitude":"21.90000000","name":"Ors\u00f3sz\u00f6g"},{"id":"965839","latitude":"48.26666670","longitude":"21.50000000","name":"\u00d3s\u00e1ra"},{"id":"965842","latitude":"48.11666670","longitude":"21.06666670","name":"\u00d3siska"},{"id":"965868","latitude":"47.95000000","longitude":"20.53333330","name":"Oszla"},{"id":"965869","latitude":"47.88333330","longitude":"21.03333330","name":"Oszl\u00e1r"},{"id":"965871","latitude":"47.95000000","longitude":"20.53333330","name":"Oszlatanya"},{"id":"965920","latitude":"48.21666670","longitude":"20.30000000","name":"\u00d3zd"},{"id":"965933","latitude":"48.33333330","longitude":"21.83333330","name":"P\u00e1cin"},{"id":"965992","latitude":"48.46666670","longitude":"21.51666670","name":"P\u00e1lh\u00e1za"},{"id":"965996","latitude":"48.46666670","longitude":"21.50000000","name":"P\u00e1lh\u00e1zi Ipartelep"},{"id":"965998","latitude":"48.28333330","longitude":"21.03333330","name":"P\u00e1lh\u00e1zitanya"},{"id":"966001","latitude":"48.15000000","longitude":"20.15000000","name":"Palinapuszta"},{"id":"966012","latitude":"48.43333330","longitude":"20.95000000","name":"Palk\u00f3tanya"},{"id":"966015","latitude":"48.11666670","longitude":"21.41666670","name":"P\u00e1lk\u00f6zipuszta"},{"id":"966049","latitude":"48.50000000","longitude":"20.93333330","name":"Paml\u00e9ny"},{"id":"966072","latitude":"48.53333330","longitude":"21.36666670","name":"P\u00e1nyok"},{"id":"966097","latitude":"48.43333330","longitude":"21.08333330","name":"Papitanya"},{"id":"966109","latitude":"48.28333330","longitude":"20.91666670","name":"Papptanya"},{"id":"966136","latitude":"47.73333330","longitude":"20.93333330","name":"Paptanya"},{"id":"966155","latitude":"48.16666670","longitude":"20.65000000","name":"Parasznya"},{"id":"966197","latitude":"47.83333330","longitude":"20.78333330","name":"P\u00e1sztortanya"},{"id":"966219","latitude":"48.28333330","longitude":"21.63333330","name":"P\u00e1terhomok"},{"id":"966261","latitude":"47.86666670","longitude":"20.53333330","name":"Pazsag"},{"id":"966293","latitude":"48.13333330","longitude":"21.35000000","name":"Peksidulo"},{"id":"966315","latitude":"48.06666670","longitude":"20.55000000","name":"P\u00e9nzpatak"},{"id":"966330","latitude":"48.50000000","longitude":"21.00000000","name":"Perecse"},{"id":"966340","latitude":"48.28333330","longitude":"21.13333330","name":"Pere"},{"id":"966350","latitude":"48.01666670","longitude":"20.80000000","name":"Perespuszta"},{"id":"966354","latitude":"48.01666670","longitude":"20.80000000","name":"Perestanya"},{"id":"966375","latitude":"48.46666670","longitude":"20.70000000","name":"Perkupa"},{"id":"966460","latitude":"48.11666670","longitude":"20.91666670","name":"Petofitanya"},{"id":"966478","latitude":"48.05000000","longitude":"20.85000000","name":"Petr\u00f3czkitanya"},{"id":"966479","latitude":"48.05000000","longitude":"20.85000000","name":"Petr\u00f3czkytanya"},{"id":"966483","latitude":"48.23333330","longitude":"21.03333330","name":"Petr\u00f3tanya"},{"id":"966514","latitude":"48.20000000","longitude":"20.75000000","name":"Piltai-puszta"},{"id":"966515","latitude":"48.20000000","longitude":"20.75000000","name":"Piltatanya"},{"id":"966516","latitude":"48.30000000","longitude":"20.83333330","name":"Pincecsere"},{"id":"966519","latitude":"48.05000000","longitude":"20.85000000","name":"Pincepart"},{"id":"966522","latitude":"48.30000000","longitude":"20.83333330","name":"Pincesor"},{"id":"966535","latitude":"47.71666670","longitude":"20.61666670","name":"Pint\u00e9rtanya"},{"id":"966554","latitude":"48.35000000","longitude":"20.43333330","name":"Piroskatanya"},{"id":"966566","latitude":"48.41666670","longitude":"20.83333330","name":"Pistav\u00f6lgytanya"},{"id":"966583","latitude":"48.43333330","longitude":"21.08333330","name":"Pleszk\u00e1ntanya"},{"id":"966593","latitude":"48.18333330","longitude":"20.26666670","name":"P\u00f3costanya"},{"id":"966595","latitude":"48.30000000","longitude":"20.90000000","name":"Pocsajtanya"},{"id":"966597","latitude":"45.89805560","longitude":"18.47805560","name":"P\u00f3csapuszta"},{"id":"966600","latitude":"48.36666670","longitude":"20.46666670","name":"P\u00f3cspallag"},{"id":"966602","latitude":"48.18333330","longitude":"20.26666670","name":"P\u00f3czostanya"},{"id":"966610","latitude":"48.28333330","longitude":"20.38333330","name":"Pogonyipuszta"},{"id":"966619","latitude":"48.18333330","longitude":"21.38333330","name":"Poklosdulo"},{"id":"966644","latitude":"47.76666670","longitude":"21.03333330","name":"Polonkai Tany\u00e1k"},{"id":"966656","latitude":"47.88333330","longitude":"21.06666670","name":"Pontonh\u00edd"},{"id":"966701","latitude":"48.48333330","longitude":"21.33333330","name":"Pot\u00e1csh\u00e1z"},{"id":"966704","latitude":"48.03333330","longitude":"20.93333330","name":"Potoczkitanya"},{"id":"966705","latitude":"48.03333330","longitude":"20.93333330","name":"Potoczkytanya"},{"id":"966733","latitude":"48.20000000","longitude":"21.73333330","name":"Pristy\u00e1ktanya"},{"id":"966744","latitude":"48.08333330","longitude":"21.25000000","name":"Pr\u00fcgy"},{"id":"966749","latitude":"48.33333330","longitude":"21.21666670","name":"Pukkanc"},{"id":"966750","latitude":"48.33333330","longitude":"21.21666670","name":"Pukkanctanya"},{"id":"966769","latitude":"47.80000000","longitude":"20.68333330","name":"P\u00fcsp\u00f6ki Tanya"},{"id":"966812","latitude":"48.55000000","longitude":"21.50000000","name":"Pusztafalu"},{"id":"966856","latitude":"47.98333330","longitude":"20.68333330","name":"Pusztamocsoly\u00e1s"},{"id":"966867","latitude":"48.46666670","longitude":"21.13333330","name":"Pusztaradv\u00e1ny"},{"id":"966897","latitude":"48.30000000","longitude":"20.43333330","name":"Putnok"},{"id":"966963","latitude":"48.16666670","longitude":"21.20000000","name":"Raczdulo"},{"id":"967003","latitude":"48.18333330","longitude":"20.66666670","name":"Radosty\u00e1n"},{"id":"967010","latitude":"48.31666670","longitude":"20.80000000","name":"Rag\u00e1lyitanya"},{"id":"967011","latitude":"48.40000000","longitude":"20.51666670","name":"Rag\u00e1ly"},{"id":"967013","latitude":"48.23333330","longitude":"20.20000000","name":"Ragdocatanya"},{"id":"967018","latitude":"48.46666670","longitude":"20.90000000","name":"Rakaca"},{"id":"967019","latitude":"48.46666670","longitude":"20.85000000","name":"Rakacaszend"},{"id":"967026","latitude":"48.13333330","longitude":"21.41666670","name":"Rakoczidulo"},{"id":"967057","latitude":"48.00000000","longitude":"20.86666670","name":"R\u00e1kos-puszta"},{"id":"967060","latitude":"48.00000000","longitude":"20.86666670","name":"R\u00e1kostanya"},{"id":"967062","latitude":"48.00000000","longitude":"20.86666670","name":"R\u00e1kostelep"},{"id":"967078","latitude":"48.31666670","longitude":"21.00000000","name":"R\u00e1sony"},{"id":"967079","latitude":"48.31666670","longitude":"21.00000000","name":"R\u00e1sonys\u00e1pberencs"},{"id":"967083","latitude":"48.21666670","longitude":"21.23333330","name":"R\u00e1tka"},{"id":"967090","latitude":"48.26666670","longitude":"21.36666670","name":"Ravaszmajdulo"},{"id":"967091","latitude":"48.41666670","longitude":"20.50000000","name":"Ravaszr\u00e9szpuszta"},{"id":"967092","latitude":"48.41666670","longitude":"20.50000000","name":"Ravaszr\u00e9sztanya"},{"id":"967096","latitude":"48.33333330","longitude":"20.60000000","name":"Rebecs\u00e1kh\u00edd"},{"id":"967105","latitude":"48.26666670","longitude":"21.36666670","name":"Rednekdulo"},{"id":"967106","latitude":"48.26666670","longitude":"21.36666670","name":"Rednek"},{"id":"967116","latitude":"48.40000000","longitude":"21.35000000","name":"Reg\u00e9c"},{"id":"967161","latitude":"48.23333330","longitude":"20.20000000","name":"Rengetfo"},{"id":"967162","latitude":"48.21666670","longitude":"20.16666670","name":"Rengetitany\u00e1k"},{"id":"967163","latitude":"48.21666670","longitude":"20.16666670","name":"Rengetitanya"},{"id":"967164","latitude":"48.21666670","longitude":"20.16666670","name":"Rengetl\u00e1h-tanya"},{"id":"967165","latitude":"48.05000000","longitude":"20.53333330","name":"Repahuta"},