[{"id":"1103243","latitude":"25.43333300","longitude":"90.23333300","name":"Adugiri"},{"id":"1104831","latitude":"25.20000000","longitude":"90.63333300","name":"Baghamara"},{"id":"1105068","latitude":"25.90000000","longitude":"90.51666700","name":"Bajendoba"},{"id":"1105069","latitude":"25.90000000","longitude":"90.51666700","name":"Bajengdoba"},{"id":"1105570","latitude":"25.86666700","longitude":"90.73333300","name":"Bangsi"},{"id":"1105858","latitude":"25.61666700","longitude":"92.46666700","name":"Barato"},{"id":"1106059","latitude":"26.03333300","longitude":"91.86666700","name":"Barni Hat"},{"id":"1106305","latitude":"25.23333300","longitude":"92.25000000","name":"Bataw"},{"id":"1107337","latitude":"25.70000000","longitude":"92.01666700","name":"Bhoilymbong"},{"id":"1107810","latitude":"25.00000000","longitude":"92.45000000","name":"Bishwarpur"},{"id":"1108061","latitude":"25.65000000","longitude":"91.88333300","name":"Borpani"},{"id":"1108926","latitude":"25.33333300","longitude":"92.81666700","name":"Chaptuk"},{"id":"1109170","latitude":"25.71666700","longitude":"90.68333300","name":"Cheran"},{"id":"1109172","latitude":"25.30000000","longitude":"91.70000000","name":"Cherapunji"},{"id":"1109186","latitude":"25.30000000","longitude":"91.70000000","name":"Cherrapunjee"},{"id":"1109187","latitude":"25.30000000","longitude":"91.70000000","name":"Cherrapunji"},{"id":"1109188","latitude":"25.30000000","longitude":"91.70000000","name":"Cherripunji"},{"id":"1109390","latitude":"25.70000000","longitude":"90.76666700","name":"Chibilbang"},{"id":"1110021","latitude":"25.76666700","longitude":"90.21666700","name":"Dabigiri"},{"id":"1110142","latitude":"25.91666700","longitude":"90.76666700","name":"Dainadubi"},{"id":"1110230","latitude":"25.70000000","longitude":"90.83333300","name":"Dambu"},{"id":"1110254","latitude":"25.93333300","longitude":"90.76666700","name":"Damra"},{"id":"1110478","latitude":"25.63333300","longitude":"90.75000000","name":"Darugiri"},{"id":"1111508","latitude":"25.40000000","longitude":"89.85000000","name":"Digli"},{"id":"1111509","latitude":"25.40000000","longitude":"89.85000000","name":"Digligiri"},{"id":"1111581","latitude":"25.58333300","longitude":"92.05000000","name":"Dingpasoh"},{"id":"1111633","latitude":"25.96666700","longitude":"92.01666700","name":"Diwon"},{"id":"1111742","latitude":"25.85000000","longitude":"91.63333300","name":"Dommati"},{"id":"1111780","latitude":"25.85000000","longitude":"91.63333300","name":"Donmatia"},{"id":"1112839","latitude":"25.60000000","longitude":"90.03333300","name":"Garobadha"},{"id":"1112864","latitude":"25.18333300","longitude":"90.35000000","name":"Gasnapara"},{"id":"1112865","latitude":"25.18333300","longitude":"90.35000000","name":"Gasuapara"},{"id":"1112935","latitude":"25.30000000","longitude":"90.01666700","name":"Genapara"},{"id":"1115344","latitude":"25.40000000","longitude":"91.50000000","name":"Jakrem"},{"id":"1115361","latitude":"25.01666700","longitude":"92.46666700","name":"Jalalpur"},{"id":"1115623","latitude":"25.33333300","longitude":"92.13333300","name":"Jarain"},{"id":"1116094","latitude":"25.45000000","longitude":"90.01666700","name":"Jongohetpara"},{"id":"1116124","latitude":"25.45000000","longitude":"92.20000000","name":"Jowai"},{"id":"1118079","latitude":"25.15000000","longitude":"92.45000000","name":"Khaddum"},{"id":"1118098","latitude":"25.73333300","longitude":"92.43333300","name":"Khainduli"},{"id":"1118486","latitude":"25.15000000","longitude":"92.45000000","name":"Khatdom"},{"id":"1118577","latitude":"25.30000000","longitude":"90.23333300","name":"Kherapara"},{"id":"1119012","latitude":"25.30000000","longitude":"92.80000000","name":"Kobak"},{"id":"1119711","latitude":"25.86666700","longitude":"92.10000000","name":"Ksehkma Bazar"},{"id":"1120296","latitude":"25.53333300","longitude":"91.55000000","name":"Kynshi"},{"id":"1120299","latitude":"25.70000000","longitude":"92.08333300","name":"Kyrdem"},{"id":"1120414","latitude":"25.45000000","longitude":"91.83333300","name":"Laitlyngkot"},{"id":"1120415","latitude":"25.45000000","longitude":"91.83333300","name":"Laitmawpan"},{"id":"1120416","latitude":"25.38333300","longitude":"91.61666700","name":"Laitmawsiang"},{"id":"1120423","latitude":"25.18333300","longitude":"92.28333300","name":"Lakadong"},{"id":"1120888","latitude":"25.45000000","longitude":"92.66666700","name":"Lobang"},{"id":"1121115","latitude":"25.41666700","longitude":"91.71666700","name":"Lyngiong"},{"id":"1121410","latitude":"25.30000000","longitude":"89.85000000","name":"Mahendraganj"},{"id":"1121541","latitude":"25.56666700","longitude":"91.63333300","name":"Mairang"},{"id":"1122220","latitude":"25.53333300","longitude":"89.86666700","name":"Manikarchar"},{"id":"1122263","latitude":"25.53333300","longitude":"89.86666700","name":"Mankachar"},{"id":"1122744","latitude":"25.80000000","longitude":"91.48333300","name":"Mawdem"},{"id":"1122745","latitude":"25.68333300","longitude":"91.40000000","name":"Mawdoh"},{"id":"1122746","latitude":"25.81666700","longitude":"92.08333300","name":"Mawhati"},{"id":"1122747","latitude":"25.56666700","longitude":"91.71666700","name":"Mawiong"},{"id":"1122748","latitude":"25.66666700","longitude":"91.90000000","name":"Mawiyngkhung"},{"id":"1122749","latitude":"25.70000000","longitude":"91.56666700","name":"Mawkarah"},{"id":"1122751","latitude":"25.55000000","longitude":"91.18333300","name":"Mawliba"},{"id":"1122752","latitude":"25.66666700","longitude":"91.90000000","name":"Mawlyngkhung"},{"id":"1122753","latitude":"25.56666700","longitude":"92.06666700","name":"Mawlyngkneng"},{"id":"1122754","latitude":"25.46666700","longitude":"91.76666700","name":"Mawphlang"},{"id":"1122755","latitude":"25.46666700","longitude":"91.43333300","name":"Mawrongor"},{"id":"1122756","latitude":"25.30000000","longitude":"91.58333300","name":"Mawsynram"},{"id":"1123193","latitude":"25.30000000","longitude":"89.85000000","name":"Mohendroganj"},{"id":"1123200","latitude":"25.30000000","longitude":"89.85000000","name":"Mohindurgunj"},{"id":"1123237","latitude":"25.53333300","longitude":"92.46666700","name":"Mokalaw"},{"id":"1123284","latitude":"25.46666700","longitude":"90.70000000","name":"Mongwalbibra"},{"id":"1123797","latitude":"25.63333300","longitude":"92.28333300","name":"Mutah"},{"id":"1123848","latitude":"25.50000000","longitude":"91.83333300","name":"Mylliem"},{"id":"1123850","latitude":"25.38333300","longitude":"92.55000000","name":"Mynsning"},{"id":"1123851","latitude":"25.56666700","longitude":"92.33333300","name":"Mynso"},{"id":"1124571","latitude":"25.56666700","longitude":"92.21666700","name":"Nartiang"},{"id":"1124871","latitude":"25.51666700","longitude":"90.70000000","name":"Nengkhra Agalgiri"},{"id":"1125237","latitude":"25.53333300","longitude":"92.26666700","name":"Nongbah"},{"id":"1125238","latitude":"25.48333300","longitude":"92.10000000","name":"Nongjrong"},{"id":"1125239","latitude":"25.68333300","longitude":"91.63333300","name":"Nongkhlao"},{"id":"1125240","latitude":"25.68333300","longitude":"91.63333300","name":"Nongkhlaw"},{"id":"1125241","latitude":"25.50000000","longitude":"91.88333300","name":"Nongkram"},{"id":"1125242","latitude":"25.50000000","longitude":"91.88333300","name":"Nongkrem"},{"id":"1125243","latitude":"25.53333300","longitude":"91.55000000","name":"Nongkynshi"},{"id":"1125244","latitude":"25.90000000","longitude":"91.88333300","name":"Nongpoh"},{"id":"1125245","latitude":"25.68333300","longitude":"91.05000000","name":"Nongpur"},{"id":"1125246","latitude":"25.45000000","longitude":"91.60000000","name":"Nongspung"},{"id":"1125247","latitude":"25.51666700","longitude":"91.26666700","name":"Nongstoin"},{"id":"1125248","latitude":"25.46666700","longitude":"90.70000000","name":"Nongwalbibra"},{"id":"1125249","latitude":"25.46666700","longitude":"90.70000000","name":"Nongwalhibra"},{"id":"1125756","latitude":"25.41666700","longitude":"92.56666700","name":"Pala"},{"id":"1125928","latitude":"25.43333300","longitude":"91.36666700","name":"Pambriew"},{"id":"1125929","latitude":"25.73333300","longitude":"92.38333300","name":"Pamdkhar"},{"id":"1126089","latitude":"25.20000000","longitude":"91.03333300","name":"Panikunda"},{"id":"1126456","latitude":"25.85000000","longitude":"89.98333300","name":"Patakata"},{"id":"1126535","latitude":"25.63333300","longitude":"91.16666700","name":"Patharkhnang"},{"id":"1126536","latitude":"25.63333300","longitude":"91.16666700","name":"Patharknang"},{"id":"1126721","latitude":"25.23333300","longitude":"92.13333300","name":"Pdengshakap"},{"id":"1127001","latitude":"25.30000000","longitude":"91.26666700","name":"Phlangmawphra"},{"id":"1127023","latitude":"25.90000000","longitude":"90.03333300","name":"Phulbari"},{"id":"1127552","latitude":"25.60000000","longitude":"92.58333300","name":"Psiar"},{"id":"1127791","latitude":"25.31666700","longitude":"91.90000000","name":"Pynursla"},{"id":"1128269","latitude":"25.66666700","longitude":"91.31666700","name":"Rambrai"},{"id":"1128499","latitude":"25.46666700","longitude":"91.73333300","name":"Rangshken"},{"id":"1128500","latitude":"25.33333300","longitude":"91.40000000","name":"Rangthong"},{"id":"1128822","latitude":"25.86666700","longitude":"90.46666700","name":"Rembigiri"},{"id":"1128837","latitude":"25.60000000","longitude":"90.88333300","name":"Rengjeng"},{"id":"1128880","latitude":"25.30000000","longitude":"90.66666700","name":"Rewak Songmong"},{"id":"1128932","latitude":"25.31666700","longitude":"90.43333300","name":"Ringkhap Songmong"},{"id":"1129009","latitude":"25.70000000","longitude":"90.15000000","name":"Rongchugiri"},{"id":"1129011","latitude":"25.60000000","longitude":"90.88333300","name":"Rongjeng"},{"id":"1129013","latitude":"25.81666700","longitude":"90.10000000","name":"Rongmachokgiri"},{"id":"1129015","latitude":"25.58333300","longitude":"90.25000000","name":"Rongram"},{"id":"1129016","latitude":"25.18333300","longitude":"90.80000000","name":"Rongra"},{"id":"1129017","latitude":"25.55000000","longitude":"90.56666700","name":"Rongrenggiri"},{"id":"1129019","latitude":"25.50000000","longitude":"90.01666700","name":"Rongsanggiri"},{"id":"1129400","latitude":"25.55000000","longitude":"92.53333300","name":"Saitthad"},{"id":"1129795","latitude":"25.53333300","longitude":"90.86666700","name":"Sangsik"},{"id":"1130373","latitude":"25.33333300","longitude":"90.11666700","name":"Selbalgiri"},{"id":"1130668","latitude":"25.48333300","longitude":"92.35000000","name":"Shangpung"},{"id":"1130829","latitude":"25.57555600","longitude":"91.87305600","name":"Shillong"},{"id":"1131302","latitude":"25.71666700","longitude":"89.90000000","name":"Singrimari"},{"id":"1131538","latitude":"25.50000000","longitude":"91.90000000","name":"Smet"},{"id":"1131540","latitude":"25.50000000","longitude":"91.90000000","name":"Smit"},{"id":"1131584","latitude":"25.35000000","longitude":"91.73333300","name":"Sohrarim"},{"id":"1131711","latitude":"25.65000000","longitude":"90.60000000","name":"Songsak"},{"id":"1131850","latitude":"25.51666700","longitude":"90.80000000","name":"Suanggiri"},{"id":"1132210","latitude":"25.36666700","longitude":"92.45000000","name":"Sutnga"},{"id":"1133109","latitude":"25.60000000","longitude":"90.40000000","name":"Thongbolgiri"},{"id":"1133133","latitude":"25.25000000","longitude":"92.66666700","name":"Thuruk"},{"id":"1133185","latitude":"25.96666700","longitude":"90.23333300","name":"Tikrikila"},{"id":"1133540","latitude":"25.33333300","longitude":"92.50000000","name":"Tongseng"},{"id":"1133779","latitude":"25.51666700","longitude":"90.21666700","name":"Tura"},{"id":"1134015","latitude":"25.80000000","longitude":"92.05000000","name":"Umlaiteng"},{"id":"1134016","latitude":"25.46666700","longitude":"91.83333300","name":"Umlympung"},{"id":"1134024","latitude":"25.76666700","longitude":"91.88333300","name":"Umran"},{"id":"1134042","latitude":"25.73333300","longitude":"91.30000000","name":"Umshem"},{"id":"1134043","latitude":"25.75000000","longitude":"91.88333300","name":"Umsning"},{"id":"1134893","latitude":"25.53333300","longitude":"92.16666700","name":"Wahjajer"},{"id":"1134903","latitude":"25.33333300","longitude":"92.81666700","name":"Waitang"}]