[{"id":"1135516","latitude":"30.47888890","longitude":"47.86750000","name":"`Abdaliyah"},{"id":"1135617","latitude":"30.47888890","longitude":"47.86750000","name":"`Abd Ilyan"},{"id":"1135687","latitude":"29.92222220","longitude":"48.48666670","name":"Abtar"},{"id":"1135694","latitude":"30.76333330","longitude":"47.63611110","name":"Abu al Hayyah"},{"id":"1135697","latitude":"30.45111110","longitude":"47.98500000","name":"Abu al Khasib"},{"id":"1135699","latitude":"30.66416670","longitude":"47.61722220","name":"Abu al Muhammar"},{"id":"1135704","latitude":"31.08333330","longitude":"47.41666670","name":"Abu `Arran"},{"id":"1135707","latitude":"29.97611110","longitude":"48.41305560","name":"Abu `Az\u00cc\u00a7im"},{"id":"1135711","latitude":"30.57527780","longitude":"47.78555560","name":"Abu Bushayr"},{"id":"1135730","latitude":"30.83111110","longitude":"47.58805560","name":"Abu Diflah"},{"id":"1135736","latitude":"29.93111110","longitude":"48.55361110","name":"Abu Fulus"},{"id":"1135739","latitude":"30.94888890","longitude":"47.33666670","name":"Abu Gharab"},{"id":"1135744","latitude":"30.78027780","longitude":"47.62972220","name":"Abu Gharb"},{"id":"1135764","latitude":"30.76333330","longitude":"47.63611110","name":"Abu Hayyah"},{"id":"1135771","latitude":"30.14111110","longitude":"48.36916670","name":"Abu `Iqab"},{"id":"1135781","latitude":"30.59222220","longitude":"47.67250000","name":"Abu Kalhan"},{"id":"1135786","latitude":"30.10694440","longitude":"48.38555560","name":"Abu Khadrawi"},{"id":"1135795","latitude":"30.76333330","longitude":"47.63611110","name":"Abul Haiya"},{"id":"1135796","latitude":"30.45111110","longitude":"47.98500000","name":"Abul Khasib"},{"id":"1135800","latitude":"30.65111110","longitude":"47.67000000","name":"Abu Malik"},{"id":"1135836","latitude":"30.89527780","longitude":"47.29083330","name":"Abu Sakhar"},{"id":"1135837","latitude":"30.89527780","longitude":"47.29083330","name":"Abu Sakhr"},{"id":"1135858","latitude":"31.28333330","longitude":"47.30000000","name":"Abu Sharibah"},{"id":"1135861","latitude":"30.84555560","longitude":"47.16388890","name":"Abu Shawlan"},{"id":"1135869","latitude":"30.90777780","longitude":"46.92500000","name":"Abu Shuwaiir"},{"id":"1135870","latitude":"30.90777780","longitude":"46.92500000","name":"Abu Shuwair"},{"id":"1135872","latitude":"30.90777780","longitude":"46.92500000","name":"Abu Shuway`ir"},{"id":"1135873","latitude":"30.90777780","longitude":"46.92500000","name":"Abu Shuwayr"},{"id":"1135875","latitude":"30.90777780","longitude":"46.92500000","name":"Abu Shuwayyir"},{"id":"1135876","latitude":"30.48111110","longitude":"47.87750000","name":"Abu Silal"},{"id":"1135939","latitude":"30.26194440","longitude":"48.32472220","name":"Ad Dawib"},{"id":"1135940","latitude":"30.26194440","longitude":"48.32472220","name":"Ad Dawir"},{"id":"1135942","latitude":"30.14944440","longitude":"48.36694440","name":"Ad Dawrah"},{"id":"1135947","latitude":"30.79666670","longitude":"47.57777780","name":"Ad Dayr"},{"id":"1135953","latitude":"30.48833330","longitude":"48.00194440","name":"Ad Du`ayji"},{"id":"1135957","latitude":"30.14944440","longitude":"48.36694440","name":"Ad Durah"},{"id":"1135958","latitude":"30.10611110","longitude":"48.38916670","name":"Ad Duwaybi"},{"id":"1136036","latitude":"30.96666670","longitude":"47.38333330","name":"Ahsam"},{"id":"1136071","latitude":"30.96666670","longitude":"47.38333330","name":"Ajjassam"},{"id":"1136075","latitude":"30.96666670","longitude":"47.38333330","name":"Ajsam"},{"id":"1136079","latitude":"30.50000000","longitude":"47.80000000","name":"Akhawat Razanah"},{"id":"1136114","latitude":"31.24972220","longitude":"47.32944440","name":"Al `Adl"},{"id":"1136139","latitude":"30.49833330","longitude":"47.90611110","name":"Al Akwat"},{"id":"1136143","latitude":"30.57666670","longitude":"47.75472220","name":"Al `Ali"},{"id":"1136164","latitude":"30.48416670","longitude":"47.83277780","name":"Al Amtahiyah"},{"id":"1136170","latitude":"30.63722220","longitude":"47.74916670","name":"Al `Anbari"},{"id":"1136187","latitude":"30.51833330","longitude":"47.84027780","name":"Al `Ashar"},{"id":"1136189","latitude":"30.51833330","longitude":"47.84027780","name":"Al `Ashshar"},{"id":"1136207","latitude":"30.63333330","longitude":"47.40000000","name":"`Alawi"},{"id":"1136212","latitude":"30.43833330","longitude":"47.96944440","name":"Al `Awjah"},{"id":"1136226","latitude":"30.47638890","longitude":"47.83861110","name":"Al A`z\u00cc\u00a7amiyah"},{"id":"1136236","latitude":"30.58500000","longitude":"47.76083330","name":"Al Badran"},{"id":"1136241","latitude":"30.43833330","longitude":"48.07166670","name":"Albaljaniya"},{"id":"1136242","latitude":"30.43833330","longitude":"48.07166670","name":"Al Baljaniyah"},{"id":"1136248","latitude":"30.50277780","longitude":"47.85250000","name":"Al Baradi`iyah"},{"id":"1136253","latitude":"30.35000000","longitude":"47.56666670","name":"Al Barjisiyah"},{"id":"1136255","latitude":"30.49416670","longitude":"47.81916670","name":"Al Basrah"},{"id":"1136256","latitude":"30.49555560","longitude":"47.81750000","name":"Al Basrah al Qadimah"},{"id":"1136351","latitude":"31.20000000","longitude":"47.45000000","name":"Albu Musad"},{"id":"1136382","latitude":"30.86666670","longitude":"47.53333330","name":"Albu Shuaikh"},{"id":"1136386","latitude":"30.86666670","longitude":"47.53333330","name":"Albu Shuwaykh"},{"id":"1136443","latitude":"29.96805560","longitude":"48.46722220","name":"Al Faw"},{"id":"1136446","latitude":"30.51666670","longitude":"47.78333330","name":"Al Faysaliyah"},{"id":"1136451","latitude":"30.26777780","longitude":"48.31888890","name":"Al Fudaydah"},{"id":"1136459","latitude":"30.50638890","longitude":"47.83166670","name":"Al Fursi"},{"id":"1136463","latitude":"30.18333330","longitude":"47.66666670","name":"Al Garyan"},{"id":"1136474","latitude":"30.43361110","longitude":"47.96666670","name":"Al Ghazzal"},{"id":"1136482","latitude":"31.26666670","longitude":"47.23333330","name":"Al Gubur"},{"id":"1136483","latitude":"30.28333330","longitude":"47.60000000","name":"Al Guraitiya"},{"id":"1136505","latitude":"30.11027780","longitude":"48.38222220","name":"Al Haj `Ashur"},{"id":"1136517","latitude":"30.11444440","longitude":"48.37833330","name":"Al Hajj Ashur"},{"id":"1136533","latitude":"30.15277780","longitude":"48.38750000","name":"Al Hajj Mahmud"},{"id":"1136555","latitude":"31.08805560","longitude":"47.43944440","name":"Al Halla"},{"id":"1136556","latitude":"31.08805560","longitude":"47.43944440","name":"Al Hallah"},{"id":"1136573","latitude":"30.58222220","longitude":"47.78416670","name":"Al Harithah"},{"id":"1136575","latitude":"31.06666670","longitude":"47.41666670","name":"Al Harrah"},{"id":"1136577","latitude":"30.58222220","longitude":"47.78416670","name":"Al Harthah"},{"id":"1136589","latitude":"30.85166670","longitude":"47.55666670","name":"Al Hawafiz\u00cc\u00a7"},{"id":"1136595","latitude":"30.66000000","longitude":"47.76638890","name":"Al Hawtah"},{"id":"1136599","latitude":"30.54583330","longitude":"47.77333330","name":"Al Hayy al Markazi"},{"id":"1136600","latitude":"30.50583330","longitude":"47.77000000","name":"Al Hayyaniyah"},{"id":"1136615","latitude":"31.14472220","longitude":"47.45972220","name":"Al Huraiba"},{"id":"1136616","latitude":"31.14472220","longitude":"47.45972220","name":"Al Huraybah"},{"id":"1136623","latitude":"30.98027780","longitude":"47.31611110","name":"Al Huwair"},{"id":"1136630","latitude":"30.66055560","longitude":"47.76777780","name":"Al Huwayrah"},{"id":"1136631","latitude":"30.98027780","longitude":"47.31611110","name":"Al Huwayr"},{"id":"1136664","latitude":"30.93333330","longitude":"47.28333330","name":"`Ali al Hasan"},{"id":"1136761","latitude":"30.48416670","longitude":"47.83277780","name":"Al Imtihiyah"},{"id":"1136796","latitude":"31.16944440","longitude":"47.43944440","name":"Al Ithsilat"},{"id":"1136808","latitude":"30.11777780","longitude":"47.86861110","name":"Al Jabjud"},{"id":"1136813","latitude":"30.44027780","longitude":"47.90055560","name":"Al Jadidah"},{"id":"1136820","latitude":"30.93333330","longitude":"47.45000000","name":"Al Jala`ah"},{"id":"1136825","latitude":"30.38333330","longitude":"47.73333330","name":"Al Jam`a"},{"id":"1136832","latitude":"30.96666670","longitude":"47.38333330","name":"Al Jasim"},{"id":"1136833","latitude":"31.16555560","longitude":"47.44666670","name":"Al Jawabir"},{"id":"1136834","latitude":"31.16555560","longitude":"47.44666670","name":"Al Jawa'ir"},{"id":"1136836","latitude":"31.16555560","longitude":"47.44666670","name":"Al Jawayir"},{"id":"1136840","latitude":"30.58972220","longitude":"47.79333330","name":"Al Jawiyah"},{"id":"1136847","latitude":"30.58333330","longitude":"47.80000000","name":"Al Jazirah al `Ulya"},{"id":"1136848","latitude":"30.62861110","longitude":"47.76638890","name":"Al Jazirah ar Rabi`ah"},{"id":"1136849","latitude":"30.61750000","longitude":"47.77472220","name":"Al Jazirah ath Thaniyah"},{"id":"1136855","latitude":"30.72083330","longitude":"47.71833330","name":"Al Jirahi"},{"id":"1136860","latitude":"30.54333330","longitude":"47.80583330","name":"Al Jubaylah"},{"id":"1136862","latitude":"30.38333330","longitude":"47.73333330","name":"Al Jum`ah"},{"id":"1136863","latitude":"30.52055560","longitude":"47.79666670","name":"Al Jumhuriyah"},{"id":"1136887","latitude":"30.57027780","longitude":"47.72333330","name":"Al Karmah"},{"id":"1136891","latitude":"30.18333330","longitude":"47.66666670","name":"Al Karyan"},{"id":"1136897","latitude":"30.55583330","longitude":"47.75333330","name":"Al Kazirah"},{"id":"1136898","latitude":"30.55583330","longitude":"47.75333330","name":"Al Kazizah"},{"id":"1136916","latitude":"30.44666670","longitude":"48.09777780","name":"Al Khasasif"},{"id":"1136918","latitude":"30.95000000","longitude":"47.30000000","name":"Al Khass"},{"id":"1136921","latitude":"30.31666670","longitude":"48.18333330","name":"Al Khawrah"},{"id":"1136922","latitude":"30.65000000","longitude":"47.76666670","name":"Al Khawrajah"},{"id":"1136930","latitude":"30.31666670","longitude":"48.18333330","name":"Al Khora"},{"id":"1136937","latitude":"30.18333330","longitude":"48.40333330","name":"Al Khushnam"},{"id":"1136947","latitude":"31.16388890","longitude":"47.34500000","name":"Al Kuray"},{"id":"1136950","latitude":"30.28333330","longitude":"47.60000000","name":"Al Kuraytiyah"},{"id":"1136957","latitude":"30.55166670","longitude":"47.79722220","name":"Al Kut al Faranji"},{"id":"1136963","latitude":"30.79361110","longitude":"47.60666670","name":"Al Lafiyah"},{"id":"1136970","latitude":"30.59250000","longitude":"47.75194440","name":"Al Latif"},{"id":"1136972","latitude":"30.63333330","longitude":"47.40000000","name":"`Allawi"},{"id":"1136976","latitude":"30.63138890","longitude":"47.75027780","name":"Al Lishman"},{"id":"1136984","latitude":"30.59222220","longitude":"47.67250000","name":"Al Ma`dan"},{"id":"1136989","latitude":"30.96527780","longitude":"47.25500000","name":"Al Madina"},{"id":"1136990","latitude":"30.96527780","longitude":"47.25500000","name":"Al Madinah"},{"id":"1136998","latitude":"30.29611110","longitude":"48.28527780","name":"Al Mahilah"},{"id":"1137003","latitude":"30.50472220","longitude":"47.85333330","name":"Al Mahraqah"},{"id":"1137010","latitude":"30.61194440","longitude":"47.75083330","name":"Al Majidiyah"},{"id":"1137014","latitude":"30.51666670","longitude":"47.81666670","name":"Al Makinah"},{"id":"1137023","latitude":"30.55166670","longitude":"47.79722220","name":"Al Ma`qil"},{"id":"1137035","latitude":"31.12666670","longitude":"47.51111110","name":"Al Matla`"},{"id":"1137036","latitude":"30.39527780","longitude":"48.16861110","name":"Al Matu`ah"},{"id":"1137047","latitude":"30.52277780","longitude":"47.83555560","name":"Al Mazlaq"},{"id":"1137052","latitude":"31.06333330","longitude":"47.33861110","name":"Al Mi`dan"},{"id":"1137057","latitude":"30.63138890","longitude":"47.75027780","name":"Al Mishan"},{"id":"1137063","latitude":"30.65000000","longitude":"47.75000000","name":"Al Mu`aydi"},{"id":"1137096","latitude":"30.39527780","longitude":"48.16861110","name":"Al Mutaww\u00c4\u00b1`ah"},{"id":"1137101","latitude":"31.02000000","longitude":"47.45333330","name":"Al Muzaira"},{"id":"1137102","latitude":"31.02000000","longitude":"47.45333330","name":"Al Muzayr\u00c4\u00b1`ah"},{"id":"1137103","latitude":"31.02000000","longitude":"47.45333330","name":"Al Muzayrah"},{"id":"1137123","latitude":"30.95333330","longitude":"47.17500000","name":"Al Qal`ah"},{"id":"1137137","latitude":"30.34861110","longitude":"48.17500000","name":"Al Qat`ah"},{"id":"1137143","latitude":"30.34861110","longitude":"48.17500000","name":"Al Qit`ah"},{"id":"1137146","latitude":"31.14472220","longitude":"47.38861110","name":"Al Qubaiba"},{"id":"1137147","latitude":"31.14472220","longitude":"47.38861110","name":"Al Qubaybah"},{"id":"1137148","latitude":"31.14472220","longitude":"47.38861110","name":"Al Qubayb"},{"id":"1137151","latitude":"31.26666670","longitude":"47.23333330","name":"Al Qubur"},{"id":"1137154","latitude":"31.01583330","longitude":"47.43055560","name":"Al Qurna"},{"id":"1137155","latitude":"31.01583330","longitude":"47.43055560","name":"Al Qurnah"},{"id":"1137156","latitude":"30.28333330","longitude":"47.60000000","name":"Al Qurtiyah"},{"id":"1137159","latitude":"29.91666670","longitude":"48.53333330","name":"Al Qushlah"},{"id":"1137178","latitude":"31.11666670","longitude":"47.43333330","name":"Al Sih"},{"id":"1137207","latitude":"30.46250000","longitude":"47.86527780","name":"Al `Utaykah"},{"id":"1137208","latitude":"31.16944440","longitude":"47.43944440","name":"Al Uthaylat"},{"id":"1137215","latitude":"30.48305560","longitude":"47.85722220","name":"Al `Uwaysan"},{"id":"1137219","latitude":"30.47638890","longitude":"47.83861110","name":"Al `Uz\u00cc\u00a7miyah"},{"id":"1137220","latitude":"30.81666670","longitude":"47.56666670","name":"Alwa"},{"id":"1137222","latitude":"30.81666670","longitude":"47.56666670","name":"`Alwah"},{"id":"1137226","latitude":"30.57166670","longitude":"47.74583330","name":"Al Waki"},{"id":"1137248","latitude":"30.30000000","longitude":"48.30000000","name":"Al Wasiliyah"},{"id":"1137249","latitude":"30.30000000","longitude":"48.30000000","name":"Al Wasiliyeh"},{"id":"1137251","latitude":"30.33333330","longitude":"48.25000000","name":"`Alwat al Fasil Saiba"},{"id":"1137260","latitude":"30.45333330","longitude":"47.93305560","name":"(( Al Yahudi ))"},{"id":"1137261","latitude":"30.46083330","longitude":"47.94500000","name":"(( Al Yahudiyah ))"},{"id":"1137313","latitude":"30.75138890","longitude":"47.65194440","name":"`Amman"},{"id":"1137324","latitude":"30.07777780","longitude":"48.41611110","name":"`Amud Dafi'"},{"id":"1137344","latitude":"30.45000000","longitude":"47.90000000","name":"(( An Naelah ))"},{"id":"1137359","latitude":"30.81638890","longitude":"47.60500000","name":"An Nashwah"},{"id":"1137549","latitude":"30.91666670","longitude":"47.31666670","name":"Aradha"},{"id":"1137605","latitude":"30.53222220","longitude":"47.82527780","name":"Ar Rabbat"},{"id":"1137610","latitude":"30.35944440","longitude":"47.40444440","name":"Ar Rafa`iya"},{"id":"1137611","latitude":"30.28333330","longitude":"47.80000000","name":"Ar Rafidhiya"},{"id":"1137612","latitude":"30.28333330","longitude":"47.80000000","name":"Ar Rafidiyah"},{"id":"1137613","latitude":"30.35944440","longitude":"47.40444440","name":"Ar Rafi`iyah"},{"id":"1137622","latitude":"30.57388890","longitude":"47.78833330","name":"Ar Ramlah"},{"id":"1137625","latitude":"31.03722220","longitude":"47.42888890","name":"Arrar"},{"id":"1137630","latitude":"30.62888890","longitude":"47.21027780","name":"Ar Ratawi"},{"id":"1137638","latitude":"30.53222220","longitude":"47.82527780","name":"Ar Ribat"},{"id":"1137639","latitude":"30.51666670","longitude":"47.83333330","name":"Ar Ribat as Saghir"},{"id":"1137649","latitude":"30.57694440","longitude":"47.35500000","name":"Ar Rumaila"},{"id":"1137650","latitude":"30.27416670","longitude":"47.34972220","name":"Ar Rumaylah"},{"id":"1137663","latitude":"36.86305560","longitude":"43.84138890","name":"Artun"},{"id":"1137664","latitude":"29.98305560","longitude":"48.46361110","name":"ArundKinar"},{"id":"1137687","latitude":"30.51833330","longitude":"47.84027780","name":"Ashar"},{"id":"1137712","latitude":"30.94944440","longitude":"47.46500000","name":"Ash Shabaziyah"},{"id":"1137715","latitude":"30.27388890","longitude":"48.31416670","name":"Ash Shabiji"},{"id":"1137716","latitude":"31.13333330","longitude":"47.33333330","name":"Ash Shaffaniyah"},{"id":"1137717","latitude":"30.85611110","longitude":"47.52861110","name":"Ash Shafi"},{"id":"1137721","latitude":"30.80250000","longitude":"47.60194440","name":"Ash Shahban"},{"id":"1137723","latitude":"30.98694440","longitude":"47.44833330","name":"Ash Shahin"},{"id":"1137738","latitude":"30.98694440","longitude":"47.44833330","name":"Ash Shanin"},{"id":"1137783","latitude":"30.39694440","longitude":"47.60777780","name":"Ash Shu`aybah al Qadimah"},{"id":"1137784","latitude":"30.39694440","longitude":"47.60777780","name":"Ash Shu`aybah"},{"id":"1137797","latitude":"30.96166670","longitude":"47.49444440","name":"Ash Shuwayyib"},{"id":"1137800","latitude":"31.03333330","longitude":"47.30000000","name":"Asian"},{"id":"1137804","latitude":"30.51833330","longitude":"47.84027780","name":"Askar"},{"id":"1137817","latitude":"31.03333330","longitude":"47.30000000","name":"Aslan"},{"id":"1137885","latitude":"30.46388890","longitude":"47.93916670","name":"As Sanqar"},{"id":"1137887","latitude":"31.20000000","longitude":"47.41666670","name":"As Sarifah"},{"id":"1137888","latitude":"30.48833330","longitude":"47.85138890","name":"As Sarraji"},{"id":"1137890","latitude":"30.33333330","longitude":"48.25000000","name":"As Saybah"},{"id":"1137952","latitude":"30.33333330","longitude":"48.25000000","name":"As Sibah"},{"id":"1137953","latitude":"31.11666670","longitude":"47.43333330","name":"As Sih"},{"id":"1137960","latitude":"30.36472220","longitude":"47.60472220","name":"As Sudayrah"},{"id":"1137972","latitude":"30.96166670","longitude":"47.49444440","name":"As Suwayb"},{"id":"1137973","latitude":"30.98333330","longitude":"47.43333330","name":"As Suwayd\u00c4\u00b1`"},{"id":"1137975","latitude":"30.85722220","longitude":"47.55166670","name":"As Suwayjid"},{"id":"1137979","latitude":"30.96166670","longitude":"47.49444440","name":"As Suwayyib"},{"id":"1138037","latitude":"30.53277780","longitude":"47.85694440","name":"At Tannumah"},{"id":"1138049","latitude":"30.47333330","longitude":"47.49166670","name":"At Tuba"},{"id":"1138050","latitude":"30.44777780","longitude":"47.65722220","name":"At Tubah al Hamra'"},{"id":"1138051","latitude":"30.47333330","longitude":"47.49166670","name":"At Tubah"},{"id":"1138054","latitude":"30.51944440","longitude":"47.82416670","name":"At Tuwaysah"},{"id":"1138061","latitude":"31.23333330","longitude":"47.43333330","name":"Aufi"},{"id":"1138142","latitude":"31.23333330","longitude":"47.43333330","name":"`Awfi"},{"id":"1138147","latitude":"31.00000000","longitude":"47.41666670","name":"`Awjan"},{"id":"1138148","latitude":"30.99416670","longitude":"47.38361110","name":"`Awjan Basha"},{"id":"1138149","latitude":"31.00000000","longitude":"47.41666670","name":"Awjan Pasha"},{"id":"1138285","latitude":"30.50000000","longitude":"47.88333330","name":"Az Zayn"},{"id":"1138290","latitude":"30.30833330","longitude":"48.26416670","name":"Az Ziyad"},{"id":"1138291","latitude":"30.30833330","longitude":"48.26416670","name":"Az Ziyadiyah"},{"id":"1138293","latitude":"30.38916670","longitude":"47.70805560","name":"Az Zubair"},{"id":"1138295","latitude":"30.38916670","longitude":"47.70805560","name":"Az Zubayr"},{"id":"1138296","latitude":"30.38916670","longitude":"47.70805560","name":"Az Zuhair"},{"id":"1138297","latitude":"30.48611110","longitude":"47.87194440","name":"Az Zuhayr"},{"id":"1138316","latitude":"30.66722220","longitude":"47.76777780","name":"Bab al Jaliya"},{"id":"1138330","latitude":"30.66722220","longitude":"47.76777780","name":"Bab Jali`"},{"id":"1138331","latitude":"30.66722220","longitude":"47.76777780","name":"Bab Jaliyah"},{"id":"1138336","latitude":"30.45777780","longitude":"47.99666670","name":"Bab Sulayman"},{"id":"1138339","latitude":"30.44138890","longitude":"47.98972220","name":"Bab Umm at Tawil"},{"id":"1138340","latitude":"30.65000000","longitude":"47.80000000","name":"Bab Zayd"},{"id":"1138367","latitude":"30.54083330","longitude":"47.79777780","name":"Badran"},{"id":"1138447","latitude":"30.33333330","longitude":"48.26666670","name":"Bahriya"},{"id":"1138479","latitude":"30.90388890","longitude":"47.51555560","name":"Bait Saiyid Nur"},{"id":"1138484","latitude":"29.91611110","longitude":"48.51138890","name":"Bajajirah"},{"id":"1138537","latitude":"30.45833330","longitude":"47.87083330","name":"Balad as Sayyid"},{"id":"1138541","latitude":"30.46333330","longitude":"47.87000000","name":"Balad Majram"},{"id":"1138542","latitude":"30.46333330","longitude":"47.87000000","name":"Balad Makhram"},{"id":"1138543","latitude":"30.46611110","longitude":"47.88166670","name":"Balad Muhayjaran"},{"id":"1138544","latitude":"30.46611110","longitude":"47.88166670","name":"Balad Muhayjiran"},{"id":"1138581","latitude":"30.43833330","longitude":"48.07166670","name":"Baljan"},{"id":"1138582","latitude":"30.43833330","longitude":"48.07166670","name":"Baljaniya"},{"id":"1138583","latitude":"30.43833330","longitude":"48.07166670","name":"Baljaniyeh"},{"id":"1138584","latitude":"30.43333330","longitude":"47.98333330","name":"Baljari"},{"id":"1138615","latitude":"30.43833330","longitude":"48.07166670","name":"Balyaniyeh"},{"id":"1138744","latitude":"30.48277780","longitude":"47.78472220","name":"Barafi`iyah"},{"id":"1138782","latitude":"30.56916670","longitude":"47.81388890","name":"Barbarah"},{"id":"1138842","latitude":"31.06666670","longitude":"47.38333330","name":"Bariz"},{"id":"1138845","latitude":"30.35000000","longitude":"47.56666670","name":"Barjisiya"},{"id":"1138846","latitude":"30.35000000","longitude":"47.56666670","name":"Barjisiyah"},{"id":"1138877","latitude":"31.06666670","longitude":"47.38333330","name":"Barriz"},{"id":"1138958","latitude":"30.49416670","longitude":"47.81916670","name":"Basra"},{"id":"1138959","latitude":"30.49416670","longitude":"47.81916670","name":"Basrah"},{"id":"1138963","latitude":"30.49416670","longitude":"47.81916670","name":"Bassora"},{"id":"1138964","latitude":"30.49416670","longitude":"47.81916670","name":"Bassorah"},{"id":"1138965","latitude":"30.49416670","longitude":"47.81916670","name":"Bassra"},{"id":"1139082","latitude":"30.36000000","longitude":"47.72083330","name":"Bayt Khalaf"},{"id":"1139083","latitude":"30.41666670","longitude":"48.15000000","name":"Bayt Mubarak"},{"id":"1139085","latitude":"30.78555560","longitude":"47.60888890","name":"Bayt Rida'"},{"id":"1139088","latitude":"30.90388890","longitude":"47.51555560","name":"Bayt Sayyid Nur"},{"id":"1139240","latitude":"30.70000000","longitude":"47.77000000","name":"Biban"},{"id":"1139359","latitude":"30.56916670","longitude":"47.81388890","name":"Birbara"},{"id":"1139360","latitude":"30.56916670","longitude":"47.81388890","name":"Birbarah"},{"id":"1139383","latitude":"30.35000000","longitude":"47.56666670","name":"Birjisiya"},{"id":"1139527","latitude":"30.44138890","longitude":"48.09361110","name":"Buljaniyah"},{"id":"1139560","latitude":"30.49416670","longitude":"47.81916670","name":"Busra"},{"id":"1139561","latitude":"30.49416670","longitude":"47.81916670","name":"Busrah"},{"id":"1139562","latitude":"30.49416670","longitude":"47.81916670","name":"Bussora"},{"id":"1139617","latitude":"30.66722220","longitude":"47.76777780","name":"Buyut Bab Jalir"},{"id":"1139628","latitude":"30.57861110","longitude":"47.80972220","name":"Chabaisi"},{"id":"1139652","latitude":"30.91833330","longitude":"47.51166670","name":"Chalabiya"},{"id":"1139653","latitude":"30.91833330","longitude":"47.51166670","name":"Chalabiyah"},{"id":"1139754","latitude":"30.93333330","longitude":"47.20000000","name":"Chanahiyan"},{"id":"1139907","latitude":"30.40000000","longitude":"47.55000000","name":"Chuwaibda"},{"id":"1139908","latitude":"30.40000000","longitude":"47.55000000","name":"Chuwaibdah"},{"id":"1139911","latitude":"30.40000000","longitude":"47.55000000","name":"Chuwaybidah"},{"id":"1139951","latitude":"30.41666670","longitude":"47.98333330","name":"Dahriya"},{"id":"1139952","latitude":"30.41666670","longitude":"47.98333330","name":"Dahriyah"},{"id":"1139961","latitude":"30.79666670","longitude":"47.57777780","name":"Dair"},{"id":"1139962","latitude":"30.79583330","longitude":"47.62055560","name":"Dair Malaihan"},{"id":"1140223","latitude":"30.95277780","longitude":"47.48777780","name":"Dawah"},{"id":"1140231","latitude":"30.28333330","longitude":"48.30000000","name":"Dawasir"},{"id":"1140245","latitude":"30.14944440","longitude":"48.36694440","name":"Dawrah"},{"id":"1140251","latitude":"30.14944440","longitude":"48.36694440","name":"Dawrat Ibn Ibrahim"},{"id":"1140269","latitude":"30.14944440","longitude":"48.36694440","name":"Dawwara"},{"id":"1140270","latitude":"30.14944440","longitude":"48.36694440","name":"Dawwarah"},{"id":"1140278","latitude":"29.99861110","longitude":"48.45083330","name":"Dayir"},{"id":"1140289","latitude":"30.79666670","longitude":"47.57777780","name":"Dayr"},{"id":"1140295","latitude":"30.79583330","longitude":"47.62055560","name":"Dayr Mulayhan"},{"id":"1140452","latitude":"30.33333330","longitude":"47.71666670","name":"Dirhamiyah"},{"id":"1140531","latitude":"30.95277780","longitude":"47.48777780","name":"Dowa"},{"id":"1140540","latitude":"30.50000000","longitude":"47.98333330","name":"Du`aiji"},{"id":"1140543","latitude":"30.50000000","longitude":"47.98333330","name":"Du`ayji"},{"id":"1140568","latitude":"30.48222220","longitude":"47.98000000","name":"Duhaymi Jasim"},{"id":"1140616","latitude":"31.06666670","longitude":"47.38333330","name":"Dummagh"},{"id":"1140627","latitude":"30.14944440","longitude":"48.36694440","name":"Durah"},{"id":"1140630","latitude":"30.14944440","longitude":"48.36694440","name":"Durat Ibn Ibrahim"},{"id":"1140633","latitude":"30.44805560","longitude":"47.81027780","name":"Dur Hayy ash Shuhada'"},{"id":"1140650","latitude":"30.95277780","longitude":"47.48777780","name":"Duwa"},{"id":"1140663","latitude":"30.50000000","longitude":"47.98333330","name":"Duwayji"},{"id":"1140686","latitude":"30.98027780","longitude":"47.31611110","name":"El Huair"},{"id":"1140687","latitude":"30.98027780","longitude":"47.31611110","name":"El Huir"},{"id":"1140693","latitude":"30.38916670","longitude":"47.70805560","name":"El Zubair"},{"id":"1140705","latitude":"30.47333330","longitude":"47.49166670","name":"Et Tobah"},{"id":"1140706","latitude":"30.47333330","longitude":"47.49166670","name":"Etwab"},{"id":"1140733","latitude":"30.45000000","longitude":"47.90000000","name":"(( Faj`ah ))"},{"id":"1140734","latitude":"30.47055560","longitude":"47.89833330","name":"Fajjat al `Arab"},{"id":"1140763","latitude":"29.96805560","longitude":"48.46722220","name":"Fao"},{"id":"1140764","latitude":"29.96805560","longitude":"48.46722220","name":"Fao Terminal"},{"id":"1140827","latitude":"29.98333330","longitude":"48.46666670","name":"Fava"},{"id":"1140832","latitude":"30.57083330","longitude":"47.79222220","name":"Fayruziyah"},{"id":"1140859","latitude":"30.57083330","longitude":"47.79222220","name":"Firuziya"},{"id":"1140860","latitude":"30.57083330","longitude":"47.79222220","name":"Firuziyah"},{"id":"1140895","latitude":"30.59166670","longitude":"47.66083330","name":"Gah Ashab"},{"id":"1140897","latitude":"30.77916670","longitude":"47.63416670","name":"Gah Falisi"},{"id":"1141075","latitude":"31.05000000","longitude":"47.35000000","name":"Ghannam"},{"id":"1141089","latitude":"30.73333330","longitude":"47.73333330","name":"Ghatraf"},{"id":"1141117","latitude":"30.73333330","longitude":"47.73333330","name":"Ghitraf"},{"id":"1141172","latitude":"30.53277780","longitude":"47.84388890","name":"Girdalan"},{"id":"1141402","latitude":"30.28333330","longitude":"47.60000000","name":"Guraitiya"},{"id":"1141424","latitude":"30.56666670","longitude":"47.76666670","name":"Gurmat Ali"},{"id":"1141457","latitude":"30.62527780","longitude":"47.65083330","name":"Habib Shawi"},{"id":"1141508","latitude":"30.48333330","longitude":"47.88333330","name":"Haffar"},{"id":"1141631","latitude":"29.94083330","longitude":"48.51416670","name":"Hajj `Isa"},{"id":"1141641","latitude":"30.80694440","longitude":"47.59138890","name":"Hajj Mansur"},{"id":"1141642","latitude":"29.93333330","longitude":"48.45055560","name":"Hajj Muhammad"},{"id":"1141689","latitude":"31.08805560","longitude":"47.43944440","name":"Halla"},{"id":"1141690","latitude":"31.08805560","longitude":"47.43944440","name":"Hallah"},{"id":"1141788","latitude":"31.03333330","longitude":"47.30000000","name":"Hamlah"},{"id":"1141800","latitude":"30.66833330","longitude":"47.75111110","name":"Hamrina"},{"id":"1141801","latitude":"30.66833330","longitude":"47.75111110","name":"Hamrinah"},{"id":"1141802","latitude":"30.66833330","longitude":"47.75111110","name":"Hamrinan"},{"id":"1141804","latitude":"30.08722220","longitude":"48.41166670","name":"Hamtah"},{"id":"1141873","latitude":"31.14472220","longitude":"47.45972220","name":"Haraibah"},{"id":"1141910","latitude":"30.71861110","longitude":"47.72083330","name":"Hartha"},{"id":"1141911","latitude":"30.71861110","longitude":"47.72083330","name":"Harthah"},{"id":"1141925","latitude":"30.81666670","longitude":"46.51666670","name":"Hasamah"},{"id":"1142048","latitude":"30.95000000","longitude":"47.30000000","name":"Hash Ibn Mansur"},{"id":"1142153","latitude":"30.95000000","longitude":"47.30000000","name":"Hawsh Ibn Mansur"},{"id":"1142194","latitude":"30.48833330","longitude":"47.78666670","name":"Hayy al Husayn"},{"id":"1142195","latitude":"30.65666670","longitude":"47.74222220","name":"Hayy al Intisar"},{"id":"1142201","latitude":"30.32194440","longitude":"47.72055560","name":"Hayy al Ma`amal"},{"id":"1142204","latitude":"30.45500000","longitude":"47.80527780","name":"Hayy al Qabalah"},{"id":"1142206","latitude":"30.46833330","longitude":"47.78277780","name":"Hayy al Yarmuk"},{"id":"1142209","latitude":"30.60055560","longitude":"47.75194440","name":"Hayy ar Risalah"},{"id":"1142287","latitude":"31.14472220","longitude":"47.45972220","name":"Hiraibah"},{"id":"1142288","latitude":"31.14472220","longitude":"47.45972220","name":"Hiraiba"},{"id":"1142349","latitude":"31.25000000","longitude":"47.45000000","name":"Hubaitar"},{"id":"1142352","latitude":"31.25000000","longitude":"47.45000000","name":"Hubaytar"},{"id":"1142394","latitude":"31.11138890","longitude":"47.45055560","name":"Humayun"},{"id":"1142405","latitude":"30.47138890","longitude":"47.86722220","name":"Huraybid"},{"id":"1142452","latitude":"30.81666670","longitude":"46.51666670","name":"Husamah"},{"id":"1142534","latitude":"30.75000000","longitude":"47.68333330","name":"Husniyah"},{"id":"1142538","latitude":"30.98027780","longitude":"47.31611110","name":"Huwair"},{"id":"1142541","latitude":"30.91666670","longitude":"47.48333330","name":"Huwaisa"},{"id":"1142555","latitude":"30.98027780","longitude":"47.31611110","name":"Huwayr"},{"id":"1142556","latitude":"30.91666670","longitude":"47.48333330","name":"Huwaysah"},{"id":"1142562","latitude":"30.91666670","longitude":"47.48333330","name":"Huwayzah"},{"id":"1142606","latitude":"30.05750000","longitude":"48.42277780","name":"Ibrahim"},{"id":"1142644","latitude":"30.50000000","longitude":"47.80000000","name":"Ikhwat Razana"},{"id":"1142673","latitude":"30.47277780","longitude":"47.84305560","name":"Imam ash Shu`aj"},{"id":"1142702","latitude":"30.63333330","longitude":"47.76666670","name":"Imam Muhammad Jawad"},{"id":"1142739","latitude":"30.44138890","longitude":"48.09361110","name":"Industry Island"},{"id":"1142776","latitude":"31.06444440","longitude":"47.35833330","name":"Ishan al Mashwah"},{"id":"1142777","latitude":"31.06444440","longitude":"47.35833330","name":"Ishan al Mashwan"},{"id":"1142826","latitude":"30.47333330","longitude":"47.49166670","name":"Itoba"},{"id":"1142916","latitude":"30.91833330","longitude":"47.51166670","name":"Jalabiyah"},{"id":"1142919","latitude":"30.95333330","longitude":"47.17500000","name":"Jala"},{"id":"1142922","latitude":"30.94777780","longitude":"47.25638890","name":"Jalal"},{"id":"1143017","latitude":"31.13166670","longitude":"47.51472220","name":"Jaraiyah"},{"id":"1143022","latitude":"31.13166670","longitude":"47.51472220","name":"Jarayyah"},{"id":"1143035","latitude":"31.13166670","longitude":"47.51472220","name":"Jariyah"},{"id":"1143062","latitude":"30.62277780","longitude":"47.73888890","name":"Jasim al Burghuth"},{"id":"1143077","latitude":"30.48222220","longitude":"47.98000000","name":"Jasim"},{"id":"1143127","latitude":"30.99138890","longitude":"47.49916670","name":"Jazirat al Hamra"},{"id":"1143128","latitude":"30.58805560","longitude":"47.70333330","name":"Jazirat al Harj"},{"id":"1143166","latitude":"30.97527780","longitude":"47.45305560","name":"Jiliyah"},{"id":"1143256","latitude":"31.13166670","longitude":"47.51472220","name":"Juray`ah"},{"id":"1143270","latitude":"30.40000000","longitude":"47.55000000","name":"Juwaybidah"},{"id":"1143286","latitude":"30.57861110","longitude":"47.80972220","name":"Kabasi"},{"id":"1143315","latitude":"31.16555560","longitude":"47.44666670","name":"Kaff al Jawayir"},{"id":"1143321","latitude":"31.16555560","longitude":"47.44666670","name":"Kafr al Jawayir"},{"id":"1143681","latitude":"30.53277780","longitude":"47.84388890","name":"Kardalan"},{"id":"1143744","latitude":"30.56666670","longitude":"47.76666670","name":"Karmat `Ali"},{"id":"1143793","latitude":"30.70861110","longitude":"47.75416670","name":"Kataiban"},{"id":"1143968","latitude":"30.91833330","longitude":"47.51166670","name":"Khalabiya"},{"id":"1144034","latitude":"30.89361110","longitude":"47.52194440","name":"Khaliliyah"},{"id":"1144035","latitude":"30.89361110","longitude":"47.52194440","name":"Khaliliya"},{"id":"1144060","latitude":"30.94027780","longitude":"47.29416670","name":"Khamisiyah"},{"id":"1144185","latitude":"30.71666670","longitude":"47.75000000","name":"Khara'ib"},{"id":"1144222","latitude":"30.33333330","longitude":"48.26666670","name":"Kharm al Bahriya"},{"id":"1144225","latitude":"30.31666670","longitude":"48.28333330","name":"Kharm az Ziyadiyah"},{"id":"1144240","latitude":"30.44666670","longitude":"48.09777780","name":"Khasasif"},{"id":"1144245","latitude":"30.18333330","longitude":"48.40333330","name":"Khashnam"},{"id":"1144274","latitude":"29.32055560","longitude":"46.64472220","name":"Khawr Naj"},{"id":"1144291","latitude":"30.88138890","longitude":"47.53250000","name":"Khaz`aliyah"},{"id":"1144292","latitude":"30.88138890","longitude":"47.53250000","name":"Khaz Aliya"},{"id":"1144353","latitude":"31.13333330","longitude":"47.45000000","name":"Khidr"},{"id":"1144429","latitude":"31.13333330","longitude":"47.45000000","name":"Khudhr"},{"id":"1144431","latitude":"31.13333330","longitude":"47.45000000","name":"Khudr"},{"id":"1144436","latitude":"30.94027780","longitude":"47.29416670","name":"Khumaisa"},{"id":"1144439","latitude":"30.94027780","longitude":"47.29416670","name":"Khumaysah"},{"id":"1144451","latitude":"30.47138890","longitude":"47.86722220","name":"Khuraybit"},{"id":"1144492","latitude":"30.57861110","longitude":"47.80972220","name":"Kibasi"},{"id":"1144530","latitude":"30.53277780","longitude":"47.84388890","name":"Kirdalan"},{"id":"1144711","latitude":"30.44555560","longitude":"47.90222220","name":"Kuj al Mufti"},{"id":"1144887","latitude":"30.16611110","longitude":"48.38305560","name":"Kut `Abd Allah al Hajj Mahmud"},{"id":"1144888","latitude":"30.16611110","longitude":"48.38305560","name":"Kut `Abd Allah al Haj Mahmud"},{"id":"1144889","latitude":"30.16722220","longitude":"48.37750000","name":"Kut `Abd Allah"},{"id":"1144890","latitude":"30.16611110","longitude":"48.38305560","name":"Kut `Abdullah al Haj Mahmud"},{"id":"1144892","latitude":"30.12277780","longitude":"48.37583330","name":"Kut Abu `Ikab"},{"id":"1144894","latitude":"30.17583330","longitude":"48.39500000","name":"Kut ad Dawarijah"},{"id":"1144895","latitude":"30.17583330","longitude":"48.39500000","name":"Kut ad Dawarja"},{"id":"1144898","latitude":"30.70861110","longitude":"47.75416670","name":"Kutaiban"},{"id":"1144901","latitude":"30.23527780","longitude":"48.35916670","name":"Kut al Bandar"},{"id":"1144902","latitude":"30.23527780","longitude":"48.35916670","name":"Kut al Bander"},{"id":"1144903","latitude":"30.45972220","longitude":"47.90500000","name":"Kut al Faragh"},{"id":"1144904","latitude":"30.45972220","longitude":"47.90500000","name":"Kut al Faraj"},{"id":"1144905","latitude":"30.45972220","longitude":"47.90500000","name":"Kut al Faral"},{"id":"1144907","latitude":"29.96527780","longitude":"48.49166670","name":"Kut al Hajj Shayd"},{"id":"1144908","latitude":"29.95000000","longitude":"48.50000000","name":"Kut al Hau Basluu"},{"id":"1144911","latitude":"30.51666670","longitude":"47.86666670","name":"Kut al Jaw'"},{"id":"1144912","latitude":"30.19833330","longitude":"48.38888890","name":"Kut al Khalifah"},{"id":"1144913","latitude":"30.44555560","longitude":"47.90222220","name":"Kut al Mufti"},{"id":"1144914","latitude":"30.13027780","longitude":"48.37555560","name":"Kut an Najdi"},{"id":"1144915","latitude":"30.85583330","longitude":"47.55194440","name":"Kut ash Shakari"},{"id":"1144916","latitude":"30.85583330","longitude":"47.55194440","name":"Kut ash Shikari"},{"id":"1144917","latitude":"30.51833330","longitude":"47.80916670","name":"Kut as Saiyid"},{"id":"1144918","latitude":"30.47916670","longitude":"47.94583330","name":"Kut as Sawadi"},{"id":"1144919","latitude":"30.46333330","longitude":"47.91388890","name":"Kut as Sayyid"},{"id":"1144920","latitude":"30.47916670","longitude":"47.94583330","name":"Kut as Suwaydi"},{"id":"1144921","latitude":"30.70861110","longitude":"47.75416670","name":"Kutayban"},{"id":"1144922","latitude":"30.50000000","longitude":"47.88333330","name":"Kut az Zair"},{"id":"1144923","latitude":"30.50000000","longitude":"47.88333330","name":"Kut az Zayn"},{"id":"1144924","latitude":"30.50000000","longitude":"47.88333330","name":"Kut az Zir"},{"id":"1144926","latitude":"30.23527780","longitude":"48.35916670","name":"Kut Bandar"},{"id":"1144927","latitude":"30.03138890","longitude":"48.42416670","name":"Kut Bu Ghaymish"},{"id":"1144928","latitude":"30.43083330","longitude":"47.95722220","name":"Kut Dawawih"},{"id":"1144929","latitude":"30.43861110","longitude":"47.93500000","name":"Kut Daykari"},{"id":"1144930","latitude":"30.43861110","longitude":"47.93500000","name":"Kut Dhikri"},{"id":"1144931","latitude":"30.55166670","longitude":"47.79722220","name":"Kut el Farangi"},{"id":"1144932","latitude":"30.73861110","longitude":"47.74194440","name":"Kut Falawan"},{"id":"1144933","latitude":"30.43083330","longitude":"47.95722220","name":"Kut Furayh"},{"id":"1144934","latitude":"30.51666670","longitude":"47.81666670","name":"Kut Hamid"},{"id":"1144935","latitude":"30.44888890","longitude":"47.91638890","name":"Kut Ibrahim"},{"id":"1144936","latitude":"30.19833330","longitude":"48.38888890","name":"Kut Khalifah"},{"id":"1144937","latitude":"30.19833330","longitude":"48.38888890","name":"Kut Khalifa"},{"id":"1144939","latitude":"30.03000000","longitude":"48.40944440","name":"Kut Naghaimish"},{"id":"1144940","latitude":"30.15250000","longitude":"48.39111110","name":"Kut Nazir `Ali"},{"id":"1144941","latitude":"30.03000000","longitude":"48.40944440","name":"Kut Nughaymish"},{"id":"1144942","latitude":"30.47916670","longitude":"47.94583330","name":"Kut Sawadi"},{"id":"1144943","latitude":"30.12777780","longitude":"48.37111110","name":"Kut Shannuf"},{"id":"1144944","latitude":"30.85583330","longitude":"47.55194440","name":"Kut Shukri"},{"id":"1144945","latitude":"30.31944440","longitude":"48.25111110","name":"Kut `Ubayd"},{"id":"1144946","latitude":"30.15250000","longitude":"48.39111110","name":"Kut Za'ir `Ali"},{"id":"1144947","latitude":"30.15250000","longitude":"48.39111110","name":"Kut Zayir `Ali"},{"id":"1144953","latitude":"30.40000000","longitude":"47.55000000","name":"Kuwaybidah"},{"id":"1145058","latitude":"30.63138890","longitude":"47.75027780","name":"Limshan"},{"id":"1145073","latitude":"30.43333330","longitude":"48.01666670","name":"Luqtah"},{"id":"1145081","latitude":"30.70000000","longitude":"47.73333330","name":"Ma`awiya"},{"id":"1145082","latitude":"30.96277780","longitude":"47.23916670","name":"Ma`bar"},{"id":"1145088","latitude":"30.80444440","longitude":"47.60194440","name":"Madaniyah"},{"id":"1145091","latitude":"30.95000000","longitude":"46.95000000","name":"Madar"},{"id":"1145104","latitude":"30.80444440","longitude":"47.60194440","name":"Madinah"},{"id":"1145116","latitude":"30.80444440","longitude":"47.60194440","name":"Madniya"},{"id":"1145121","latitude":"30.77472220","longitude":"47.66111110","name":"Mafati"},{"id":"1145148","latitude":"30.03000000","longitude":"48.40944440","name":"Maghamis"},{"id":"1145154","latitude":"30.55166670","longitude":"47.79722220","name":"Magill"},{"id":"1145155","latitude":"30.55166670","longitude":"47.79722220","name":"Magil"},{"id":"1145158","latitude":"30.75000000","longitude":"47.70000000","name":"Mahairij"},{"id":"1145164","latitude":"30.47361110","longitude":"47.65083330","name":"Mahatah Qatar ash Shu`aybah"},{"id":"1145274","latitude":"30.61194440","longitude":"47.75083330","name":"Maidiya"},{"id":"1145326","latitude":"30.81638890","longitude":"47.60500000","name":"Makhfar Shurtat an Nashwah"},{"id":"1145338","latitude":"30.55166670","longitude":"47.79722220","name":"Makil"},{"id":"1145341","latitude":"30.51666670","longitude":"47.81666670","name":"Makinah"},{"id":"1145342","latitude":"30.51666670","longitude":"47.81666670","name":"Makina"},{"id":"1145366","latitude":"30.79583330","longitude":"47.62055560","name":"Malaihan"},{"id":"1145440","latitude":"30.03472220","longitude":"48.42750000","name":"Ma`mir"},{"id":"1145475","latitude":"30.50888890","longitude":"47.84277780","name":"Manawi al Basha"},{"id":"1145476","latitude":"30.50000000","longitude":"47.85000000","name":"Manawi"},{"id":"1145477","latitude":"30.11666670","longitude":"48.38333330","name":"Manazil al Ghibani"},{"id":"1145481","latitude":"30.26666670","longitude":"48.31666670","name":"Manazil al Khurramiyah"},{"id":"1145482","latitude":"30.26666670","longitude":"48.31666670","name":"Manazil al Khurramiya"},{"id":"1145483","latitude":"30.29611110","longitude":"48.28527780","name":"Manazil al Mahilah"},{"id":"1145484","latitude":"30.29611110","longitude":"48.28527780","name":"Manazil al Mahila"},{"id":"1145485","latitude":"30.27388890","longitude":"48.31416670","name":"Manazil ash Shabiji"},{"id":"1145493","latitude":"30.45416670","longitude":"48.00333330","name":"Manazil"},{"id":"1145546","latitude":"30.31666670","longitude":"47.76666670","name":"<Maqdah>"},{"id":"1145547","latitude":"30.31666670","longitude":"47.76666670","name":"Maqda"},{"id":"1145548","latitude":"30.55166670","longitude":"47.79722220","name":"Ma`qil"},{"id":"1145583","latitude":"30.55166670","longitude":"47.79722220","name":"Margeel Port"},{"id":"1145585","latitude":"30.55166670","longitude":"47.79722220","name":"Margil"},{"id":"1145693","latitude":"31.05611110","longitude":"47.42583330","name":"Mauzah"},{"id":"1145717","latitude":"31.05611110","longitude":"47.42583330","name":"Mawzah"},{"id":"1145720","latitude":"30.19000000","longitude":"48.40083330","name":"Ma`yawiyah"},{"id":"1145745","latitude":"31.02000000","longitude":"47.45333330","name":"Mazera"},{"id":"1145776","latitude":"30.96527780","longitude":"47.25500000","name":"Medina"},{"id":"1145777","latitude":"30.96527780","longitude":"47.25500000","name":"Medineh"},{"id":"1145825","latitude":"30.95000000","longitude":"46.95000000","name":"Midar"},{"id":"1145828","latitude":"30.05000000","longitude":"48.42111110","name":"Mihna Taha"},{"id":"1145851","latitude":"30.59250000","longitude":"47.75194440","name":"Mintaqah al Tif"},{"id":"1145860","latitude":"30.77277780","longitude":"47.60444440","name":"Mintaqat an Nahran"},{"id":"1145861","latitude":"30.77277780","longitude":"47.60444440","name":"Mintaqat an Nahrawan"},{"id":"1145867","latitude":"30.40194440","longitude":"48.17527780","name":"Mir`abul"},{"id":"1145884","latitude":"30.28333330","longitude":"48.31666670","name":"Mirapi"},{"id":"1145940","latitude":"30.44000000","longitude":"47.68555560","name":"Mishrif"},{"id":"1145996","latitude":"30.18527780","longitude":"48.39694440","name":"Mu`aviyeh"},{"id":"1145997","latitude":"30.18527780","longitude":"48.39694440","name":"Mu`awiyah"},{"id":"1146000","latitude":"30.41666670","longitude":"48.15000000","name":"Mubarak House"},{"id":"1146010","latitude":"30.53638890","longitude":"47.80944440","name":"Muftiyah"},{"id":"1146011","latitude":"30.53638890","longitude":"47.80944440","name":"Muftiya"},{"id":"1146123","latitude":"30.63333330","longitude":"47.76666670","name":"Muhammad Jawad"},{"id":"1146167","latitude":"30.46611110","longitude":"47.88166670","name":"Muhayjaran"},{"id":"1146173","latitude":"30.75000000","longitude":"47.70000000","name":"Muhayrij"},{"id":"1146217","latitude":"30.79583330","longitude":"47.62055560","name":"Mulayhin"},{"id":"1146294","latitude":"30.96027780","longitude":"47.33805560","name":"Murid Agha"},{"id":"1146361","latitude":"30.44000000","longitude":"47.68555560","name":"Mushirij"},{"id":"1146363","latitude":"30.44000000","longitude":"47.68555560","name":"Mushrif"},{"id":"1146415","latitude":"31.14833330","longitude":"47.43361110","name":"Muzaibah"},{"id":"1146416","latitude":"31.14833330","longitude":"47.43361110","name":"Muzaibila"},{"id":"1146417","latitude":"31.14833330","longitude":"47.43361110","name":"Muzaibla"},{"id":"1146418","latitude":"31.02000000","longitude":"47.45333330","name":"Muzair`a"},{"id":"1146419","latitude":"31.14833330","longitude":"47.43361110","name":"Muzalbah"},{"id":"1146423","latitude":"31.14833330","longitude":"47.43361110","name":"Muzaybilah"},{"id":"1146424","latitude":"31.02000000","longitude":"47.45333330","name":"Muzayra`ah"},{"id":"1146425","latitude":"31.02000000","longitude":"47.45333330","name":"Muzayr\u00c4\u00b1`ah"},{"id":"1146426","latitude":"31.02000000","longitude":"47.45333330","name":"Muzayrah"},{"id":"1146427","latitude":"31.14833330","longitude":"47.43361110","name":"Muzeibileh"},{"id":"1146428","latitude":"31.02000000","longitude":"47.45333330","name":"Muzeira`ah"},{"id":"1146448","latitude":"30.03000000","longitude":"48.40944440","name":"Naghimis"},{"id":"1146451","latitude":"31.02472220","longitude":"47.42638890","name":"Nahairat"},{"id":"1146454","latitude":"31.02472220","longitude":"47.42638890","name":"Nahayrat"},{"id":"1146457","latitude":"29.94527780","longitude":"48.47111110","name":"Nahi"},{"id":"1146462","latitude":"30.79666670","longitude":"47.57777780","name":"Nahiyat ad Dayr"},{"id":"1146467","latitude":"30.57027780","longitude":"47.72333330","name":"Nahiyat al Karmah"},{"id":"1146482","latitude":"30.75416670","longitude":"47.65555560","name":"Nahr Amr"},{"id":"1146486","latitude":"30.75416670","longitude":"47.65555560","name":"Nahr `Umar"},{"id":"1146487","latitude":"30.75416670","longitude":"47.65555560","name":"Nahr Umr"},{"id":"1146502","latitude":"30.96666670","longitude":"47.40000000","name":"Na`im"},{"id":"1146519","latitude":"31.18250000","longitude":"47.42861110","name":"Nakhash"},{"id":"1146523","latitude":"31.18250000","longitude":"47.42861110","name":"Nakhkrash"},{"id":"1146530","latitude":"31.18250000","longitude":"47.42861110","name":"Nakrash"},{"id":"1146590","latitude":"30.81638890","longitude":"47.60500000","name":"Nashwah"},{"id":"1146591","latitude":"30.81638890","longitude":"47.60500000","name":"Nashwa"},{"id":"1146592","latitude":"30.81638890","longitude":"47.60500000","name":"Nashwd"},{"id":"1146681","latitude":"30.09611110","longitude":"48.39527780","name":"Nazai al Joi"},{"id":"1146701","latitude":"30.09916670","longitude":"48.39222220","name":"Nazl al Jawwi"},{"id":"1146702","latitude":"30.09611110","longitude":"48.39527780","name":"Nazl al Juy"},{"id":"1146721","latitude":"30.81388890","longitude":"47.59583330","name":"Nazl Yasdu"},{"id":"1146780","latitude":"31.02472220","longitude":"47.42638890","name":"Nuhayrat"},{"id":"1146813","latitude":"30.03416670","longitude":"47.92944440","name":"Omolgasr"},{"id":"1147009","latitude":"30.48333330","longitude":"47.86666670","name":"Qabr Agha Ja'far"},{"id":"1147113","latitude":"30.95333330","longitude":"47.17500000","name":"Qal`ah"},{"id":"1147366","latitude":"29.92750000","longitude":"48.51722220","name":"Qal`at Qadyam\u00e1"},{"id":"1147618","latitude":"30.43333330","longitude":"48.01666670","name":"Qariya al Lugta"},{"id":"1147638","latitude":"30.56666670","longitude":"47.76666670","name":"Qarmat `Ali"},{"id":"1147661","latitude":"30.57888890","longitude":"47.73694440","name":"Qaryat `Abd ar Rahman"},{"id":"1147666","latitude":"30.45277780","longitude":"48.02500000","name":"Qaryat Abu al Fulus"},{"id":"1147671","latitude":"32.77305560","longitude":"44.35972220","name":"Qaryat Abu Jasim"},{"id":"1147677","latitude":"30.83916670","longitude":"47.52777780","name":"Qaryat Abu Wawi"},{"id":"1147683","latitude":"30.79666670","longitude":"47.57777780","name":"Qaryat ad Dayr"},{"id":"1147694","latitude":"30.44722220","longitude":"48.02472220","name":"Qaryat al `Ammiyah"},{"id":"1147699","latitude":"30.46250000","longitude":"47.86527780","name":"Qaryat al `Atiqah"},{"id":"1147703","latitude":"30.44138890","longitude":"48.09361110","name":"Qaryat al Baljaniyah"},{"id":"1147705","latitude":"30.47500000","longitude":"47.02500000","name":"Qaryat al Bawarin"},{"id":"1147706","latitude":"30.82027780","longitude":"47.58194440","name":"Qaryat al Bayjiyah"},{"id":"1147744","latitude":"30.44194440","longitude":"48.05000000","name":"Qaryat al Fayyadi"},{"id":"1147750","latitude":"30.11027780","longitude":"48.38222220","name":"Qaryat al Hajj `Ashur"},{"id":"1147761","latitude":"30.84527780","longitude":"47.56138890","name":"Qaryat al Hawafir"},{"id":"1147763","latitude":"30.63666670","longitude":"47.68638890","name":"Qaryat al Hillat"},{"id":"1147774","latitude":"30.90861110","longitude":"47.51000000","name":"Qaryat `Ali Nur"},{"id":"1147796","latitude":"30.18333330","longitude":"48.40333330","name":"Qaryat al Khashnam"},{"id":"1147799","latitude":"30.31666670","longitude":"48.18333330","name":"Qaryat al Khawrah"},{"id":"1147802","latitude":"30.87277780","longitude":"47.51750000","name":"Qaryat al Kuzayzah"},{"id":"1147806","latitude":"30.43333330","longitude":"48.01666670","name":"Qaryat al Luqtah"},{"id":"1147816","latitude":"30.29611110","longitude":"48.28527780","name":"Qaryat al Mayhalah"},{"id":"1147818","latitude":"30.67361110","longitude":"47.65750000","name":"Qaryat al Mazuri"},{"id":"1147821","latitude":"30.69361110","longitude":"47.73611110","name":"Qaryat al Mu`aydi al Janubi"},{"id":"1147824","latitude":"30.39527780","longitude":"48.16861110","name":"Qaryat al Mutaww\u00c4\u00b1`ah"},{"id":"1147826","latitude":"30.34861110","longitude":"48.17500000","name":"Qaryat al Qit`ah"},{"id":"1147834","latitude":"31.28333330","longitude":"47.40000000","name":"Qaryat al Waniyah"},{"id":"1147859","latitude":"30.85611110","longitude":"47.52861110","name":"Qaryat ash Shafi"},{"id":"1147862","latitude":"30.82861110","longitude":"47.55416670","name":"Qaryat ash Sharamkhah"},{"id":"1147864","latitude":"30.81777780","longitude":"47.56416670","name":"Qaryat ash Shayfiyah"},{"id":"1147877","latitude":"30.46388890","longitude":"47.93916670","name":"Qaryat as Sankar"},{"id":"1147879","latitude":"30.48833330","longitude":"47.85138890","name":"Qaryat as Sarraji"},{"id":"1147888","latitude":"30.96166670","longitude":"47.49444440","name":"Qaryat as Suwayyib"},{"id":"1147901","latitude":"30.66777780","longitude":"47.74277780","name":"Qaryat at Tuwayrish"},{"id":"1147907","latitude":"30.76222220","longitude":"47.67777780","name":"Qaryat az Zurayji"},{"id":"1147909","latitude":"30.73666670","longitude":"47.70333330","name":"Qaryat az Zuwayn"},{"id":"1147912","latitude":"30.43833330","longitude":"48.07166670","name":"Qaryat Baljan"},{"id":"1147914","latitude":"30.56666670","longitude":"47.70000000","name":"Qaryat Bani Malik"},{"id":"1147919","latitude":"30.84500000","longitude":"47.53944440","name":"Qaryat Bayt Shahib"},{"id":"1147948","latitude":"30.60361110","longitude":"47.69750000","name":"Qaryat Harir"},{"id":"1147966","latitude":"30.46388890","longitude":"48.02555560","name":"Qaryat Jikur"},{"id":"1147971","latitude":"30.43805560","longitude":"48.08944440","name":"Qaryat Kaws"},{"id":"1147976","latitude":"30.71000000","longitude":"47.72666670","name":"Qaryat Khadayu"},{"id":"1147978","latitude":"30.89361110","longitude":"47.52194440","name":"Qaryat Khaliliyah"},{"id":"1147982","latitude":"30.64055560","longitude":"47.74500000","name":"Qaryat Kulliyat"},{"id":"1147983","latitude":"30.23527780","longitude":"48.35916670","name":"Qaryat Kut Bandar"},{"id":"1147986","latitude":"30.18527780","longitude":"48.39694440","name":"Qaryat Mu`awiyah"},{"id":"1147987","latitude":"30.77472220","longitude":"47.66111110","name":"Qaryat Mufati"},{"id":"1147988","latitude":"30.68055560","longitude":"47.75250000","name":"Qaryat Muftiyah"},{"id":"1147998","latitude":"30.78166670","longitude":"47.55444440","name":"Qaryat Nasr"},{"id":"1148007","latitude":"30.25000000","longitude":"48.33333330","name":"Qaryat Salhah"},{"id":"1148009","latitude":"30.34000000","longitude":"48.18472220","name":"Qaryat Sayhan"},{"id":"1148012","latitude":"30.77194440","longitude":"47.64388890","name":"Qaryat Sayyid Mushih"},{"id":"1148013","latitude":"30.25000000","longitude":"48.33333330","name":"Qaryat Shalhah"},{"id":"1148014","latitude":"30.26166670","longitude":"48.33694440","name":"Qaryat Shalhat ad Duwayb"},{"id":"1148017","latitude":"30.86416670","longitude":"47.54888890","name":"Qaryat Shaykh Ya`qub"},{"id":"1148018","latitude":"30.88472220","longitude":"47.51500000","name":"Qaryat Shinanah"},{"id":"1148019","latitude":"30.63583330","longitude":"47.64416670","name":"Qaryat Shinshil"},{"id":"1148029","latitude":"30.73055560","longitude":"47.63972220","name":"Qaryat Talla` Nahr `Umar"},{"id":"1148038","latitude":"30.44666670","longitude":"48.09777780","name":"Qaryat Umm al Khasasif"},{"id":"1148039","latitude":"30.43333330","longitude":"48.13333330","name":"Qaryat Umm al Libabi"},{"id":"1148047","latitude":"30.81388890","longitude":"47.59583330","name":"Qaryat Yazdu"},{"id":"1148054","latitude":"30.34861110","longitude":"48.17500000","name":"Qaryat Zubayran"},{"id":"1148127","latitude":"30.35000000","longitude":"47.60000000","name":"Qasr Ibn Darahim"},{"id":"1148128","latitude":"30.35000000","longitude":"47.60000000","name":"Qasr Ibn Duraihim"},{"id":"1148129","latitude":"30.35000000","longitude":"47.60000000","name":"Qasr Ibrahim Darahim"},{"id":"1148178","latitude":"30.43805560","longitude":"48.08944440","name":"Qaus"},{"id":"1148189","latitude":"30.43805560","longitude":"48.08944440","name":"Qaws"},{"id":"1148246","latitude":"29.91666670","longitude":"48.53333330","name":"Qishlah"},{"id":"1148254","latitude":"29.91666670","longitude":"48.53333330","name":"Qishla"},{"id":"1148308","latitude":"30.26666670","longitude":"48.33333330","name":"Que"},{"id":"1148367","latitude":"30.28333330","longitude":"47.60000000","name":"Quratiyah"},{"id":"1148376","latitude":"31.01583330","longitude":"47.43055560","name":"Qurnah"},{"id":"1148392","latitude":"29.91666670","longitude":"48.53333330","name":"Qushlah"},{"id":"1148432","latitude":"30.28333330","longitude":"47.80000000","name":"Rafdie"},{"id":"1148433","latitude":"30.28333330","longitude":"47.80000000","name":"Rafdiyah"},{"id":"1148436","latitude":"30.28333330","longitude":"47.80000000","name":"Rafidhiyeh"},{"id":"1148437","latitude":"30.28333330","longitude":"47.80000000","name":"Rafidiyah"},{"id":"1148488","latitude":"31.04583330","longitude":"47.30000000","name":"Ramlah"},{"id":"1148489","latitude":"31.04583330","longitude":"47.30000000","name":"Ramla"},{"id":"1148544","latitude":"31.23666670","longitude":"47.50638890","name":"Rashid"},{"id":"1148611","latitude":"30.57694440","longitude":"47.35500000","name":"Reamela"},{"id":"1148637","latitude":"30.05000000","longitude":"47.91666670","name":"Rij al Barat"},{"id":"1148669","latitude":"30.38333330","longitude":"48.16666670","name":"Ru'ays"},{"id":"1148670","latitude":"30.71138890","longitude":"47.78333330","name":"Rubah"},{"id":"1148673","latitude":"30.51666670","longitude":"47.83333330","name":"Rubat as Saghir"},{"id":"1148680","latitude":"30.35944440","longitude":"47.40444440","name":"Rufahiyah"},{"id":"1148692","latitude":"30.27416670","longitude":"47.34972220","name":"Rumaila"},{"id":"1148703","latitude":"30.27416670","longitude":"47.34972220","name":"Rumaylah"},{"id":"1148705","latitude":"30.57694440","longitude":"47.35500000","name":"Rumeileh"},{"id":"1148729","latitude":"30.38333330","longitude":"48.16666670","name":"Ruwais"},{"id":"1148736","latitude":"30.38333330","longitude":"48.16666670","name":"Ruways"},{"id":"1148770","latitude":"30.51027780","longitude":"47.79083330","name":"Sabkbatal Arab"},{"id":"1148808","latitude":"30.67972220","longitude":"47.74333330","name":"Sa`di"},{"id":"1148849","latitude":"30.11305560","longitude":"47.71944440","name":"Safwan"},{"id":"1148863","latitude":"30.36083330","longitude":"48.17194440","name":"Sahil"},{"id":"1148871","latitude":"30.94388890","longitude":"47.13083330","name":"Saib"},{"id":"1148883","latitude":"30.34000000","longitude":"48.18472220","name":"Saihan"},{"id":"1149156","latitude":"30.93333330","longitude":"47.18333330","name":"Salih"},{"id":"1149282","latitude":"30.46388890","longitude":"47.93916670","name":"Sanger"},{"id":"1149372","latitude":"31.20000000","longitude":"47.41666670","name":"Sarifah"},{"id":"1149442","latitude":"30.48833330","longitude":"47.85138890","name":"Sarraji"},{"id":"1149443","latitude":"30.48833330","longitude":"47.85138890","name":"Sarraj"},{"id":"1149495","latitude":"30.47916670","longitude":"47.94583330","name":"Sawadi"},{"id":"1149518","latitude":"30.94388890","longitude":"47.13083330","name":"Saybah"},{"id":"1149530","latitude":"30.34000000","longitude":"48.18472220","name":"Sayhan"},{"id":"1149654","latitude":"30.79944440","longitude":"47.60500000","name":"Sayyid Jabir"},{"id":"1149682","latitude":"30.75138890","longitude":"47.72250000","name":"Sayyid Majid"},{"id":"1149736","latitude":"30.72694440","longitude":"47.72527780","name":"Sayyid Tahir"},{"id":"1149763","latitude":"30.33333330","longitude":"48.25000000","name":"Seeba"},{"id":"1149777","latitude":"30.34000000","longitude":"48.18472220","name":"Seihan"},{"id":"1149828","latitude":"30.39694440","longitude":"47.60777780","name":"Sha`aibeh"},{"id":"1149831","latitude":"30.93333330","longitude":"47.48333330","name":"Sha`baziyah"},{"id":"1149832","latitude":"30.93333330","longitude":"47.48333330","name":"Shabaziya"},{"id":"1149834","latitude":"30.80250000","longitude":"47.60194440","name":"Shabban"},{"id":"1149851","latitude":"30.85611110","longitude":"47.52861110","name":"Shafi"},{"id":"1149867","latitude":"30.93333330","longitude":"47.48333330","name":"Shahbalziyah"},{"id":"1149868","latitude":"30.80250000","longitude":"47.60194440","name":"Shahban"},{"id":"1149870","latitude":"30.93333330","longitude":"47.48333330","name":"Shahbaziyah"},{"id":"1149899","latitude":"30.39694440","longitude":"47.60777780","name":"Shaibah"},{"id":"1150019","latitude":"30.91833330","longitude":"47.51166670","name":"Shalabiyah"},{"id":"1150021","latitude":"30.96111110","longitude":"47.45944440","name":"Shalah"},{"id":"1150036","latitude":"30.96111110","longitude":"47.45944440","name":"Shalhah"},{"id":"1150037","latitude":"30.96111110","longitude":"47.45944440","name":"Shalha"},{"id":"1150038","latitude":"30.19000000","longitude":"48.39805560","name":"Shalhat Mu`awiyah"},{"id":"1150055","latitude":"30.93916670","longitude":"47.49222220","name":"Shamil"},{"id":"1150066","latitude":"30.93916670","longitude":"47.49222220","name":"Shamli"},{"id":"1150091","latitude":"30.90833330","longitude":"47.49055560","name":"Shananah"},{"id":"1150121","latitude":"31.20000000","longitude":"47.41666670","name":"Sharifah"},{"id":"1150514","latitude":"30.39694440","longitude":"47.60777780","name":"Shuaibah"},{"id":"1150515","latitude":"30.39694440","longitude":"47.60777780","name":"Shu`aiba"},{"id":"1150516","latitude":"30.39694440","longitude":"47.60777780","name":"Shu`aybah"},{"id":"1150517","latitude":"30.60000000","longitude":"47.76666670","name":"Shu`aybat Kharab"},{"id":"1150539","latitude":"30.54944440","longitude":"47.82861110","name":"Shuman"},{"id":"1150571","latitude":"30.96166670","longitude":"47.49444440","name":"Shuwaiyib"},{"id":"1150575","latitude":"31.00611110","longitude":"47.26000000","name":"Shuwayj"},{"id":"1150593","latitude":"30.94388890","longitude":"47.13083330","name":"Sibah"},{"id":"1150641","latitude":"30.98333330","longitude":"47.48333330","name":"Silk al `Atiyah"},{"id":"1150642","latitude":"30.98333330","longitude":"47.48333330","name":"Silk al Atiya"},{"id":"1150829","latitude":"30.50000000","longitude":"47.80000000","name":"Subkhaiya"},{"id":"1150846","latitude":"30.11305560","longitude":"47.71944440","name":"Sufwan"},{"id":"1150874","latitude":"30.76805560","longitude":"47.65833330","name":"Sulaimaniya"},{"id":"1150895","latitude":"30.76805560","longitude":"47.65833330","name":"Sulaymaniyah"},{"id":"1151048","latitude":"30.96166670","longitude":"47.49444440","name":"Suwaib"},{"id":"1151068","latitude":"30.96166670","longitude":"47.49444440","name":"Suwayb"},{"id":"1151124","latitude":"30.05055560","longitude":"48.39750000","name":"Taha"},{"id":"1151180","latitude":"30.97972220","longitude":"47.39722220","name":"Talhah"},{"id":"1151181","latitude":"30.97972220","longitude":"47.39722220","name":"Talha"},{"id":"1151240","latitude":"30.68694440","longitude":"47.64944440","name":"Talla` Nahr `Umar"},{"id":"1151362","latitude":"30.53277780","longitude":"47.85694440","name":"Tannumah"},{"id":"1151363","latitude":"30.53277780","longitude":"47.85694440","name":"Tannuma"},{"id":"1151366","latitude":"30.53277780","longitude":"47.85694440","name":"Tanumah"},{"id":"1151367","latitude":"30.53277780","longitude":"47.85694440","name":"Tanuma"},{"id":"1151422","latitude":"31.00250000","longitude":"47.28000000","name":"Tarabah"},{"id":"1151423","latitude":"31.00250000","longitude":"47.28000000","name":"Taraba"},{"id":"1151458","latitude":"30.60472220","longitude":"47.76944440","name":"Tarradiyah"},{"id":"1151486","latitude":"30.98611110","longitude":"47.35361110","name":"Tawal"},{"id":"1151670","latitude":"30.55000000","longitude":"47.75000000","name":"Tirad Khurr"},{"id":"1151681","latitude":"31.00250000","longitude":"47.28000000","name":"Tirubah"},{"id":"1151776","latitude":"31.00250000","longitude":"47.28000000","name":"Turabah"},{"id":"1151778","latitude":"31.00250000","longitude":"47.28000000","name":"Turaba"},{"id":"1151779","latitude":"31.00250000","longitude":"47.28000000","name":"Turabeh"},{"id":"1151787","latitude":"31.00250000","longitude":"47.28000000","name":"Turbah"},{"id":"1151941","latitude":"30.03416670","longitude":"47.92944440","name":"Um Kasr"},{"id":"1151966","latitude":"30.44666670","longitude":"48.09777780","name":"Umm al Khasasif"},{"id":"1151972","latitude":"30.43333330","longitude":"48.13333330","name":"Umm al Libabi"},{"id":"1151980","latitude":"30.43916670","longitude":"48.12222220","name":"Umm ar Rasas"},{"id":"1151988","latitude":"30.47277780","longitude":"47.84305560","name":"Umm ash Shu`aj"},{"id":"1151989","latitude":"30.98333330","longitude":"47.26666670","name":"Umm ash Shuwaich"},{"id":"1151990","latitude":"30.98333330","longitude":"47.26666670","name":"Umm ash Shuwayeh"},{"id":"1151991","latitude":"30.98333330","longitude":"47.26666670","name":"Umm ash Shuwayj"},{"id":"1151999","latitude":"30.44138890","longitude":"47.98972220","name":"Umm atTawil"},{"id":"1152001","latitude":"31.03333330","longitude":"47.33333330","name":"Umm Chayr"},{"id":"1152020","latitude":"31.03333330","longitude":"47.33333330","name":"Umm Jayr"},{"id":"1152026","latitude":"30.42583330","longitude":"47.61722220","name":"Umm Khuwayah"},{"id":"1152036","latitude":"30.03416670","longitude":"47.92944440","name":"Umm Qasr"},{"id":"1152061","latitude":"30.75416670","longitude":"47.65555560","name":"Umr"},{"id":"1152070","latitude":"31.22805560","longitude":"47.43333330","name":"`Urayj"},{"id":"1152112","latitude":"30.09472220","longitude":"48.40083330","name":"`Uwayyan"},{"id":"1152243","latitude":"31.13055560","longitude":"47.43388890","name":"Wusaytah"},{"id":"1152279","latitude":"30.46666670","longitude":"47.90000000","name":"Yamin"},{"id":"1152303","latitude":"30.81388890","longitude":"47.59583330","name":"Yas`adu"},{"id":"1152329","latitude":"30.46111110","longitude":"47.90416670","name":"Yusifah"},{"id":"1152337","latitude":"30.46111110","longitude":"47.90416670","name":"Yusufan"},{"id":"1152368","latitude":"30.34000000","longitude":"48.18472220","name":"Zain"},{"id":"1152441","latitude":"30.76222220","longitude":"47.67777780","name":"Zaraji"},{"id":"1152599","latitude":"30.30833330","longitude":"48.26416670","name":"Ziadiyah"},{"id":"1152664","latitude":"30.31666670","longitude":"48.28333330","name":"Ziyadiyah"},{"id":"1152665","latitude":"30.31666670","longitude":"48.28333330","name":"Ziyadiya"},{"id":"1152673","latitude":"30.38916670","longitude":"47.70805560","name":"Zobier"},{"id":"1152683","latitude":"30.34861110","longitude":"48.17500000","name":"Zubairan"},{"id":"1152684","latitude":"30.38916670","longitude":"47.70805560","name":"Zubair"},{"id":"1152697","latitude":"30.48611110","longitude":"47.87194440","name":"Zuhayr `Uwaysiyan"},{"id":"1152698","latitude":"30.48611110","longitude":"47.87194440","name":"Zuhayr"},{"id":"1152714","latitude":"30.76222220","longitude":"47.67777780","name":"Zurayji"},{"id":"1152716","latitude":"30.76222220","longitude":"47.67777780","name":"Zurayqi"}]