[{"id":"1152737","latitude":"38.32270000","longitude":"48.31190000","name":"Ab"},{"id":"1152840","latitude":"39.15000000","longitude":"47.70000000","name":"`Aba Qeshlaqi"},{"id":"1152894","latitude":"37.72520000","longitude":"48.41480000","name":"Abashan"},{"id":"1152907","latitude":"38.00260000","longitude":"48.07060000","name":"Abazar"},{"id":"1153006","latitude":"38.01666700","longitude":"48.51666700","name":"`Abbasabad"},{"id":"1153027","latitude":"39.55760000","longitude":"48.03930000","name":"`Abbasabad-e  Bozorg"},{"id":"1153096","latitude":"38.58240000","longitude":"48.04760000","name":"`Abbas`ali"},{"id":"1153098","latitude":"38.81666700","longitude":"47.73333300","name":"`Abbas`ali Kandi"},{"id":"1153102","latitude":"39.01640000","longitude":"47.72570000","name":"`Abbas `Alilu"},{"id":"1153130","latitude":"38.71480000","longitude":"47.92810000","name":"`Abbas Kandi"},{"id":"1153238","latitude":"38.45390000","longitude":"48.14890000","name":"Abdarlu"},{"id":"1153397","latitude":"39.03620000","longitude":"48.14080000","name":"`Abdollah Kandi"},{"id":"1153449","latitude":"39.63690000","longitude":"48.01970000","name":"`Abd or Rezaabad"},{"id":"1153542","latitude":"37.68333300","longitude":"48.43083300","name":"Ab-e Garm"},{"id":"1153619","latitude":"37.60870000","longitude":"48.49520000","name":"Ab-e Zari"},{"id":"1153810","latitude":"39.23333300","longitude":"47.53333300","name":"Abish Ahmad"},{"id":"1153950","latitude":"37.74480000","longitude":"48.23600000","name":"Abli-ye Bala"},{"id":"1153951","latitude":"37.74480000","longitude":"48.23600000","name":"Abli-ye Pa'in"},{"id":"1154092","latitude":"38.36680000","longitude":"48.10540000","name":"Abrbakoo"},{"id":"1154093","latitude":"38.36680000","longitude":"48.10540000","name":"Abr Bakuh"},{"id":"1154457","latitude":"37.49300000","longitude":"48.19900000","name":"Abvar"},{"id":"1154504","latitude":"37.98722200","longitude":"48.07222200","name":"Abzar"},{"id":"1154523","latitude":"39.23590000","longitude":"48.02710000","name":"Achnaq"},{"id":"1154535","latitude":"38.94950000","longitude":"47.68130000","name":"Adam Darrehsi"},{"id":"1154536","latitude":"38.94950000","longitude":"47.68130000","name":"Adam Darrehsi-ye Bala"},{"id":"1154537","latitude":"38.94950000","longitude":"47.68130000","name":"Adam Darrehsi-ye `Olya"},{"id":"1154538","latitude":"38.95290000","longitude":"47.68920000","name":"Adam Darrehsi-ye Pa'in"},{"id":"1154539","latitude":"38.95290000","longitude":"47.68920000","name":"Adam Darrehsi-ye Sofla"},{"id":"1154555","latitude":"39.30110000","longitude":"48.15990000","name":"Addooloo"},{"id":"1154577","latitude":"39.16470000","longitude":"48.06850000","name":"Adgadlu-ye Angutlar"},{"id":"1154607","latitude":"38.54527800","longitude":"47.77444400","name":"Adli"},{"id":"1154608","latitude":"38.75670000","longitude":"47.83910000","name":"Adlu"},{"id":"1154627","latitude":"37.93500000","longitude":"48.34388900","name":"Adzhim-Kishlaki"},{"id":"1154645","latitude":"38.96070000","longitude":"48.23230000","name":"Afcheh"},{"id":"1154647","latitude":"39.41780000","longitude":"47.41010000","name":"Afchi"},{"id":"1154669","latitude":"39.41780000","longitude":"47.41010000","name":"Afji"},{"id":"1154722","latitude":"37.50590000","longitude":"48.14070000","name":"Afshar-e Pa'in"},{"id":"1154737","latitude":"38.99340000","longitude":"48.24280000","name":"Afsuran"},{"id":"1154742","latitude":"37.68020000","longitude":"48.15820000","name":"Aftabeh"},{"id":"1154838","latitude":"37.87600000","longitude":"48.36010000","name":"Agh Bash"},{"id":"1154844","latitude":"37.63470000","longitude":"48.36090000","name":"Aghbolagh"},{"id":"1154845","latitude":"37.63470000","longitude":"48.36090000","name":"Agh Bolagh"},{"id":"1154852","latitude":"38.64420000","longitude":"48.26130000","name":"Agh Bolagh-e Bala"},{"id":"1154858","latitude":"38.27280000","longitude":"48.35140000","name":"Agh Bolagh-e Mostafa Khan"},{"id":"1154862","latitude":"38.63510000","longitude":"48.25990000","name":"Agh Bolagh-e Pa'in"},{"id":"1154867","latitude":"38.83333300","longitude":"47.95000000","name":"Agh Bolagh Gaduk-e Pa'in"},{"id":"1154873","latitude":"37.92660000","longitude":"48.12040000","name":"Agh Chay Bala"},{"id":"1154874","latitude":"37.93800000","longitude":"48.16660000","name":"Agh Chay Pa'in"},{"id":"1154875","latitude":"37.94100000","longitude":"48.14230000","name":"Agh Chay Vasat"},{"id":"1154889","latitude":"37.89160000","longitude":"48.30660000","name":"Aghcheh Kahal"},{"id":"1154891","latitude":"38.35600000","longitude":"48.29960000","name":"Aghcheh Kand"},{"id":"1154898","latitude":"37.89160000","longitude":"48.30660000","name":"Aghcheh Kohol"},{"id":"1154912","latitude":"37.86050000","longitude":"48.34940000","name":"Aghcheh Qeshlaq-e Bala"},{"id":"1154914","latitude":"37.86050000","longitude":"48.34940000","name":"Aghcheh Qeshlaq-e `Olya"},{"id":"1154915","latitude":"37.84970000","longitude":"48.33690000","name":"Aghcheh Qeshlaq-e Pa'in"},{"id":"1154917","latitude":"37.84970000","longitude":"48.33690000","name":"Aghcheh Qeshlaq-e Sofla"},{"id":"1154918","latitude":"38.46130000","longitude":"47.97390000","name":"Aghcheh Qeshlaqi"},{"id":"1154928","latitude":"38.52540000","longitude":"47.67000000","name":"Agh Daraq"},{"id":"1154959","latitude":"38.09170000","longitude":"48.25960000","name":"Aghguni"},{"id":"1155035","latitude":"38.53240000","longitude":"48.16460000","name":"Agh Qal`eh"},{"id":"1155118","latitude":"38.98970000","longitude":"47.85410000","name":"Ahad Beyglu"},{"id":"1155219","latitude":"37.61940000","longitude":"48.13640000","name":"Ahmadabad"},{"id":"1155333","latitude":"38.41070000","longitude":"47.55950000","name":"Ahmad Beyglu"},{"id":"1155477","latitude":"37.21805600","longitude":"48.62361100","name":"Ahu"},{"id":"1155521","latitude":"39.33027800","longitude":"47.83583300","name":"`Ain `Ali"},{"id":"1155589","latitude":"39.10100000","longitude":"47.80140000","name":"Ajideh"},{"id":"1155593","latitude":"37.93500000","longitude":"48.34388900","name":"`Ajim Qeshlagh"},{"id":"1155594","latitude":"37.93500000","longitude":"48.34388900","name":"`Ajim Qeshlaq"},{"id":"1155595","latitude":"37.93500000","longitude":"48.34388900","name":"Ajim Qishlaqi"},{"id":"1155599","latitude":"39.62100000","longitude":"47.91840000","name":"Ajirlu"},{"id":"1155616","latitude":"38.18333300","longitude":"48.36666700","name":"Ajor Pazi-ye Haj Hamzeh"},{"id":"1155662","latitude":"37.69170000","longitude":"48.04120000","name":"Akbarabad"},{"id":"1155702","latitude":"39.19640000","longitude":"48.09350000","name":"Akbar Davud"},{"id":"1155703","latitude":"39.19640000","longitude":"48.09350000","name":"Akbar Davud-e Qeshlaqi"},{"id":"1155712","latitude":"37.87600000","longitude":"48.36010000","name":"Akbash"},{"id":"1155716","latitude":"37.70000000","longitude":"48.55000000","name":"Ak-Bulag"},{"id":"1155719","latitude":"37.63470000","longitude":"48.36090000","name":"Ak-Bulagi"},{"id":"1155722","latitude":"37.93800000","longitude":"48.16660000","name":"Akchayl-y"},{"id":"1155723","latitude":"37.92660000","longitude":"48.12040000","name":"Akchay-Ulia"},{"id":"1155736","latitude":"38.98120000","longitude":"47.60530000","name":"Akharlu"},{"id":"1155772","latitude":"37.61940000","longitude":"48.13640000","name":"Akhmetabad"},{"id":"1155823","latitude":"37.38944400","longitude":"48.73555600","name":"Akhund Mahalleh"},{"id":"1155864","latitude":"38.53240000","longitude":"48.16460000","name":"Ak Kaleh"},{"id":"1156008","latitude":"39.40000000","longitude":"47.63333300","name":"`Alamli Qeshlaq"},{"id":"1156037","latitude":"37.82990000","longitude":"48.42410000","name":"Alangesh"},{"id":"1156047","latitude":"37.82990000","longitude":"48.42410000","name":"Alankash"},{"id":"1156048","latitude":"37.82990000","longitude":"48.42410000","name":"Alankesh"},{"id":"1156064","latitude":"38.43360000","longitude":"47.90460000","name":"Alardeh"},{"id":"1156119","latitude":"38.97670000","longitude":"48.16770000","name":"Alaylah"},{"id":"1156120","latitude":"38.97670000","longitude":"48.16770000","name":"Alayl"},{"id":"1156122","latitude":"39.07000000","longitude":"48.16890000","name":"Alazar"},{"id":"1156207","latitude":"38.17805600","longitude":"48.01555600","name":"Aldashin"},{"id":"1156210","latitude":"37.72810000","longitude":"48.35570000","name":"Aleabad"},{"id":"1156223","latitude":"37.54450000","longitude":"48.49750000","name":"Al-e Hashem"},{"id":"1156224","latitude":"37.54450000","longitude":"48.49750000","name":"Al-e Hashem-e Bala"},{"id":"1156225","latitude":"37.55000000","longitude":"48.51666700","name":"Al-e Hashem-e Sofla"},{"id":"1156307","latitude":"37.54450000","longitude":"48.49750000","name":"Al Hashem"},{"id":"1156308","latitude":"37.54450000","longitude":"48.49750000","name":"Alhashem-e `Olya"},{"id":"1156309","latitude":"37.54450000","longitude":"48.49750000","name":"Al Hashem-e Sofla"},{"id":"1156310","latitude":"37.55000000","longitude":"48.51666700","name":"Alhashem-e Sofla"},{"id":"1156359","latitude":"37.72810000","longitude":"48.35570000","name":"`Aliabad"},{"id":"1156668","latitude":"38.43950000","longitude":"47.72840000","name":"`Ali"},{"id":"1156728","latitude":"38.38340000","longitude":"48.35270000","name":"`Ali Bolaghi"},{"id":"1156758","latitude":"38.14370000","longitude":"48.02750000","name":"`Ali Dashi"},{"id":"1156828","latitude":"38.63840000","longitude":"47.81180000","name":"`Ali Kahriz"},{"id":"1156829","latitude":"38.63840000","longitude":"47.81180000","name":"`Ali Kahrizi"},{"id":"1156834","latitude":"38.50810000","longitude":"48.48080000","name":"`Ali Kamar"},{"id":"1156838","latitude":"37.79850000","longitude":"48.28060000","name":"Ali Kand"},{"id":"1156846","latitude":"38.74360000","longitude":"48.13820000","name":"`Alikaran"},{"id":"1156888","latitude":"38.97670000","longitude":"48.16770000","name":"Alilah"},{"id":"1156889","latitude":"39.00410000","longitude":"48.21260000","name":"`Alilahsar"},{"id":"1156890","latitude":"39.00410000","longitude":"48.21260000","name":"Alileh Sar"},{"id":"1156920","latitude":"38.51450000","longitude":"47.69700000","name":"`Ali Mohammadlu"},{"id":"1156928","latitude":"39.30050000","longitude":"47.95470000","name":"`Ali Morad"},{"id":"1156979","latitude":"39.13190000","longitude":"47.55020000","name":"`Ali Qapu"},{"id":"1156980","latitude":"38.43010000","longitude":"48.12530000","name":"`Ali Qeshlaq"},{"id":"1156981","latitude":"39.51560000","longitude":"47.82550000","name":"Ali Qeshlaq"},{"id":"1156983","latitude":"38.43010000","longitude":"48.12530000","name":"`Ali Qeshlaqi"},{"id":"1157000","latitude":"39.57200000","longitude":"47.69080000","name":"`Alirezaabad"},{"id":"1157001","latitude":"39.58380000","longitude":"47.74700000","name":"`Alirezaabad-e Jadid"},{"id":"1157003","latitude":"39.58380000","longitude":"47.71260000","name":"`Alirezaabad-e Qadim"},{"id":"1157020","latitude":"39.18333300","longitude":"48.00000000","name":"`Alishabad Qeshlaqishabad"},{"id":"1157033","latitude":"39.15620000","longitude":"47.95350000","name":"`Alishan Qeshlaq"},{"id":"1157034","latitude":"39.15620000","longitude":"47.95350000","name":"`Alishan Qeshlaqi"},{"id":"1157035","latitude":"38.78060000","longitude":"48.00570000","name":"`Ali Shanslu'i"},{"id":"1157036","latitude":"38.78060000","longitude":"48.00570000","name":"`Ali Shanslu'i-ye Bala"},{"id":"1157037","latitude":"38.78333300","longitude":"48.00000000","name":"`Ali Shanslu'i-ye Pa'in"},{"id":"1157045","latitude":"37.54450000","longitude":"48.49750000","name":"Alishma"},{"id":"1157066","latitude":"37.38361100","longitude":"48.84500000","name":"`Alivash"},{"id":"1157070","latitude":"39.00430000","longitude":"48.27070000","name":"`Ali Verdlu"},{"id":"1157173","latitude":"39.01650000","longitude":"48.09410000","name":"Allah Darreh"},{"id":"1157205","latitude":"39.00430000","longitude":"48.27070000","name":"Allah Verdilu"},{"id":"1157215","latitude":"38.92583300","longitude":"47.75333300","name":"Allah Yarlu"},{"id":"1157226","latitude":"38.43950000","longitude":"47.72840000","name":"Alli"},{"id":"1157228","latitude":"37.81361100","longitude":"48.38305600","name":"Allu"},{"id":"1157238","latitude":"38.03020000","longitude":"48.40870000","name":"Almagalan"},{"id":"1157269","latitude":"38.15020000","longitude":"48.19980000","name":"Almas"},{"id":"1157305","latitude":"38.43950000","longitude":"47.72840000","name":"Alni"},{"id":"1157311","latitude":"37.81361100","longitude":"48.38305600","name":"Alov"},{"id":"1157320","latitude":"39.05340000","longitude":"48.14930000","name":"Al Qanab"},{"id":"1157323","latitude":"37.63570000","longitude":"48.24520000","name":"Alqazi"},{"id":"1157342","latitude":"39.00666700","longitude":"47.78194400","name":"Alsuyeh"},{"id":"1157356","latitude":"37.81361100","longitude":"48.38305600","name":"Alu"},{"id":"1157360","latitude":"38.36310000","longitude":"47.57260000","name":"Aluch"},{"id":"1157362","latitude":"38.05780000","longitude":"48.37740000","name":"Alucheh"},{"id":"1157368","latitude":"38.05780000","longitude":"48.37740000","name":"Alucheh-ye Fuladlu"},{"id":"1157369","latitude":"38.22220000","longitude":"48.03510000","name":"Alucheh-ye Sabalan"},{"id":"1157374","latitude":"38.36310000","longitude":"47.57260000","name":"Aluj"},{"id":"1157435","latitude":"37.72810000","longitude":"48.35570000","name":"Alvar"},{"id":"1157436","latitude":"37.64555600","longitude":"48.51166700","name":"Al'var"},{"id":"1157437","latitude":"37.64555600","longitude":"48.51166700","name":"Alvar"},{"id":"1157446","latitude":"38.15670000","longitude":"47.94480000","name":"Alvares"},{"id":"1157448","latitude":"38.15670000","longitude":"47.94480000","name":"Alvari"},{"id":"1157451","latitude":"38.15670000","longitude":"47.94480000","name":"Alvars"},{"id":"1157452","latitude":"38.15670000","longitude":"47.94480000","name":"Alvarsi"},{"id":"1157475","latitude":"39.07000000","longitude":"48.16890000","name":"Alzar"},{"id":"1157607","latitude":"38.01050000","longitude":"48.19190000","name":"Aminabad"},{"id":"1157624","latitude":"38.48920000","longitude":"48.43300000","name":"Amin Jan"},{"id":"1157626","latitude":"38.08870000","longitude":"48.23370000","name":"Aminlu"},{"id":"1157768","latitude":"38.85090000","longitude":"47.96250000","name":"Amir Kandi"},{"id":"1157774","latitude":"39.21830000","longitude":"47.53010000","name":"Amir Khanlu"},{"id":"1157882","latitude":"39.10710000","longitude":"48.18350000","name":"Amrahlu"},{"id":"1157945","latitude":"38.25220000","longitude":"48.17490000","name":"`Amuqin"},{"id":"1158006","latitude":"38.48200000","longitude":"47.86320000","name":"Anar"},{"id":"1158054","latitude":"37.67810000","longitude":"48.47300000","name":"Anaviz"},{"id":"1158085","latitude":"38.53860000","longitude":"48.46100000","name":"`Anbaran-e Bala"},{"id":"1158086","latitude":"38.53860000","longitude":"48.46100000","name":"`Anbaran-e `Olya"},{"id":"1158087","latitude":"38.49280000","longitude":"48.44150000","name":"`Anbaran-e Pa'in"},{"id":"1158088","latitude":"38.49280000","longitude":"48.44150000","name":"`Anbaran-e Sofla"},{"id":"1158111","latitude":"39.55930000","longitude":"48.00880000","name":"`Anbarlu"},{"id":"1158153","latitude":"37.62444400","longitude":"48.54555600","name":"Andabil"},{"id":"1158156","latitude":"37.62444400","longitude":"48.54555600","name":"Andad"},{"id":"1158176","latitude":"38.22070000","longitude":"48.16200000","name":"Andar Ab"},{"id":"1158210","latitude":"38.34270000","longitude":"47.60950000","name":"Andazaq"},{"id":"1158313","latitude":"38.99370000","longitude":"48.00020000","name":"Angurd"},{"id":"1158331","latitude":"38.97430000","longitude":"48.13210000","name":"Ani"},{"id":"1158340","latitude":"37.98880000","longitude":"48.39700000","name":"Anili"},{"id":"1158341","latitude":"37.98880000","longitude":"48.39700000","name":"Anilu"},{"id":"1158346","latitude":"38.98100000","longitude":"48.14290000","name":"Ani Sofla"},{"id":"1158348","latitude":"38.97430000","longitude":"48.13210000","name":"Ani-ye Bala"},{"id":"1158349","latitude":"38.97430000","longitude":"48.13210000","name":"Ani-ye `Olya"},{"id":"1158350","latitude":"38.98100000","longitude":"48.14290000","name":"Ani-ye Pa'in"},{"id":"1158351","latitude":"38.98100000","longitude":"48.14290000","name":"Ani-ye Sofla"},{"id":"1158352","latitude":"38.98030000","longitude":"48.13970000","name":"Ani-ye Vasat"},{"id":"1158353","latitude":"38.98030000","longitude":"48.13970000","name":"Ani-ye Vasati"},{"id":"1158354","latitude":"38.98030000","longitude":"48.13970000","name":"Ani-ye Vosta"},{"id":"1158466","latitude":"38.95190000","longitude":"47.55340000","name":"Anjirlu"},{"id":"1158488","latitude":"37.80000000","longitude":"48.15000000","name":"Ankejabad"},{"id":"1158497","latitude":"38.97430000","longitude":"48.13210000","name":"Anni-ye Bala"},{"id":"1158498","latitude":"38.98100000","longitude":"48.14290000","name":"Anni-ye Pa'in"},{"id":"1158513","latitude":"38.32840000","longitude":"47.54540000","name":"Antarballi"},{"id":"1158529","latitude":"38.32270000","longitude":"48.31190000","name":"Anzab"},{"id":"1158530","latitude":"38.32270000","longitude":"48.31190000","name":"Anzab-e Bala"},{"id":"1158531","latitude":"38.36190000","longitude":"48.33510000","name":"Anzab-e Pa'in"},{"id":"1158575","latitude":"38.24470000","longitude":"48.37630000","name":"Aqa Baqer"},{"id":"1158580","latitude":"38.77130000","longitude":"48.01060000","name":"Aqa Beyglu"},{"id":"1158588","latitude":"37.92660000","longitude":"48.12040000","name":"Aqa Chay-e Bala"},{"id":"1158589","latitude":"37.93800000","longitude":"48.16660000","name":"Aqa Chay-e Pa'in"},{"id":"1158590","latitude":"37.94100000","longitude":"48.14230000","name":"Aqa Chay-e Vasat"},{"id":"1158596","latitude":"39.17730000","longitude":"48.18090000","name":"Aqa Hasan Beyglu"},{"id":"1158639","latitude":"37.77790000","longitude":"48.16260000","name":"Aqa Mirlu"},{"id":"1158642","latitude":"39.16640000","longitude":"47.54930000","name":"Aqa Mohammad Beyglu"},{"id":"1158646","latitude":"38.54350000","longitude":"47.98040000","name":"Aqa Morad"},{"id":"1158677","latitude":"39.01430000","longitude":"47.81320000","name":"Aqa Verdelu"},{"id":"1158678","latitude":"39.01430000","longitude":"47.81320000","name":"Aqa Verdilu"},{"id":"1158679","latitude":"38.56260000","longitude":"48.36070000","name":"Aqa Yarlu"},{"id":"1158692","latitude":"37.87600000","longitude":"48.36010000","name":"Aqbash"},{"id":"1158693","latitude":"37.87600000","longitude":"48.36010000","name":"Aq Bash"},{"id":"1158715","latitude":"37.63470000","longitude":"48.36090000","name":"Aqbolagh"},{"id":"1158716","latitude":"37.63470000","longitude":"48.36090000","name":"Aq Bolagh"},{"id":"1158739","latitude":"38.27280000","longitude":"48.35140000","name":"Aq Bolagh-e Aqajan"},{"id":"1158740","latitude":"38.27280000","longitude":"48.35140000","name":"Aq Bolagh-e Aqajan Khan"},{"id":"1158744","latitude":"38.64420000","longitude":"48.26130000","name":"Aq Bolagh-e Bala"},{"id":"1158751","latitude":"38.82080000","longitude":"47.97530000","name":"Aqbolagh-e Gaduk"},{"id":"1158752","latitude":"37.63470000","longitude":"48.36090000","name":"Aqbolagh-e Givi"},{"id":"1158761","latitude":"37.70000000","longitude":"48.55000000","name":"Aqbolagh-e Kord"},{"id":"1158773","latitude":"38.63510000","longitude":"48.25990000","name":"Aq Bolagh-e Pa'in"},{"id":"1158775","latitude":"38.23310000","longitude":"48.43220000","name":"Aq Bolagh-e Rostam Khan"},{"id":"1158787","latitude":"38.82080000","longitude":"47.97530000","name":"Aq Bolagh Gadug"},{"id":"1158788","latitude":"37.63470000","longitude":"48.36090000","name":"Aq Bolaghi"},{"id":"1158808","latitude":"37.70000000","longitude":"48.55000000","name":"Aqbulaq"},{"id":"1158813","latitude":"37.63470000","longitude":"48.36090000","name":"Aqbulaqi"},{"id":"1158816","latitude":"37.92660000","longitude":"48.12040000","name":"Aqchai Ulia"},{"id":"1158825","latitude":"37.92660000","longitude":"48.12040000","name":"Aq Chay"},{"id":"1158826","latitude":"37.94100000","longitude":"48.14230000","name":"Aqchay Baba `Ali Qeshlaqi"},{"id":"1158827","latitude":"37.92660000","longitude":"48.12040000","name":"Aq Chay-e Bala"},{"id":"1158828","latitude":"37.92660000","longitude":"48.12040000","name":"Aqchay-e `Olya"},{"id":"1158829","latitude":"37.93800000","longitude":"48.16660000","name":"Aq Chay-e Pa'in"},{"id":"1158830","latitude":"37.93800000","longitude":"48.16660000","name":"Aqchay-e Sofla"},{"id":"1158831","latitude":"37.94100000","longitude":"48.14230000","name":"Aq Chay-e Vasat"},{"id":"1158832","latitude":"37.94100000","longitude":"48.14230000","name":"Aqchay-e Vosta"},{"id":"1158833","latitude":"37.92660000","longitude":"48.12040000","name":"Aq Chay `Olya"},{"id":"1158834","latitude":"37.93800000","longitude":"48.16660000","name":"Aqchay Sofla"},{"id":"1158848","latitude":"38.35600000","longitude":"48.29960000","name":"Aqcheh Kandi"},{"id":"1158860","latitude":"38.46130000","longitude":"47.97390000","name":"Aqcheh Qeshlaq"},{"id":"1158862","latitude":"37.86050000","longitude":"48.34940000","name":"Aqcheh Qeshlaq-e `Olya"},{"id":"1158865","latitude":"37.84970000","longitude":"48.33690000","name":"Aqcheh Qeshlaq-e Sofla"},{"id":"1158885","latitude":"38.11070000","longitude":"48.28470000","name":"Aq Daraq"},{"id":"1158908","latitude":"38.94460000","longitude":"47.93610000","name":"Aqdash"},{"id":"1158909","latitude":"39.06940000","longitude":"47.95380000","name":"Aq Dash"},{"id":"1158914","latitude":"38.41660000","longitude":"48.40690000","name":"Aq Dashi"},{"id":"1158917","latitude":"38.69180000","longitude":"48.18230000","name":"Aq Davahlu-ye Bala"},{"id":"1158918","latitude":"38.68300000","longitude":"48.17490000","name":"Aq Davahlu-yePa'in"},{"id":"1158919","latitude":"38.69180000","longitude":"48.18230000","name":"Aq Davallu-ye Bala"},{"id":"1158920","latitude":"38.68300000","longitude":"48.17490000","name":"Aq Davallu-ye Pa'in"},{"id":"1158933","latitude":"39.48333300","longitude":"47.58333300","name":"Aq Gavnakh-e Bala"},{"id":"1158937","latitude":"38.09170000","longitude":"48.25960000","name":"Aq Guni"},{"id":"1158985","latitude":"38.12930000","longitude":"48.13540000","name":"Aq Kalmeh"},{"id":"1159021","latitude":"37.45000000","longitude":"48.61666700","name":"Aq Masjed"},{"id":"1159024","latitude":"38.25000000","longitude":"48.16666700","name":"Aq Mian"},{"id":"1159029","latitude":"39.45800000","longitude":"47.52880000","name":"Aq Qabaq"},{"id":"1159030","latitude":"39.48170000","longitude":"47.50250000","name":"Aq Qabaq-e Golshad Kandi"},{"id":"1159031","latitude":"39.49340000","longitude":"47.53150000","name":"Aq Qabaq-e `Olya"},{"id":"1159032","latitude":"39.48333300","longitude":"47.51666700","name":"Aq Qabaq-e Qarahlu Kandi"},{"id":"1159033","latitude":"39.48630000","longitude":"47.50400000","name":"Aq Qabaq-e Qelenjkhan Kandi"},{"id":"1159034","latitude":"39.45800000","longitude":"47.52880000","name":"Aq Qabaq-e Sofla"},{"id":"1159035","latitude":"39.48130000","longitude":"47.53860000","name":"Aq Qabaq-e Vosta"},{"id":"1159040","latitude":"38.12930000","longitude":"48.13540000","name":"Aq Qal`eh"},{"id":"1159044","latitude":"38.64130000","longitude":"47.95040000","name":"Aq Qaselmu"},{"id":"1159045","latitude":"38.64130000","longitude":"47.95040000","name":"Aq Qasemlu"},{"id":"1159047","latitude":"39.51820000","longitude":"47.76110000","name":"Aq Qeshlaq"},{"id":"1159060","latitude":"37.33277800","longitude":"48.54472200","name":"Aqsu"},{"id":"1159068","latitude":"38.91130000","longitude":"47.73710000","name":"Aq Tappeh"},{"id":"1159097","latitude":"38.40000000","longitude":"48.36666700","name":"Aq Zaman Goli"},{"id":"1159098","latitude":"38.40000000","longitude":"48.36666700","name":"Aq Zaman Kandi"},{"id":"1159161","latitude":"38.47430000","longitude":"47.67200000","name":"`Arabli"},{"id":"1159164","latitude":"38.47430000","longitude":"47.67200000","name":"`Arablu"},{"id":"1159166","latitude":"39.66520000","longitude":"47.94870000","name":"`Arablu Kandi"},{"id":"1159215","latitude":"38.13390000","longitude":"48.41800000","name":"Arallu"},{"id":"1159216","latitude":"38.14440000","longitude":"48.42400000","name":"Arallu-ye Bozorg"},{"id":"1159217","latitude":"38.13390000","longitude":"48.41800000","name":"Arallu-ye Kuchek"},{"id":"1159238","latitude":"39.06620000","longitude":"48.07580000","name":"Aranchi"},{"id":"1159311","latitude":"38.49600000","longitude":"48.02860000","name":"Arbab"},{"id":"1159314","latitude":"38.49600000","longitude":"48.02860000","name":"Arbab Kandi"},{"id":"1159347","latitude":"38.52610000","longitude":"47.89290000","name":"Archaq"},{"id":"1159353","latitude":"37.41250000","longitude":"48.33222200","name":"Ardabilaq"},{"id":"1159354","latitude":"38.24980000","longitude":"48.29330000","name":"Ardabil"},{"id":"1159355","latitude":"37.41250000","longitude":"48.33222200","name":"Ardabilya"},{"id":"1159400","latitude":"38.24980000","longitude":"48.29330000","name":"Ardebil"},{"id":"1159454","latitude":"38.26690000","longitude":"48.28300000","name":"Ardsalem"},{"id":"1159507","latitude":"39.38490000","longitude":"47.54710000","name":"Arg Darreh"},{"id":"1159531","latitude":"39.38490000","longitude":"47.54710000","name":"Argi Darreh"},{"id":"1159560","latitude":"38.52610000","longitude":"47.89290000","name":"Arjagh"},{"id":"1159575","latitude":"38.52610000","longitude":"47.89290000","name":"Arjaq"},{"id":"1159579","latitude":"38.20530000","longitude":"48.05920000","name":"Arjastan"},{"id":"1159585","latitude":"38.20530000","longitude":"48.05920000","name":"Arjestan"},{"id":"1159614","latitude":"38.26290000","longitude":"48.47280000","name":"Arkhazlu"},{"id":"1159671","latitude":"38.35560000","longitude":"47.48950000","name":"Armeneh"},{"id":"1159715","latitude":"37.85638900","longitude":"48.53861100","name":"Arpa Cha'i"},{"id":"1159718","latitude":"37.85638900","longitude":"48.53861100","name":"Arpa Chay"},{"id":"1159737","latitude":"38.38527800","longitude":"48.51027800","name":"Arpatappahsi"},{"id":"1159738","latitude":"38.38527800","longitude":"48.51027800","name":"Arpa Tappeh"},{"id":"1159739","latitude":"38.38527800","longitude":"48.51027800","name":"Arpa Tappehsi"},{"id":"1159740","latitude":"38.38527800","longitude":"48.51027800","name":"Arpatepe"},{"id":"1159768","latitude":"37.75580000","longitude":"48.14910000","name":"Arsadiga"},{"id":"1159769","latitude":"37.75580000","longitude":"48.14910000","name":"Arsadya"},{"id":"1159774","latitude":"37.75580000","longitude":"48.14910000","name":"Arseh Dijeh"},{"id":"1159775","latitude":"37.75580000","longitude":"48.14910000","name":"`Arseh Dogah"},{"id":"1159776","latitude":"37.75580000","longitude":"48.14910000","name":"`Arseh Dowgah"},{"id":"1159787","latitude":"37.52110000","longitude":"48.39070000","name":"Arsin"},{"id":"1159792","latitude":"37.52110000","longitude":"48.39070000","name":"Arsown"},{"id":"1159793","latitude":"37.52110000","longitude":"48.39070000","name":"Arsun"},{"id":"1159841","latitude":"38.49600000","longitude":"48.02860000","name":"Arva"},{"id":"1159844","latitude":"38.25260000","longitude":"48.06970000","name":"Arvanaq"},{"id":"1159852","latitude":"38.49600000","longitude":"48.02860000","name":"Arveh"},{"id":"1159972","latitude":"39.45140000","longitude":"47.45890000","name":"Asad Kandi"},{"id":"1160048","latitude":"38.15830000","longitude":"48.01380000","name":"Asb-e Marz"},{"id":"1160077","latitude":"37.43722200","longitude":"48.66500000","name":"Asbu"},{"id":"1160118","latitude":"37.80000000","longitude":"48.25000000","name":"Asfaranjan"},{"id":"1160119","latitude":"37.79833300","longitude":"48.23194400","name":"Asfaranjan-e Jadid"},{"id":"1160122","latitude":"37.80000000","longitude":"48.25000000","name":"Asfarjan"},{"id":"1160123","latitude":"37.79833300","longitude":"48.23194400","name":"Asfarjan-e Jadid"},{"id":"1160169","latitude":"39.15200000","longitude":"47.63900000","name":"`Asgar Kandi"},{"id":"1160172","latitude":"38.99070000","longitude":"47.76460000","name":"`Asgar Khanlu"},{"id":"1160176","latitude":"37.45777800","longitude":"48.66638900","name":"Asgestan"},{"id":"1160251","latitude":"38.60250000","longitude":"48.17050000","name":"`Asheq Qeshlaq"},{"id":"1160454","latitude":"37.33166700","longitude":"48.75500000","name":"Asiabar"},{"id":"1160568","latitude":"37.45777800","longitude":"48.66638900","name":"Askestan"},{"id":"1160576","latitude":"38.21000000","longitude":"48.18120000","name":"Aski Shahr"},{"id":"1160577","latitude":"37.45777800","longitude":"48.66638900","name":"Askistan"},{"id":"1160585","latitude":"38.21000000","longitude":"48.18120000","name":"Ask Shahr"},{"id":"1160590","latitude":"39.44390000","longitude":"47.40560000","name":"Aslandooz"},{"id":"1160591","latitude":"39.44020000","longitude":"47.42260000","name":"Aslan Duz"},{"id":"1160592","latitude":"39.44390000","longitude":"47.40560000","name":"Aslanduz Tepe"},{"id":"1160594","latitude":"37.84520000","longitude":"48.34260000","name":"Aslanlu"},{"id":"1160613","latitude":"37.50930000","longitude":"48.33450000","name":"Asmarud"},{"id":"1160626","latitude":"37.43722200","longitude":"48.66500000","name":"Aspa"},{"id":"1160643","latitude":"39.47210000","longitude":"48.22320000","name":"Aspek"},{"id":"1160695","latitude":"37.44777800","longitude":"48.72472200","name":"Astalikhvar"},{"id":"1160699","latitude":"37.23333300","longitude":"48.95000000","name":"Astana"},{"id":"1160705","latitude":"37.23333300","longitude":"48.95000000","name":"Astane"},{"id":"1160711","latitude":"37.23333300","longitude":"48.95000000","name":"Astaneh"},{"id":"1160757","latitude":"37.43722200","longitude":"48.66500000","name":"Asu"},{"id":"1160773","latitude":"37.39194400","longitude":"48.84444400","name":"Asyehvaseh"},{"id":"1160794","latitude":"39.08880000","longitude":"48.28420000","name":"`Atalu"},{"id":"1160812","latitude":"38.21970000","longitude":"48.05360000","name":"Atashgah"},{"id":"1160838","latitude":"38.21970000","longitude":"48.05360000","name":"Ateshgah"},{"id":"1160880","latitude":"38.66400000","longitude":"48.24010000","name":"At Tutan"},{"id":"1160950","latitude":"38.35560000","longitude":"47.48950000","name":"Avarlu"},{"id":"1160953","latitude":"38.35560000","longitude":"47.48950000","name":"Avarsi"},{"id":"1160955","latitude":"38.35560000","longitude":"47.48950000","name":"Avarsin"},{"id":"1160960","latitude":"37.72520000","longitude":"48.41480000","name":"Avashanaq"},{"id":"1161039","latitude":"38.49600000","longitude":"48.02860000","name":"Avra"},{"id":"1161044","latitude":"37.68020000","longitude":"48.15820000","name":"Avtafa"},{"id":"1161077","latitude":"39.03700000","longitude":"47.99690000","name":"Ayaz"},{"id":"1161081","latitude":"39.63180000","longitude":"47.81640000","name":"Ayaz Kandi"},{"id":"1161122","latitude":"38.20010000","longitude":"47.99140000","name":"Ayran Darrehsi"},{"id":"1161152","latitude":"38.66527800","longitude":"48.05027800","name":"Azabeyg Qeshlaq"},{"id":"1161156","latitude":"39.20000000","longitude":"47.96666700","name":"Azadabad"},{"id":"1161191","latitude":"39.10240000","longitude":"48.29930000","name":"Azadlu"},{"id":"1161225","latitude":"37.61490000","longitude":"48.17280000","name":"A`zamabad"},{"id":"1161256","latitude":"39.10240000","longitude":"48.29930000","name":"Azarlu"},{"id":"1161258","latitude":"39.00930000","longitude":"47.86810000","name":"Azarnaq"},{"id":"1161265","latitude":"39.10240000","longitude":"48.29930000","name":"Azatlu"},{"id":"1161302","latitude":"39.12480000","longitude":"48.19660000","name":"Azhdarlu"},{"id":"1161350","latitude":"37.26138900","longitude":"48.68944400","name":"`Azizabad"},{"id":"1161389","latitude":"38.93090000","longitude":"48.05810000","name":"`Azizlu"},{"id":"1161395","latitude":"39.01350000","longitude":"48.13170000","name":"Azmareh"},{"id":"1161567","latitude":"39.47460000","longitude":"48.23460000","name":"Babak"},{"id":"1161587","latitude":"37.26166700","longitude":"49.00583300","name":"Baba Kohneh"},{"id":"1161699","latitude":"39.37350000","longitude":"48.34180000","name":"Babashkandi"},{"id":"1161757","latitude":"37.59194400","longitude":"48.20000000","name":"Babeh Jik"},{"id":"1161801","latitude":"38.42250000","longitude":"47.91320000","name":"Babian"},{"id":"1161804","latitude":"39.07750000","longitude":"48.14200000","name":"Babi Kandi"},{"id":"1162148","latitude":"37.23444400","longitude":"48.80666700","name":"Badzhalan"},{"id":"1162151","latitude":"39.15820000","longitude":"47.59820000","name":"Ba`eshtah"},{"id":"1162161","latitude":"37.48750000","longitude":"48.54777800","name":"Bafrajerd"},{"id":"1162261","latitude":"37.29472200","longitude":"48.81666700","name":"Bagh"},{"id":"1162318","latitude":"37.72460000","longitude":"48.12650000","name":"Baghcheh Jiq"},{"id":"1162614","latitude":"39.46666700","longitude":"47.45000000","name":"Bagheshlu Kandi"},{"id":"1162617","latitude":"39.15820000","longitude":"47.59820000","name":"Bagheshtah"},{"id":"1162666","latitude":"37.78840000","longitude":"48.05090000","name":"Bagh-e Yangajeh"},{"id":"1162674","latitude":"37.37166700","longitude":"48.75138900","name":"Bagh-e Zarrin Kaff"},{"id":"1162761","latitude":"39.46230000","longitude":"47.43670000","name":"Baghish"},{"id":"1162866","latitude":"37.26305600","longitude":"48.72611100","name":"Bagh Qareh"},{"id":"1163142","latitude":"39.63520000","longitude":"48.05600000","name":"Bahramabad"},{"id":"1163175","latitude":"39.46666700","longitude":"47.53333300","name":"Bahram Kandi"},{"id":"1163231","latitude":"39.07010000","longitude":"48.10880000","name":"Bai Bagh"},{"id":"1163239","latitude":"39.07750000","longitude":"48.14200000","name":"Ba'i Kandi"},{"id":"1163277","latitude":"37.23444400","longitude":"48.80666700","name":"Bajalan"},{"id":"1163361","latitude":"38.95638900","longitude":"47.82055600","name":"Bakhsh`ali"},{"id":"1163377","latitude":"38.95000000","longitude":"47.76666700","name":"Bakhsk`ali"},{"id":"1163458","latitude":"39.20330000","longitude":"47.93220000","name":"Bala Beyglu"},{"id":"1163478","latitude":"39.03450000","longitude":"48.23120000","name":"Balad-e Garmani"},{"id":"1163613","latitude":"38.98888900","longitude":"47.49083300","name":"Balan"},{"id":"1163633","latitude":"38.98888900","longitude":"47.49083300","name":"Balan Safar`Ali"},{"id":"1163655","latitude":"37.85310000","longitude":"48.22290000","name":"Bala Saqdal"},{"id":"1163764","latitude":"37.56555600","longitude":"48.52583300","name":"Balil"},{"id":"1163794","latitude":"38.37400000","longitude":"47.72520000","name":"Ballujeh"},{"id":"1163796","latitude":"38.32840000","longitude":"47.54540000","name":"Balluqiyeh"},{"id":"1163856","latitude":"37.79277800","longitude":"48.49138900","name":"Balukanlu"},{"id":"1163861","latitude":"38.32840000","longitude":"47.54540000","name":"Balu Qayah"},{"id":"1163885","latitude":"38.66320000","longitude":"48.04370000","name":"Balut Kandi"},{"id":"1163982","latitude":"38.18120000","longitude":"48.28020000","name":"Banafsheh Daraq"},{"id":"1164304","latitude":"38.45470000","longitude":"47.86800000","name":"Bandelar"},{"id":"1164404","latitude":"38.78670000","longitude":"47.57320000","name":"Bandvalam"},{"id":"1164738","latitude":"39.12010000","longitude":"48.25250000","name":"Baqerlu"},{"id":"1164743","latitude":"39.11240000","longitude":"47.75090000","name":"Baqeysh Qeshlaq"},{"id":"1164908","latitude":"39.31780000","longitude":"47.51930000","name":"Baran"},{"id":"1164909","latitude":"37.25611100","longitude":"48.58777800","name":"Barandaq"},{"id":"1164992","latitude":"38.55000000","longitude":"47.83333300","name":"Barazmand"},{"id":"1165017","latitude":"38.91611100","longitude":"47.68833300","name":"Barcheh"},{"id":"1165055","latitude":"37.69940000","longitude":"48.16620000","name":"Bardastlu"},{"id":"1165063","latitude":"37.34583300","longitude":"48.62916700","name":"Bard"},{"id":"1165251","latitude":"39.19520000","longitude":"47.91520000","name":"Bareh Qeshlaq"},{"id":"1165285","latitude":"38.45527800","longitude":"47.66972200","name":"Barezil"},{"id":"1165326","latitude":"38.70610000","longitude":"48.06320000","name":"Bargchay"},{"id":"1165421","latitude":"38.50940000","longitude":"47.67150000","name":"Baris"},{"id":"1165651","latitude":"38.30140000","longitude":"48.16960000","name":"Baruq"},{"id":"1165694","latitude":"39.02944400","longitude":"47.95222200","name":"Barzand"},{"id":"1165741","latitude":"37.24972200","longitude":"48.96611100","name":"Basak Machal"},{"id":"1165822","latitude":"38.48694400","longitude":"47.94472200","name":"Bashil Bash"},{"id":"1165834","latitude":"39.06580000","longitude":"48.01990000","name":"Bashirlu-ye Bala"},{"id":"1165836","latitude":"39.06580000","longitude":"48.01990000","name":"Bashirlu-ye `Olya"},{"id":"1165837","latitude":"39.06990000","longitude":"48.01410000","name":"Bashirlu-ye Pa'in"},{"id":"1165839","latitude":"39.06990000","longitude":"48.01410000","name":"Bashirlu-ye Sofla"},{"id":"1165911","latitude":"37.78830000","longitude":"48.01950000","name":"Basit"},{"id":"1166009","latitude":"37.63610000","longitude":"48.00120000","name":"Batlaq"},{"id":"1166182","latitude":"39.07010000","longitude":"48.10880000","name":"Bay Bagh"},{"id":"1166249","latitude":"38.47480000","longitude":"48.24890000","name":"Bayram Badan"},{"id":"1166261","latitude":"39.64730000","longitude":"47.87870000","name":"Bayuk Khanle"},{"id":"1166358","latitude":"38.45527800","longitude":"47.66972200","name":"Bazeril"},{"id":"1166495","latitude":"39.07010000","longitude":"48.10880000","name":"Beg Bagh"},{"id":"1166510","latitude":"39.36510000","longitude":"48.32420000","name":"Begli"},{"id":"1166645","latitude":"39.07010000","longitude":"48.10880000","name":"Beik Baghi"},{"id":"1166656","latitude":"37.99060000","longitude":"47.96920000","name":"Bejeh Mir"},{"id":"1166704","latitude":"38.98888900","longitude":"47.49083300","name":"Belan"},{"id":"1166738","latitude":"37.56555600","longitude":"48.52583300","name":"Belil"},{"id":"1166748","latitude":"37.95000000","longitude":"47.96830000","name":"Belqesabad"},{"id":"1166749","latitude":"37.95000000","longitude":"47.96830000","name":"Belqeysabad"},{"id":"1166771","latitude":"37.88300000","longitude":"48.47970000","name":"Benamaran"},{"id":"1166810","latitude":"39.08040000","longitude":"47.99120000","name":"Beneh"},{"id":"1166813","latitude":"37.56440000","longitude":"48.28420000","name":"Beneh Khalkhal"},{"id":"1166815","latitude":"38.45470000","longitude":"47.86800000","name":"Beneh Lar"},{"id":"1166844","latitude":"38.21110000","longitude":"48.02440000","name":"Benmar"},{"id":"1167023","latitude":"38.70610000","longitude":"48.06320000","name":"Bertchay"},{"id":"1167108","latitude":"39.36510000","longitude":"48.32420000","name":"Beyagli"},{"id":"1167143","latitude":"39.07010000","longitude":"48.10880000","name":"Beyg Baghi"},{"id":"1167144","latitude":"38.71710000","longitude":"47.92370000","name":"Beyg Baghlu"},{"id":"1167174","latitude":"38.46666700","longitude":"47.68333300","name":"Beyhaq"},{"id":"1167206","latitude":"37.47305600","longitude":"48.42027800","name":"Beyraq"},{"id":"1167375","latitude":"37.70680000","longitude":"48.42180000","name":"Bi Ahmad Beyg"},{"id":"1167394","latitude":"38.99010000","longitude":"48.16800000","name":"Bi`araq"},{"id":"1167398","latitude":"38.99010000","longitude":"48.16800000","name":"Bi`areh"},{"id":"1167825","latitude":"38.47960000","longitude":"47.70410000","name":"Bijaq"},{"id":"1167864","latitude":"37.99060000","longitude":"47.96920000","name":"Bijeh Mir"},{"id":"1167885","latitude":"37.99060000","longitude":"47.96920000","name":"Bijmir"},{"id":"1167928","latitude":"38.17890000","longitude":"48.05700000","name":"Bilah Daraq"},{"id":"1167929","latitude":"38.14440000","longitude":"48.42400000","name":"Bilah Daraq-e Fuladlu"},{"id":"1167942","latitude":"38.96980000","longitude":"48.00370000","name":"Bil Dashi"},{"id":"1167946","latitude":"37.42777800","longitude":"48.39305600","name":"Bileh Deh"},{"id":"1167949","latitude":"39.37870000","longitude":"48.36160000","name":"Bileh Savar"},{"id":"1167957","latitude":"37.63472200","longitude":"48.63027800","name":"Bili"},{"id":"1168010","latitude":"37.56440000","longitude":"48.28420000","name":"Bina-Khakhal"},{"id":"1168011","latitude":"37.56440000","longitude":"48.28420000","name":"Bina Khalkhal"},{"id":"1168017","latitude":"37.88300000","longitude":"48.47970000","name":"Binamaran"},{"id":"1168018","latitude":"38.21110000","longitude":"48.02440000","name":"Binamar-e Sabalan"},{"id":"1168057","latitude":"38.54120000","longitude":"47.93050000","name":"Birazmand"},{"id":"1168138","latitude":"39.04890000","longitude":"47.53760000","name":"Biryan"},{"id":"1168304","latitude":"39.01070000","longitude":"47.91940000","name":"Bodaghlu"},{"id":"1168490","latitude":"37.81722200","longitude":"48.50777800","name":"Bolukanlu"},{"id":"1168503","latitude":"38.35430000","longitude":"47.54360000","name":"Bolus"},{"id":"1168669","latitude":"37.56440000","longitude":"48.28420000","name":"Boneh Khalkal"},{"id":"1168670","latitude":"37.56440000","longitude":"48.28420000","name":"Boneh Khalkhal"},{"id":"1169044","latitude":"37.89027800","longitude":"48.49888900","name":"Bonyabad"},{"id":"1169046","latitude":"37.89027800","longitude":"48.49888900","name":"Bonyadabad"},{"id":"1169209","latitude":"38.01270000","longitude":"47.96980000","name":"Borjelu"},{"id":"1169246","latitude":"37.99060000","longitude":"47.96920000","name":"Borjlu"},{"id":"1169301","latitude":"39.31780000","longitude":"47.51930000","name":"Borran-e Bala"},{"id":"1169302","latitude":"39.31780000","longitude":"47.51930000","name":"Borran-e `Olya"},{"id":"1169303","latitude":"39.33570000","longitude":"47.50200000","name":"Borran-e Pa'in"},{"id":"1169304","latitude":"39.33570000","longitude":"47.50200000","name":"Borran-e Sofla"},{"id":"1169316","latitude":"38.01270000","longitude":"47.96980000","name":"Borujelu"},{"id":"1169320","latitude":"38.97020000","longitude":"48.22620000","name":"Borukabad"},{"id":"1169333","latitude":"39.11666700","longitude":"47.88333300","name":"Borun Qeshlaq"},{"id":"1169490","latitude":"39.12710000","longitude":"48.23140000","name":"Boyok Aqalu"},{"id":"1169494","latitude":"39.12710000","longitude":"48.23140000","name":"Boyuk Aqa"},{"id":"1169498","latitude":"39.64730000","longitude":"47.87870000","name":"Boyuk Khanlu"},{"id":"1169644","latitude":"38.02610000","longitude":"48.46030000","name":"Bud Alal"},{"id":"1169645","latitude":"38.02610000","longitude":"48.46030000","name":"Budalalu"},{"id":"1169646","latitude":"38.02610000","longitude":"48.46030000","name":"Bud Alan"},{"id":"1169647","latitude":"38.02610000","longitude":"48.46030000","name":"Bu Dallal"},{"id":"1169648","latitude":"38.02610000","longitude":"48.46030000","name":"Budallan"},{"id":"1169663","latitude":"38.58590000","longitude":"47.95110000","name":"Budvajaq"},{"id":"1169730","latitude":"39.36420000","longitude":"47.42810000","name":"Bujeh"},{"id":"1169731","latitude":"39.37570000","longitude":"47.46020000","name":"Bujeh-ye Bala"},{"id":"1169732","latitude":"39.38970000","longitude":"47.44410000","name":"Bujeh-ye Pa'in"},{"id":"1169741","latitude":"39.38130000","longitude":"47.45630000","name":"Buju-ye Vasat"},{"id":"1169801","latitude":"38.37400000","longitude":"47.72520000","name":"Bulujeh"},{"id":"1169937","latitude":"38.06030000","longitude":"47.93760000","name":"Buran"},{"id":"1169984","latitude":"37.59080000","longitude":"48.13130000","name":"Burestan"},{"id":"1169986","latitude":"37.45777800","longitude":"48.44027800","name":"Burgahem"},{"id":"1169987","latitude":"37.45777800","longitude":"48.44027800","name":"Burgahim"},{"id":"1170028","latitude":"38.97020000","longitude":"48.22620000","name":"Burkabad"},{"id":"1170063","latitude":"37.59080000","longitude":"48.13130000","name":"Burustan"},{"id":"1170109","latitude":"38.00660000","longitude":"48.28260000","name":"Busjin"},{"id":"1170164","latitude":"38.52820000","longitude":"48.30900000","name":"Buyaqchilu"},{"id":"1170189","latitude":"39.23030000","longitude":"47.54650000","name":"Buzakhlu"},{"id":"1170196","latitude":"38.35027800","longitude":"47.45638900","name":"Buzdu Bolagh"},{"id":"1170219","latitude":"39.37570000","longitude":"47.46020000","name":"Buzjeh-ye `Olya"},{"id":"1170220","latitude":"39.38970000","longitude":"47.44410000","name":"Buzjeh-ye Sofla"},{"id":"1170221","latitude":"39.38130000","longitude":"47.45630000","name":"Buzjeh-ye Vosta"},{"id":"1170363","latitude":"38.61160000","longitude":"48.26030000","name":"Chaghun Kenesh"},{"id":"1170365","latitude":"37.76111100","longitude":"48.36527800","name":"Chaginap"},{"id":"1170368","latitude":"38.47694400","longitude":"47.91527800","name":"Chagoli Bolagh"},{"id":"1170493","latitude":"38.79070000","longitude":"47.80370000","name":"Chahar Chaman"},{"id":"1170567","latitude":"37.39527800","longitude":"48.42027800","name":"Chahar Khanevar"},{"id":"1171491","latitude":"37.70600000","longitude":"47.99540000","name":"Chahmaqlu"},{"id":"1171713","latitude":"39.14220000","longitude":"47.94430000","name":"Chah Tappehsi"},{"id":"1171804","latitude":"38.52220000","longitude":"47.65260000","name":"Chajilu"},{"id":"1171845","latitude":"38.79070000","longitude":"47.80370000","name":"Chakhar Chamani"},{"id":"1171849","latitude":"38.79070000","longitude":"47.80370000","name":"Chakher Chamani"},{"id":"1171871","latitude":"38.62888900","longitude":"47.79861100","name":"Chakhmaq Chokur"},{"id":"1171874","latitude":"37.70600000","longitude":"47.99540000","name":"Chakhmaqlu"},{"id":"1171879","latitude":"38.30720000","longitude":"48.07760000","name":"Chakial"},{"id":"1171948","latitude":"38.98430000","longitude":"48.10670000","name":"Chalak"},{"id":"1171965","latitude":"37.69580000","longitude":"48.49190000","name":"Chalambar"},{"id":"1171967","latitude":"37.69580000","longitude":"48.49190000","name":"Chalanbar"},{"id":"1172109","latitude":"37.67540000","longitude":"48.39710000","name":"Chalgar"},{"id":"1172110","latitude":"37.67540000","longitude":"48.39710000","name":"Chalgarud"},{"id":"1172116","latitude":"38.30720000","longitude":"48.07760000","name":"Chalgial"},{"id":"1172139","latitude":"37.35916700","longitude":"48.89861100","name":"Chali Nareh"},{"id":"1172173","latitude":"39.41290000","longitude":"48.10360000","name":"Chalma"},{"id":"1172174","latitude":"39.41290000","longitude":"48.10360000","name":"Chalma Kandi"},{"id":"1172175","latitude":"39.41290000","longitude":"48.10360000","name":"Chalma Kendi"},{"id":"1172180","latitude":"39.41290000","longitude":"48.10360000","name":"Chalmeh"},{"id":"1172181","latitude":"39.41290000","longitude":"48.10360000","name":"Chalmeh Kandi"},{"id":"1172837","latitude":"38.57240000","longitude":"48.07580000","name":"Chanbalu Qeshlaq"},{"id":"1172874","latitude":"39.00180000","longitude":"48.26420000","name":"Changan"},{"id":"1172884","latitude":"38.58722200","longitude":"47.78861100","name":"Chang Darreh"},{"id":"1172919","latitude":"38.04540000","longitude":"48.49890000","name":"Chanzab"},{"id":"1172923","latitude":"38.26666700","longitude":"48.35000000","name":"Chanzanaq"},{"id":"1172942","latitude":"38.56790000","longitude":"47.86390000","name":"Chapaqan"},{"id":"1173053","latitude":"38.92000000","longitude":"47.97760000","name":"Chaqunganesh"},{"id":"1173078","latitude":"37.45027800","longitude":"48.74138900","name":"Charan"},{"id":"1173079","latitude":"37.78333300","longitude":"48.38333300","name":"Charanda"},{"id":"1173082","latitude":"37.78333300","longitude":"48.38333300","name":"Charandeh"},{"id":"1173103","latitude":"38.78350000","longitude":"47.51080000","name":"Charchilu"},{"id":"1173108","latitude":"39.03350000","longitude":"47.51150000","name":"Chareghdayesh"},{"id":"1173115","latitude":"39.03350000","longitude":"47.51150000","name":"Chareq Dash"},{"id":"1173204","latitude":"37.40000000","longitude":"48.53333300","name":"Charna"},{"id":"1173475","latitude":"39.28333300","longitude":"47.83333300","name":"Chatmeh"},{"id":"1173478","latitude":"38.52590000","longitude":"48.25890000","name":"Chat Qayah"},{"id":"1173556","latitude":"38.56790000","longitude":"47.86390000","name":"Chayaqan"},{"id":"1173586","latitude":"39.22640000","longitude":"48.12980000","name":"Chay Qeshlaq"},{"id":"1173590","latitude":"37.32138900","longitude":"48.40833300","name":"Chay Qushan"},{"id":"1173599","latitude":"38.10060000","longitude":"48.11490000","name":"Chay Segherlu"},{"id":"1173600","latitude":"38.10060000","longitude":"48.11490000","name":"Chay Seqerlu"},{"id":"1173611","latitude":"37.40000000","longitude":"48.26666700","name":"Chaza Tazekh"},{"id":"1173614","latitude":"38.55850000","longitude":"48.06990000","name":"Chebeni"},{"id":"1173615","latitude":"38.55850000","longitude":"48.06990000","name":"Chebenlu"},{"id":"1173616","latitude":"38.57240000","longitude":"48.07580000","name":"Chebenlu-ye Qeshlaq"},{"id":"1173738","latitude":"38.30720000","longitude":"48.07760000","name":"Chehel Gaz"},{"id":"1173803","latitude":"37.97670000","longitude":"48.04230000","name":"Chehreh Barq"},{"id":"1173808","latitude":"37.97670000","longitude":"48.04230000","name":"Chehreh Saraq"},{"id":"1173862","latitude":"39.60000000","longitude":"47.78333300","name":"Chelavdar"},{"id":"1173881","latitude":"38.30720000","longitude":"48.07760000","name":"Chelgazi"},{"id":"1173906","latitude":"38.86222200","longitude":"47.57833300","name":"Chelleh Darreh"},{"id":"1173962","latitude":"38.97510000","longitude":"47.84410000","name":"Chenakh Bolagh"},{"id":"1173971","latitude":"38.45350000","longitude":"47.93000000","name":"Chenaq Bolagh"},{"id":"1173977","latitude":"38.29730000","longitude":"48.12390000","name":"Chenaqerd"},{"id":"1173988","latitude":"37.44666700","longitude":"48.35111100","name":"Chenaran"},{"id":"1174029","latitude":"39.12120000","longitude":"47.86250000","name":"Chenar"},{"id":"1174222","latitude":"37.76111100","longitude":"48.36527800","name":"Cheqanab"},{"id":"1174284","latitude":"38.73330000","longitude":"47.63480000","name":"Cher Cher"},{"id":"1175080","latitude":"37.44666700","longitude":"48.35111100","name":"Chinar"},{"id":"1175132","latitude":"38.73330000","longitude":"47.63480000","name":"Chir Chir"},{"id":"1175470","latitude":"38.92000000","longitude":"47.97760000","name":"Choqungonash"},{"id":"1175714","latitude":"37.48361100","longitude":"48.49250000","name":"Chuli"},{"id":"1175735","latitude":"39.11150000","longitude":"48.14240000","name":"Chuna Khanlu"},{"id":"1175745","latitude":"39.11150000","longitude":"48.14240000","name":"Chuneh Khanlu"},{"id":"1175747","latitude":"38.92000000","longitude":"47.97760000","name":"Chungenesh"},{"id":"1175750","latitude":"38.61160000","longitude":"48.26030000","name":"Chunginesh"},{"id":"1175751","latitude":"38.92000000","longitude":"47.97760000","name":"Chungunesh"},{"id":"1175752","latitude":"39.11150000","longitude":"48.14240000","name":"Chun Khan"},{"id":"1175757","latitude":"39.03560000","longitude":"48.02750000","name":"Chunzeh-ye Bala"},{"id":"1175758","latitude":"39.04890000","longitude":"48.04230000","name":"Chunzeh-ye Pa'in"},{"id":"1175759","latitude":"39.04890000","longitude":"48.04230000","name":"Chunzeh-ye Sofla"},{"id":"1175786","latitude":"37.97670000","longitude":"48.04230000","name":"Churabara"},{"id":"1175787","latitude":"37.97670000","longitude":"48.04230000","name":"Churabur"},{"id":"1175873","latitude":"37.86070000","longitude":"48.20660000","name":"Dabanlu"},{"id":"1175936","latitude":"38.55630000","longitude":"47.83700000","name":"Dadeh Beyglu"},{"id":"1176018","latitude":"38.33333300","longitude":"48.55000000","name":"Dagerman Daraq"},{"id":"1176049","latitude":"38.81610000","longitude":"47.69110000","name":"Dagh Kandi"},{"id":"1176066","latitude":"37.91540000","longitude":"48.08770000","name":"Dagmeh Dagheldi"},{"id":"1176067","latitude":"37.91540000","longitude":"48.08770000","name":"Dagmeh Daghil"},{"id":"1176068","latitude":"37.91540000","longitude":"48.08770000","name":"Dagmeh Daghun"},{"id":"1176244","latitude":"37.91540000","longitude":"48.08770000","name":"Daimadaghli"},{"id":"1176268","latitude":"37.64222200","longitude":"48.61111100","name":"Dakan Mirza"},{"id":"1176281","latitude":"38.40000000","longitude":"47.58333300","name":"Dakesh"},{"id":"1176346","latitude":"37.20833300","longitude":"48.99583300","name":"Daleh Khani"},{"id":"1176381","latitude":"38.58730000","longitude":"48.30220000","name":"Dalikli Dash"},{"id":"1176382","latitude":"39.27470000","longitude":"47.51760000","name":"Dalik Yarqan"},{"id":"1176383","latitude":"39.27470000","longitude":"47.51760000","name":"Dalik Yorqan"},{"id":"1176384","latitude":"38.58730000","longitude":"48.30220000","name":"Dalilaklidash"},{"id":"1176385","latitude":"38.03333300","longitude":"48.45000000","name":"Dalilar"},{"id":"1176408","latitude":"37.37944400","longitude":"48.76972200","name":"Dalma Deh"},{"id":"1176470","latitude":"38.07030000","longitude":"48.01530000","name":"Damani"},{"id":"1176494","latitude":"38.30010000","longitude":"47.47760000","name":"Dambirchi Kandi"},{"id":"1176506","latitude":"38.91420000","longitude":"47.86620000","name":"Damdabaja"},{"id":"1176508","latitude":"38.91420000","longitude":"47.86620000","name":"Damdapaja"},{"id":"1176519","latitude":"37.33361100","longitude":"48.39527800","name":"Damdol"},{"id":"1176520","latitude":"37.33361100","longitude":"48.39527800","name":"Dam Dul"},{"id":"1176567","latitude":"39.02210000","longitude":"48.26110000","name":"Damir Chelu"},{"id":"1176568","latitude":"39.34290000","longitude":"48.27300000","name":"Damirchelu"},{"id":"1176569","latitude":"39.02210000","longitude":"48.26110000","name":"Damirchelu-ye `Olya"},{"id":"1176570","latitude":"39.02660000","longitude":"48.25910000","name":"Damirchelu-ye Sofla"},{"id":"1176574","latitude":"38.92060000","longitude":"47.91940000","name":"Damirchi Darrehsi-ye Bala"},{"id":"1176575","latitude":"38.92600000","longitude":"47.90300000","name":"Damirchi Darrehsi-ye Pa'in"},{"id":"1176577","latitude":"39.02210000","longitude":"48.26110000","name":"Damirchilu"},{"id":"1176579","latitude":"39.28333300","longitude":"47.85000000","name":"Damirchilu-ye Qeshlaq-e Hajj Majid"},{"id":"1176580","latitude":"39.02210000","longitude":"48.26110000","name":"Damirchi-ye Bala"},{"id":"1176581","latitude":"39.18370000","longitude":"47.80070000","name":"Damirchi-ye Kharabasi"},{"id":"1176582","latitude":"39.02210000","longitude":"48.26110000","name":"Damirchi-ye `Olya"},{"id":"1176583","latitude":"39.02660000","longitude":"48.25910000","name":"Damirchi-ye Pa'in"},{"id":"1176584","latitude":"39.02660000","longitude":"48.25910000","name":"Damirchi-ye Sofla"},{"id":"1176585","latitude":"39.02210000","longitude":"48.26110000","name":"Damir Cholu"},{"id":"1176586","latitude":"39.18370000","longitude":"47.80070000","name":"Damirch-ye Kharabahsi"},{"id":"1176616","latitude":"38.55170000","longitude":"48.00480000","name":"Dam Qoli"},{"id":"1176657","latitude":"37.44230000","longitude":"48.16870000","name":"Danar"},{"id":"1176674","latitude":"37.22777800","longitude":"48.99388900","name":"Danduneh"},{"id":"1176714","latitude":"39.01070000","longitude":"47.59430000","name":"Danial"},{"id":"1176717","latitude":"38.08490000","longitude":"48.16350000","name":"Danianli"},{"id":"1176776","latitude":"38.22000000","longitude":"48.09140000","name":"Darabad"},{"id":"1177300","latitude":"39.10690000","longitude":"47.72400000","name":"Dargahlu"},{"id":"1177302","latitude":"38.17510000","longitude":"47.99080000","name":"Dargah Saran"},{"id":"1177325","latitude":"38.17510000","longitude":"47.99080000","name":"Dargeh Saran"},{"id":"1177454","latitude":"39.07050000","longitude":"48.27480000","name":"Darin Kabud"},{"id":"1177596","latitude":"39.04890000","longitude":"48.20130000","name":"Darmanlu"},{"id":"1177771","latitude":"38.69250000","longitude":"47.99460000","name":"Darreh Beyglu"},{"id":"1177871","latitude":"38.97670000","longitude":"47.85960000","name":"Darreh Gahlu"},{"id":"1178619","latitude":"39.06380000","longitude":"48.25180000","name":"Darvish-e Gurnamaz"},{"id":"1178621","latitude":"39.06380000","longitude":"48.25180000","name":"Darvish Garimaz"},{"id":"1178622","latitude":"39.06380000","longitude":"48.25180000","name":"Darvish Gurunmaz"},{"id":"1178665","latitude":"39.00900000","longitude":"48.01790000","name":"Daryaman"},{"id":"1178756","latitude":"37.89890000","longitude":"48.24890000","name":"Dashbolagh"},{"id":"1178757","latitude":"37.89890000","longitude":"48.24890000","name":"Dash Bolagh"},{"id":"1178758","latitude":"38.44250000","longitude":"47.96020000","name":"Dashbolagh"},{"id":"1178759","latitude":"38.44250000","longitude":"47.96020000","name":"Dash Bolagh"},{"id":"1178760","latitude":"38.99330000","longitude":"47.83980000","name":"Dash Bolagh"},{"id":"1178761","latitude":"39.19450000","longitude":"47.84350000","name":"Dashbolagh"},{"id":"1178769","latitude":"38.36666700","longitude":"48.51666700","name":"Dash Bolaghi"},{"id":"1178772","latitude":"38.84610000","longitude":"47.65500000","name":"Dash Bolagh Kandeh"},{"id":"1178773","latitude":"37.89890000","longitude":"48.24890000","name":"Dash-Bulag"},{"id":"1178780","latitude":"37.89890000","longitude":"48.24890000","name":"Dashbulaq"},{"id":"1178786","latitude":"38.96670000","longitude":"48.20720000","name":"Dashdebi"},{"id":"1178788","latitude":"38.96670000","longitude":"48.20720000","name":"Dashdibi"},{"id":"1178806","latitude":"38.42680000","longitude":"47.87730000","name":"Dash Kasan"},{"id":"1178810","latitude":"38.42680000","longitude":"47.87730000","name":"Dash Kashan"},{"id":"1178817","latitude":"37.25000000","longitude":"48.80000000","name":"Dash-Kishlak"},{"id":"1178822","latitude":"38.78430000","longitude":"47.70400000","name":"Dashli Darreh"},{"id":"1178831","latitude":"38.44900000","longitude":"48.26400000","name":"Dashlujeh"},{"id":"1178840","latitude":"39.06040000","longitude":"47.73270000","name":"Dash Qapu"},{"id":"1178843","latitude":"37.25000000","longitude":"48.80000000","name":"Dash Qeshlaq"},{"id":"1178844","latitude":"37.25000000","longitude":"48.80000000","name":"Dash Qishlaq"},{"id":"1178882","latitude":"37.21611100","longitude":"48.77916700","name":"Dasht Andar"},{"id":"1178883","latitude":"38.78430000","longitude":"47.70400000","name":"Dashtan Darreh"},{"id":"1178960","latitude":"37.39472200","longitude":"48.86027800","name":"Dashteh"},{"id":"1179216","latitude":"38.46650000","longitude":"47.66910000","name":"Dastgir"},{"id":"1179321","latitude":"38.65110000","longitude":"47.87710000","name":"Davahchi-ye `Olya"},{"id":"1179374","latitude":"38.65110000","longitude":"47.87710000","name":"Davechi-ye Bala"},{"id":"1179375","latitude":"38.64700000","longitude":"47.86430000","name":"Davechi-ye Pa'in"},{"id":"1179376","latitude":"38.64700000","longitude":"47.86430000","name":"Davehchi"},{"id":"1179401","latitude":"37.95080000","longitude":"48.08190000","name":"Davshanly"},{"id":"1179421","latitude":"37.66250000","longitude":"48.55250000","name":"Davud Khaneh"},{"id":"1179422","latitude":"37.66250000","longitude":"48.55250000","name":"Davudkhani"},{"id":"1179432","latitude":"39.19640000","longitude":"48.09350000","name":"Davud Qeshlaqi"},{"id":"1179474","latitude":"37.35583300","longitude":"48.26250000","name":"Dayu"},{"id":"1179475","latitude":"37.35583300","longitude":"48.26250000","name":"Dayu Kandi"},{"id":"1181646","latitude":"37.40500000","longitude":"48.69611100","name":"Dehru"},{"id":"1181988","latitude":"37.20833300","longitude":"48.99583300","name":"Delah Khani"},{"id":"1182003","latitude":"38.03390000","longitude":"48.45890000","name":"Delar"},{"id":"1182082","latitude":"38.89070000","longitude":"47.70670000","name":"Delik Dash"},{"id":"1182302","latitude":"37.40500000","longitude":"48.69611100","name":"Derow"},{"id":"1182374","latitude":"39.53333300","longitude":"47.63333300","name":"Deylagarda"},{"id":"1182378","latitude":"37.37944400","longitude":"48.76972200","name":"Deylamdeh"},{"id":"1182392","latitude":"38.06666700","longitude":"47.93333300","name":"Deyman"},{"id":"1182415","latitude":"37.84833300","longitude":"48.59305600","name":"Deyrgah"},{"id":"1182523","latitude":"38.34240000","longitude":"47.52990000","name":"Dibaglu"},{"id":"1182528","latitude":"38.34240000","longitude":"47.52990000","name":"Dibaklu"},{"id":"1182567","latitude":"38.77770000","longitude":"47.54890000","name":"Dig Daraq"},{"id":"1182575","latitude":"38.33333300","longitude":"47.53333300","name":"Diglu"},{"id":"1182582","latitude":"38.29340000","longitude":"48.15910000","name":"Dijujin"},{"id":"1182588","latitude":"38.77770000","longitude":"47.54890000","name":"Dikdaraq"},{"id":"1182636","latitude":"38.07030000","longitude":"48.01530000","name":"Diman"},{"id":"1182651","latitude":"38.05680000","longitude":"48.12580000","name":"Dim Segherlu"},{"id":"1182652","latitude":"38.05680000","longitude":"48.12580000","name":"Dim Seqerlu"},{"id":"1182678","latitude":"37.38833300","longitude":"48.61750000","name":"Dinar Dul"},{"id":"1182737","latitude":"38.31666700","longitude":"48.53333300","name":"Dirmadaghi"},{"id":"1182820","latitude":"38.25080000","longitude":"48.12840000","name":"Divlaq"},{"id":"1182845","latitude":"37.23611100","longitude":"48.93888900","name":"Diz Ab"},{"id":"1182872","latitude":"39.03360000","longitude":"47.97500000","name":"Dizaj"},{"id":"1182966","latitude":"37.44230000","longitude":"48.16870000","name":"Diz"},{"id":"1182974","latitude":"39.03360000","longitude":"47.97500000","name":"Dizeh"},{"id":"1182995","latitude":"37.84833300","longitude":"48.59305600","name":"Dizgah"},{"id":"1183035","latitude":"38.28670000","longitude":"47.69420000","name":"Dizu"},{"id":"1183180","latitude":"37.51240000","longitude":"48.26600000","name":"Dogar"},{"id":"1183198","latitude":"37.91540000","longitude":"48.08770000","name":"Dogmeh Daghun"},{"id":"1183199","latitude":"37.91540000","longitude":"48.08770000","name":"Dogmeh"},{"id":"1183258","latitude":"37.91540000","longitude":"48.08770000","name":"Dokmah Daghluy"},{"id":"1183259","latitude":"37.91540000","longitude":"48.08770000","name":"Dokmeh Daghil"},{"id":"1183389","latitude":"38.88970000","longitude":"47.61860000","name":"Domuli"},{"id":"1183428","latitude":"38.31666700","longitude":"48.50000000","name":"Doorjin"},{"id":"1183595","latitude":"37.75680000","longitude":"48.19000000","name":"Doshman"},{"id":"1183598","latitude":"37.74611100","longitude":"48.17611100","name":"Doshmanli"},{"id":"1183599","latitude":"37.74611100","longitude":"48.17611100","name":"Doshmanlu"},{"id":"1183611","latitude":"37.43722200","longitude":"48.39111100","name":"Dostulu"},{"id":"1183632","latitude":"38.31666700","longitude":"48.50000000","name":"Dovarjin"},{"id":"1183700","latitude":"37.51240000","longitude":"48.26600000","name":"Dowgar"},{"id":"1183739","latitude":"38.25080000","longitude":"48.12840000","name":"Dowlaq"},{"id":"1183740","latitude":"38.24590000","longitude":"48.14470000","name":"Dowlaq Sar"},{"id":"1183770","latitude":"37.61220000","longitude":"48.03750000","name":"Dowlatabad"},{"id":"1183824","latitude":"38.24590000","longitude":"48.14470000","name":"Dowlat Sara"},{"id":"1183933","latitude":"37.95080000","longitude":"48.08190000","name":"Dowshanjaq"},{"id":"1183934","latitude":"37.95080000","longitude":"48.08190000","name":"Dowshanjiq"},{"id":"1183935","latitude":"37.95080000","longitude":"48.08190000","name":"Dowshanjiyeh"},{"id":"1183936","latitude":"37.95080000","longitude":"48.08190000","name":"Dowshanli"},{"id":"1183938","latitude":"37.95080000","longitude":"48.08190000","name":"Dowshanlu"},{"id":"1184064","latitude":"38.41666700","longitude":"48.50000000","name":"Dudaran"},{"id":"1184095","latitude":"37.51240000","longitude":"48.26600000","name":"Dugar"},{"id":"1184097","latitude":"37.51240000","longitude":"48.26600000","name":"Duger"},{"id":"1184178","latitude":"37.51333300","longitude":"48.69611100","name":"Dulah"},{"id":"1184247","latitude":"38.69861100","longitude":"47.89083300","name":"Duli"},{"id":"1184273","latitude":"37.61220000","longitude":"48.03750000","name":"Dulyatabad"},{"id":"1184304","latitude":"38.88970000","longitude":"47.61860000","name":"Dumuli"},{"id":"1184305","latitude":"38.88970000","longitude":"47.61860000","name":"Dumulu"},{"id":"1184399","latitude":"38.31666700","longitude":"48.50000000","name":"Durjin"},{"id":"1184439","latitude":"38.46390000","longitude":"48.32200000","name":"Dushan Bolaghi"},{"id":"1184443","latitude":"37.95080000","longitude":"48.08190000","name":"Dushanjaq"},{"id":"1184444","latitude":"38.63333300","longitude":"47.73333300","name":"Dushanlu"},{"id":"1184460","latitude":"37.74611100","longitude":"48.17611100","name":"Dushmalli"},{"id":"1184481","latitude":"37.43722200","longitude":"48.39111100","name":"Dustelu"},{"id":"1184485","latitude":"39.67640000","longitude":"47.96240000","name":"Dust Kandi"},{"id":"1184488","latitude":"37.43722200","longitude":"48.39111100","name":"Dustlu"},{"id":"1184552","latitude":"39.15000000","longitude":"47.66666700","name":"Duz Qeshlaq"},{"id":"1184554","latitude":"37.51240000","longitude":"48.26600000","name":"Dyugar"},{"id":"1184574","latitude":"37.97230000","longitude":"48.41600000","name":"Dzhiavan"},{"id":"1184577","latitude":"37.86920000","longitude":"48.25000000","name":"Dzhigdzhig"},{"id":"1184597","latitude":"39.16460000","longitude":"48.20320000","name":"`Eba Beyglu"},{"id":"1184612","latitude":"37.74480000","longitude":"48.23600000","name":"Ebelli"},{"id":"1184613","latitude":"37.74480000","longitude":"48.23600000","name":"Ebelli `Olya"},{"id":"1184614","latitude":"37.74480000","longitude":"48.23600000","name":"Ebelli Sofla"},{"id":"1184620","latitude":"37.74480000","longitude":"48.23600000","name":"Ebli-ye `Olya"},{"id":"1184621","latitude":"37.74480000","longitude":"48.23600000","name":"Ebli-ye Pa'in"},{"id":"1184622","latitude":"37.74480000","longitude":"48.23600000","name":"Ebli-ye Sofla"},{"id":"1184628","latitude":"39.62100000","longitude":"47.91840000","name":"Ebrahimabad-e Ajirlu"},{"id":"1184635","latitude":"39.62666700","longitude":"47.95194400","name":"Ebrahimabad-e Beyg Zadeh"},{"id":"1184654","latitude":"39.58333300","longitude":"47.95694400","name":"Ebrahimabad"},{"id":"1184662","latitude":"39.62970000","longitude":"47.86250000","name":"Ebrahimabad-e Jadid"},{"id":"1184667","latitude":"39.62230000","longitude":"47.84080000","name":"Ebrahimabad-e Qadim"},{"id":"1184701","latitude":"39.01833300","longitude":"47.94527800","name":"Ebrahim Kandi"},{"id":"1184702","latitude":"39.52860000","longitude":"47.79630000","name":"Ebrahim Kandi-ye `Olya"},{"id":"1184703","latitude":"39.53333300","longitude":"47.78333300","name":"Ebrahim Kandi-ye Sofla"},{"id":"1184704","latitude":"39.53333300","longitude":"47.78333300","name":"Ebrahim Kandi-ye Vosta"},{"id":"1184721","latitude":"39.12540000","longitude":"48.05150000","name":"`Edalat Qeshlaqi"},{"id":"1184809","latitude":"38.92770000","longitude":"47.74980000","name":"Elheh Yarlu"},{"id":"1184815","latitude":"38.43950000","longitude":"47.72840000","name":"Eli"},{"id":"1184818","latitude":"37.63570000","longitude":"48.24520000","name":"El'khechi"},{"id":"1184962","latitude":"37.38416700","longitude":"48.71055600","name":"Emamzadeh `Abdollah"},{"id":"1184980","latitude":"37.79611100","longitude":"48.32722200","name":"Emamzadeh `Ali Panjeh Si"},{"id":"1185007","latitude":"37.17027800","longitude":"48.97916700","name":"Emamzadeh Ebrahim"},{"id":"1185038","latitude":"37.40166700","longitude":"48.68833300","name":"Emamzadeh Hamzeh"},{"id":"1185056","latitude":"37.28333300","longitude":"48.64555600","name":"Emamzadeh Kafsh Kuh"},{"id":"1185108","latitude":"37.28416700","longitude":"48.70250000","name":"Emamzadeh Seyyed Ebrahim"},{"id":"1185164","latitude":"38.95750000","longitude":"47.53370000","name":"`Emarat"},{"id":"1185169","latitude":"38.77360000","longitude":"47.84780000","name":"`Emaratlu"},{"id":"1185192","latitude":"37.80000000","longitude":"48.15000000","name":"Engijabad"},{"id":"1185202","latitude":"37.80000000","longitude":"48.15000000","name":"Enkijabad"},{"id":"1185244","latitude":"38.27740000","longitude":"48.23980000","name":"Erdi"},{"id":"1185245","latitude":"38.20030000","longitude":"48.13310000","name":"Erdi Musa"},{"id":"1185695","latitude":"39.56666700","longitude":"47.85000000","name":"Eslamabad-e `Olya"},{"id":"1185723","latitude":"37.78030000","longitude":"48.14820000","name":"Eslamabad"},{"id":"1185731","latitude":"39.56666700","longitude":"47.81666700","name":"Eslamabad-e Sofla"},{"id":"1185747","latitude":"38.88333300","longitude":"47.78333300","name":"Eslam Kandi"},{"id":"1185835","latitude":"38.96290000","longitude":"47.89370000","name":"Esma`ili Kandi"},{"id":"1185851","latitude":"38.96290000","longitude":"47.89370000","name":"Esma`il Kandi"},{"id":"1185870","latitude":"37.50930000","longitude":"48.33450000","name":"Esmrud"},{"id":"1186087","latitude":"39.26760000","longitude":"48.02260000","name":"E`temad"},{"id":"1186110","latitude":"38.49600000","longitude":"48.02860000","name":"Evreh"},{"id":"1186156","latitude":"37.70160000","longitude":"48.45860000","name":"`Eynalabad"},{"id":"1186158","latitude":"39.33333300","longitude":"47.88333300","name":"`Eyn `Ali"},{"id":"1186271","latitude":"39.01350000","longitude":"48.13170000","name":"Ezmareh-ye Bala"},{"id":"1186272","latitude":"39.01350000","longitude":"48.13170000","name":"Ezmareh-ye `Olya"},{"id":"1186273","latitude":"39.03620000","longitude":"48.14080000","name":"Ezmareh-ye Pa'in"},{"id":"1186274","latitude":"39.03620000","longitude":"48.14080000","name":"Ezmareh-ye Sofla"},{"id":"1186389","latitude":"37.60870000","longitude":"48.49520000","name":"Fajrabad"},{"id":"1186419","latitude":"38.52410000","longitude":"47.86280000","name":"Fakhrabad"},{"id":"1186562","latitude":"37.72680000","longitude":"48.30470000","name":"Farab"},{"id":"1186586","latitude":"38.27290000","longitude":"48.26950000","name":"Farahabad"},{"id":"1186615","latitude":"37.18750000","longitude":"48.65000000","name":"Farajabad"},{"id":"1186626","latitude":"39.34027800","longitude":"47.77638900","name":"Faraj Qeshlaq"},{"id":"1186627","latitude":"39.23333300","longitude":"47.76666700","name":"Faraj Qeshlaqi"},{"id":"1186857","latitude":"37.89660000","longitude":"48.34900000","name":"Farrokh Bolagh"},{"id":"1186879","latitude":"39.64820000","longitude":"47.91740000","name":"Farsabad"},{"id":"1186988","latitude":"39.11260000","longitude":"48.01710000","name":"Farzi Kandi"},{"id":"1186989","latitude":"39.11260000","longitude":"48.01710000","name":"Farzi Qeshlaqi"},{"id":"1187095","latitude":"38.40000000","longitude":"47.90000000","name":"Fathabad"},{"id":"1187109","latitude":"38.59770000","longitude":"48.41800000","name":"Fath-e Maqsud"},{"id":"1187501","latitude":"39.60690000","longitude":"48.06120000","name":"Firuzabad-e Yek"},{"id":"1187523","latitude":"37.58730000","longitude":"48.22830000","name":"Firuzabad"},{"id":"1187838","latitude":"38.60950000","longitude":"47.81470000","name":"Gadeh Kahriz"},{"id":"1187844","latitude":"38.60950000","longitude":"47.81470000","name":"Gadi Kahriz"},{"id":"1187874","latitude":"38.32840000","longitude":"47.54540000","name":"Gagivard"},{"id":"1187898","latitude":"37.39055600","longitude":"48.31472200","name":"Gahraz"},{"id":"1187987","latitude":"38.65120000","longitude":"47.70440000","name":"Galasan Gurasan"},{"id":"1188070","latitude":"38.90440000","longitude":"47.65000000","name":"Galin Bolaghi"},{"id":"1188082","latitude":"37.92540000","longitude":"48.40790000","name":"Galin Qeshlaq"},{"id":"1188083","latitude":"37.92540000","longitude":"48.40790000","name":"Galin Qeshlaqi"},{"id":"1188180","latitude":"37.22694400","longitude":"48.73250000","name":"Galuzan"},{"id":"1188271","latitude":"38.75250000","longitude":"47.49611100","name":"Ganchubeh"},{"id":"1188335","latitude":"38.61900000","longitude":"47.75790000","name":"Gand Lujeh"},{"id":"1188380","latitude":"38.61900000","longitude":"47.75790000","name":"Ganeh Lujeh"},{"id":"1188432","latitude":"38.47694400","longitude":"47.97472200","name":"Ganj`ali"},{"id":"1188473","latitude":"37.70850000","longitude":"48.25810000","name":"Ganjgah"},{"id":"1188523","latitude":"38.14730000","longitude":"48.11190000","name":"Ganzaq"},{"id":"1188525","latitude":"38.14730000","longitude":"48.11190000","name":"Ganzegh"},{"id":"1188821","latitude":"38.71055600","longitude":"47.97305600","name":"Garichi"},{"id":"1188849","latitude":"38.31270000","longitude":"48.20790000","name":"Garjan"},{"id":"1188993","latitude":"39.06180000","longitude":"47.73850000","name":"Garmi Angut"},{"id":"1188997","latitude":"39.02150000","longitude":"48.08010000","name":"Garmi Ejarood"},{"id":"1189000","latitude":"39.06180000","longitude":"47.73850000","name":"Garmi"},{"id":"1189008","latitude":"37.54400000","longitude":"48.40670000","name":"Garmkhaneh"},{"id":"1189009","latitude":"37.54400000","longitude":"48.40670000","name":"Garm Khaneh"},{"id":"1189386","latitude":"38.01666700","longitude":"48.43333300","name":"Gavar Qal`eh"},{"id":"1189459","latitude":"37.66780000","longitude":"48.43300000","name":"Gavdul"},{"id":"1189584","latitude":"38.44360000","longitude":"47.98950000","name":"Gavmish Owlan-e `Olya"},{"id":"1189585","latitude":"38.44950000","longitude":"47.99210000","name":"Gavmish Owlan-e Sofla"},{"id":"1189889","latitude":"38.14480000","longitude":"48.03270000","name":"Gazir"},{"id":"1189995","latitude":"37.84140000","longitude":"48.31810000","name":"Gazur-e `Olya"},{"id":"1189996","latitude":"37.81420000","longitude":"48.33190000","name":"Gazur-e Sofla"},{"id":"1189998","latitude":"38.14480000","longitude":"48.03270000","name":"Gazur"},{"id":"1190004","latitude":"37.81420000","longitude":"48.33190000","name":"Gazvar-e `Olya"},{"id":"1190005","latitude":"37.81420000","longitude":"48.33190000","name":"Gazvar-e Sofl\u00e1"},{"id":"1190008","latitude":"37.81420000","longitude":"48.33190000","name":"Gazvar"},{"id":"1190019","latitude":"39.20120000","longitude":"47.53630000","name":"Gechi Qeshlaq-e Bala"},{"id":"1190020","latitude":"39.20120000","longitude":"47.53630000","name":"Gechi Qeshlaq-e `Olya"},{"id":"1190021","latitude":"39.21510000","longitude":"47.53000000","name":"Gechi Qeshlaq-e Pa'in"},{"id":"1190022","latitude":"39.21510000","longitude":"47.53000000","name":"Gechi Qeshlaq-e Sofla"},{"id":"1190034","latitude":"39.38650000","longitude":"47.42840000","name":"Gedayli"},{"id":"1190035","latitude":"39.38730000","longitude":"47.41530000","name":"Gedaylu"},{"id":"1190044","latitude":"37.40916700","longitude":"48.44972200","name":"Gehig"},{"id":"1190046","latitude":"37.39055600","longitude":"48.31472200","name":"Gehraz"},{"id":"1190065","latitude":"37.65850000","longitude":"48.09980000","name":"Gelanduz"},{"id":"1190112","latitude":"37.33222200","longitude":"48.34750000","name":"Gelgelab"},{"id":"1190148","latitude":"38.43333300","longitude":"47.55000000","name":"Gellar-e Mohammadhasan"},{"id":"1190149","latitude":"38.50490000","longitude":"47.68350000","name":"Gellar-e Mohammadtaqi"},{"id":"1190150","latitude":"38.50490000","longitude":"47.68350000","name":"Gellar-e Taqi"},{"id":"1190214","latitude":"38.42610000","longitude":"48.03490000","name":"Gendishmin"},{"id":"1190228","latitude":"38.14730000","longitude":"48.11190000","name":"Genzek"},{"id":"1190312","latitude":"38.45150000","longitude":"48.40800000","name":"Gerdeh"},{"id":"1190316","latitude":"38.76930000","longitude":"47.57480000","name":"Gerdeh Gol"},{"id":"1190349","latitude":"38.76930000","longitude":"47.57480000","name":"Gerdgol"},{"id":"1190424","latitude":"37.39527800","longitude":"48.45722200","name":"Gergazu"},{"id":"1190456","latitude":"39.02150000","longitude":"48.08010000","name":"Germi"},{"id":"1190595","latitude":"37.53950000","longitude":"48.37680000","name":"Gezaz"},{"id":"1190660","latitude":"38.95550000","longitude":"47.96340000","name":"Ghaffar Kandi"},{"id":"1190664","latitude":"37.71166700","longitude":"48.54277800","name":"Ghafurabad"},{"id":"1190886","latitude":"39.15490000","longitude":"47.96970000","name":"Gharib Hajji"},{"id":"1190893","latitude":"39.15490000","longitude":"47.96970000","name":"Gharir Hajji"},{"id":"1191083","latitude":"37.27888900","longitude":"48.56305600","name":"Ghiasabad"},{"id":"1191152","latitude":"39.22060000","longitude":"47.72460000","name":"Gholam Hoseyn Kandi"},{"id":"1191201","latitude":"38.72820000","longitude":"47.65410000","name":"Ghoort Tappeh"},{"id":"1191267","latitude":"38.35450000","longitude":"47.63340000","name":"Ghur"},{"id":"1191305","latitude":"38.98170000","longitude":"48.19420000","name":"Gigal"},{"id":"1191336","latitude":"37.39666700","longitude":"48.52277800","name":"Gik"},{"id":"1191352","latitude":"38.31300000","longitude":"48.36650000","name":"Gilandeh"},{"id":"1191353","latitude":"38.31300000","longitude":"48.36650000","name":"Gilan Deh"},{"id":"1191355","latitude":"37.65850000","longitude":"48.09980000","name":"Gilanduz"},{"id":"1191372","latitude":"38.44180000","longitude":"47.55320000","name":"Gilar"},{"id":"1191373","latitude":"39.07090000","longitude":"48.01250000","name":"Gilarlu"},{"id":"1191378","latitude":"37.24638900","longitude":"48.81222200","name":"Gilavan"},{"id":"1191442","latitude":"37.93670000","longitude":"48.42280000","name":"Gilyabad"},{"id":"1191591","latitude":"37.69690000","longitude":"48.33350000","name":"Giv Ashaqi"},{"id":"1191612","latitude":"37.68850000","longitude":"48.34810000","name":"Giv Yukhari"},{"id":"1191625","latitude":"37.53950000","longitude":"48.37680000","name":"Gizas"},{"id":"1191738","latitude":"39.33480000","longitude":"48.22940000","name":"Gog Tape"},{"id":"1191741","latitude":"39.33480000","longitude":"48.22940000","name":"Gog Tappeh"},{"id":"1191978","latitude":"38.84330000","longitude":"47.72530000","name":"Gol Daraq"},{"id":"1192052","latitude":"37.73361100","longitude":"48.53694400","name":"Golestan-e Bala"},{"id":"1192058","latitude":"37.73805600","longitude":"48.57027800","name":"Golestan-e Pa'in"},{"id":"1192074","latitude":"38.09240000","longitude":"48.03610000","name":"Golestan"},{"id":"1192117","latitude":"37.82840000","longitude":"48.19980000","name":"Gol"},{"id":"1192154","latitude":"39.21370000","longitude":"48.03130000","name":"Goli Bolagh-e Bala"},{"id":"1192155","latitude":"39.21820000","longitude":"48.03380000","name":"Goli Bolagh-e Pa'in"},{"id":"1192158","latitude":"39.21370000","longitude":"48.03130000","name":"Goli Bolaq-e `Olya"},{"id":"1192159","latitude":"39.21820000","longitude":"48.03380000","name":"Goli Bolaq-e Sofla"},{"id":"1192166","latitude":"38.84330000","longitude":"47.72530000","name":"Goli Daraq-e Pa'in"},{"id":"1192167","latitude":"38.84330000","longitude":"47.72530000","name":"Goli Daraq"},{"id":"1192168","latitude":"38.82880000","longitude":"47.69780000","name":"Goli Darreh-ye Bala"},{"id":"1192176","latitude":"37.53610000","longitude":"48.28550000","name":"Golijan"},{"id":"1192177","latitude":"37.53610000","longitude":"48.28550000","name":"Goli Jan"},{"id":"1192208","latitude":"38.68333300","longitude":"47.90000000","name":"Goli-ye Bala"},{"id":"1192279","latitude":"37.82840000","longitude":"48.19980000","name":"Golli"},{"id":"1192285","latitude":"37.82840000","longitude":"48.19980000","name":"Gollu"},{"id":"1192288","latitude":"37.52580000","longitude":"48.44280000","name":"Gollujeh"},{"id":"1192289","latitude":"37.28333300","longitude":"48.43444400","name":"Gol Lujeh"},{"id":"1192386","latitude":"37.82370000","longitude":"48.24080000","name":"Golqeshlaq"},{"id":"1192387","latitude":"37.82370000","longitude":"48.24080000","name":"Gol Qeshlaq"},{"id":"1192388","latitude":"37.82370000","longitude":"48.24080000","name":"Gol Qeshlaqi"},{"id":"1192457","latitude":"38.58830000","longitude":"48.21920000","name":"Gol Tappeh"},{"id":"1192465","latitude":"38.02650000","longitude":"48.33540000","name":"Gol Tappeh-ye Malali"},{"id":"1192466","latitude":"38.02650000","longitude":"48.33540000","name":"Gol Tappeh-ye Molla'i"},{"id":"1192475","latitude":"37.53610000","longitude":"48.28550000","name":"Golujan"},{"id":"1192478","latitude":"37.52580000","longitude":"48.44280000","name":"Golujeh"},{"id":"1192714","latitude":"38.39100000","longitude":"47.89310000","name":"Gonbad"},{"id":"1192744","latitude":"38.75050000","longitude":"47.56340000","name":"Gonchubeh"},{"id":"1192926","latitude":"37.64200000","longitude":"48.30810000","name":"Gorgabad"},{"id":"1193093","latitude":"38.66388900","longitude":"48.03916700","name":"Goruh Dik Daghi"},{"id":"1193221","latitude":"38.98720000","longitude":"47.64880000","name":"Gowdah Kahriz"},{"id":"1193307","latitude":"38.56070000","longitude":"48.34060000","name":"Gowdlar"},{"id":"1193345","latitude":"39.33480000","longitude":"48.22940000","name":"Gowg Tappeh"},{"id":"1193427","latitude":"37.62180000","longitude":"48.46270000","name":"Gowransarab"},{"id":"1193461","latitude":"39.30400000","longitude":"47.50900000","name":"Gowzalli"},{"id":"1193538","latitude":"38.98720000","longitude":"47.64880000","name":"Gudah Kahriz"},{"id":"1193556","latitude":"38.60950000","longitude":"47.81470000","name":"Gudeh Kahriz"},{"id":"1193583","latitude":"38.10770000","longitude":"47.90450000","name":"Gugarchin"},{"id":"1193595","latitude":"38.07480000","longitude":"47.93660000","name":"Gugeh"},{"id":"1193601","latitude":"38.07480000","longitude":"47.93660000","name":"Guger"},{"id":"1193602","latitude":"38.10770000","longitude":"47.90450000","name":"Gugerjin"},{"id":"1193637","latitude":"38.48333300","longitude":"47.90000000","name":"Gu'ij"},{"id":"1193651","latitude":"39.62520000","longitude":"47.94840000","name":"Gujeh Beyglu"},{"id":"1193688","latitude":"39.33480000","longitude":"48.22940000","name":"Guk Tappeh"},{"id":"1193706","latitude":"37.53610000","longitude":"48.28550000","name":"Gulalijan"},{"id":"1193751","latitude":"38.14980000","longitude":"48.24170000","name":"Guli"},{"id":"1193764","latitude":"38.09240000","longitude":"48.03610000","name":"Gulistan"},{"id":"1193806","latitude":"37.53610000","longitude":"48.28550000","name":"Gulujan"},{"id":"1193890","latitude":"38.95950000","longitude":"47.72400000","name":"Guney Kandi"},{"id":"1193903","latitude":"38.95950000","longitude":"47.72400000","name":"Guni Kandi"},{"id":"1193911","latitude":"38.84120000","longitude":"47.92480000","name":"Gunpapaq-e Bala"},{"id":"1193912","latitude":"38.84120000","longitude":"47.92480000","name":"Gun Papaq"},{"id":"1193957","latitude":"38.14790000","longitude":"48.36030000","name":"Guradel"},{"id":"1193958","latitude":"38.14790000","longitude":"48.36030000","name":"Guradil"},{"id":"1194010","latitude":"37.62180000","longitude":"48.46270000","name":"Guran Sarab"},{"id":"1194203","latitude":"39.48170000","longitude":"47.50250000","name":"Gurshadi Kandi"},{"id":"1194204","latitude":"39.48170000","longitude":"47.50250000","name":"Gurshad Kandi"},{"id":"1194209","latitude":"37.91730000","longitude":"48.21090000","name":"Gurtulmush"},{"id":"1194339","latitude":"39.62460000","longitude":"47.98870000","name":"Gushlu"},{"id":"1194359","latitude":"37.42760000","longitude":"48.23250000","name":"Gusun"},{"id":"1194386","latitude":"39.33480000","longitude":"48.22940000","name":"Guyapeh"},{"id":"1194471","latitude":"37.53610000","longitude":"48.28550000","name":"Gyulyudzhan"},{"id":"1194493","latitude":"38.38420000","longitude":"47.51220000","name":"Habash"},{"id":"1194500","latitude":"38.38420000","longitude":"47.51220000","name":"Habashi"},{"id":"1194540","latitude":"38.28970000","longitude":"48.49770000","name":"Hablu"},{"id":"1194543","latitude":"39.07810000","longitude":"48.08120000","name":"Hacha Kandi"},{"id":"1194545","latitude":"39.07810000","longitude":"48.08120000","name":"Hachehkand-e Tazeh"},{"id":"1194588","latitude":"39.19280000","longitude":"48.15530000","name":"Hadi Beyglu"},{"id":"1194598","latitude":"39.03110000","longitude":"47.75120000","name":"Hadilu"},{"id":"1194629","latitude":"37.73910000","longitude":"48.06320000","name":"Hafta Chashmeh"},{"id":"1194670","latitude":"37.73910000","longitude":"48.06320000","name":"Haft Cheshmeh"},{"id":"1194689","latitude":"37.45944400","longitude":"48.77138900","name":"Hafteh Khuni"},{"id":"1194803","latitude":"39.38720000","longitude":"48.10920000","name":"Haj Babakhan"},{"id":"1194978","latitude":"39.03720000","longitude":"47.93840000","name":"Hajj Ahmad Kandi"},{"id":"1194992","latitude":"39.48333300","longitude":"47.38333300","name":"Hajj Asir Kandi"},{"id":"1194994","latitude":"39.31610000","longitude":"48.05230000","name":"Hajj `Azizollah"},{"id":"1194995","latitude":"39.38720000","longitude":"48.10920000","name":"Hajj Baba Khan"},{"id":"1195089","latitude":"37.89472200","longitude":"48.55777800","name":"Hajjiabad"},{"id":"1195099","latitude":"39.21810000","longitude":"47.57740000","name":"Hajji `Abbas Kandi"},{"id":"1195106","latitude":"39.03720000","longitude":"47.93840000","name":"Hajji Ahmad"},{"id":"1195129","latitude":"39.22340000","longitude":"47.95590000","name":"Hajji Aqa Kandi"},{"id":"1195140","latitude":"39.31610000","longitude":"48.05230000","name":"Hajji `Aziz Aqa"},{"id":"1195143","latitude":"39.26800000","longitude":"48.08460000","name":"Hajji Baba"},{"id":"1195145","latitude":"39.29610000","longitude":"48.11140000","name":"Hajji Baba Qeshlaq"},{"id":"1195155","latitude":"39.22916700","longitude":"47.55111100","name":"Hajji Bahman"},{"id":"1195160","latitude":"39.23330000","longitude":"48.06220000","name":"Hajji Bala Beyglu"},{"id":"1195166","latitude":"39.43370000","longitude":"47.58670000","name":"Hajji Bayandor"},{"id":"1195182","latitude":"39.35730000","longitude":"47.56060000","name":"Hajji Bijanlu"},{"id":"1195185","latitude":"39.23333300","longitude":"47.71666700","name":"Hajji Boyuk"},{"id":"1195187","latitude":"38.69720000","longitude":"47.76580000","name":"Hajji Bush"},{"id":"1195196","latitude":"39.12540000","longitude":"48.05150000","name":"Hajji `Edalat"},{"id":"1195200","latitude":"39.26340000","longitude":"47.97290000","name":"Hajji Fathi"},{"id":"1195224","latitude":"39.53360000","longitude":"47.62290000","name":"Hajji Hasan"},{"id":"1195226","latitude":"39.53360000","longitude":"47.62290000","name":"Hajji Hasan Kandi"},{"id":"1195227","latitude":"39.40000000","longitude":"47.78333300","name":"Hajji Hasehm-e Nosrat"},{"id":"1195232","latitude":"39.50810000","longitude":"47.69350000","name":"Hajji Iman Kandi-ye `Olya"},{"id":"1195233","latitude":"39.50000000","longitude":"47.70000000","name":"Hajji Iman Kandi-ye Sofla"},{"id":"1195237","latitude":"39.64700000","longitude":"48.03980000","name":"Hajji Ja`far Kandi"},{"id":"1195247","latitude":"39.05790000","longitude":"48.19230000","name":"Hajji Kand"},{"id":"1195259","latitude":"37.81590000","longitude":"48.03490000","name":"Hajji Khalil"},{"id":"1195285","latitude":"38.52220000","longitude":"47.65260000","name":"Hajjilu"},{"id":"1195288","latitude":"37.98080000","longitude":"48.22960000","name":"Hajji Mahmud"},{"id":"1195298","latitude":"39.32027800","longitude":"47.94305600","name":"Hajj Iman Khan"},{"id":"1195314","latitude":"39.33333300","longitude":"47.90000000","name":"Hajji Moharram"},{"id":"1195318","latitude":"39.56340000","longitude":"47.93250000","name":"Hajji Morteza Kandi"},{"id":"1195321","latitude":"39.33333300","longitude":"47.83333300","name":"Hajji Motalleb-e Moghanli"},{"id":"1195326","latitude":"39.33333300","longitude":"47.86666700","name":"Hajji Najafqoli Qeshlaqi"},{"id":"1195331","latitude":"39.21980000","longitude":"47.69070000","name":"Hajji Norush Kandi"},{"id":"1195333","latitude":"39.21980000","longitude":"47.69070000","name":"Hajji Nowrush Kandi"},{"id":"1195334","latitude":"39.51030000","longitude":"47.71490000","name":"Hajji Oruf Kandi"},{"id":"1195337","latitude":"39.35730000","longitude":"47.56060000","name":"Hajji Panjalu"},{"id":"1195354","latitude":"38.17170000","longitude":"48.19620000","name":"Hajji Salim-e Qeshlaqi"},{"id":"1195356","latitude":"39.38333300","longitude":"47.60000000","name":"Hajji Sari"},{"id":"1195358","latitude":"38.69750000","longitude":"47.98040000","name":"Hajji Seyflu"},{"id":"1195370","latitude":"39.18930000","longitude":"47.59710000","name":"Hajji S\u00cc\u00a7amad Qeshlaq"},{"id":"1195384","latitude":"39.23330000","longitude":"48.06220000","name":"Hajji-ye Bala Beyg Kandi"},{"id":"1195386","latitude":"37.75260000","longitude":"48.01660000","name":"Hajji Yusef-e `Olya"},{"id":"1195387","latitude":"37.75960000","longitude":"48.01780000","name":"Hajji Yusef-e Sofla"},{"id":"1195395","latitude":"39.55300000","longitude":"48.04930000","name":"Hajj Khosrow"},{"id":"1195405","latitude":"39.32690000","longitude":"47.92840000","name":"Hajj Mohammad Khan"},{"id":"1195407","latitude":"39.48305600","longitude":"47.53861100","name":"Hajj Nasir"},{"id":"1195421","latitude":"39.33670000","longitude":"47.94690000","name":"Hajj Yadollah"},{"id":"1195443","latitude":"37.75260000","longitude":"48.01660000","name":"Haj Yusef-e `Olya"},{"id":"1195444","latitude":"37.75960000","longitude":"48.01780000","name":"Haj Yusef-e Sofla"},{"id":"1195479","latitude":"38.13850000","longitude":"48.17910000","name":"Hakim Qeshlaqi"},{"id":"1195535","latitude":"38.93790000","longitude":"47.57850000","name":"Halan"},{"id":"1195617","latitude":"39.56020000","longitude":"47.94400000","name":"Hallajabad"},{"id":"1195657","latitude":"38.80777800","longitude":"47.90555600","name":"Halvadar"},{"id":"1195706","latitude":"39.22810000","longitude":"47.97400000","name":"Hamar Kandi"},{"id":"1195725","latitude":"39.63110000","longitude":"48.05760000","name":"Hamdollahabad"},{"id":"1195745","latitude":"39.04310000","longitude":"48.33100000","name":"Hameh Shan"},{"id":"1195760","latitude":"38.16750000","longitude":"48.31440000","name":"Hamidabad"},{"id":"1195797","latitude":"37.52194400","longitude":"48.62861100","name":"Hamis"},{"id":"1195805","latitude":"38.23138900","longitude":"48.20000000","name":"Hamlabad"},{"id":"1195822","latitude":"38.66666700","longitude":"47.96666700","name":"Hammamlu"},{"id":"1195834","latitude":"38.25880000","longitude":"48.20050000","name":"Hamnavar"},{"id":"1195841","latitude":"39.33670000","longitude":"47.94690000","name":"Hampa Hajj Yadollah"},{"id":"1195870","latitude":"39.01840000","longitude":"48.25020000","name":"Hamvar Kand"},{"id":"1195871","latitude":"39.22810000","longitude":"47.97400000","name":"Hamvar Kandi"},{"id":"1195877","latitude":"39.08830000","longitude":"48.17710000","name":"Hamzah Khanlu"},{"id":"1195941","latitude":"37.52944400","longitude":"48.57000000","name":"Hanaga"},{"id":"1195957","latitude":"38.29730000","longitude":"48.12390000","name":"Hanaqerd"},{"id":"1196146","latitude":"37.61166700","longitude":"48.52583300","name":"Harau"},{"id":"1196184","latitude":"37.97090000","longitude":"48.22730000","name":"Harem"},{"id":"1196273","latitude":"37.71666700","longitude":"48.30000000","name":"Harov"},{"id":"1196274","latitude":"37.61166700","longitude":"48.52583300","name":"Harowabad"},{"id":"1196319","latitude":"37.66810000","longitude":"48.11320000","name":"Harun Qal`eh"},{"id":"1196553","latitude":"38.26400000","longitude":"48.06300000","name":"Hasan`ali Kandi"},{"id":"1196568","latitude":"38.24220000","longitude":"48.22550000","name":"Hasan Baruq"},{"id":"1196611","latitude":"38.99090000","longitude":"47.97560000","name":"Hasan Kandi"},{"id":"1196648","latitude":"38.61400000","longitude":"48.01400000","name":"Hasanlu"},{"id":"1196664","latitude":"37.97690000","longitude":"48.28870000","name":"Hasan Qeshlaq"},{"id":"1196666","latitude":"39.18970000","longitude":"48.04440000","name":"Hasan Qeshlaqi"},{"id":"1196739","latitude":"37.35972200","longitude":"48.31611100","name":"Hashatjin"},{"id":"1196776","latitude":"39.19960000","longitude":"47.54580000","name":"Hashem"},{"id":"1196951","latitude":"38.04910000","longitude":"48.26910000","name":"Hava Daraq"},{"id":"1196967","latitude":"38.04910000","longitude":"48.26910000","name":"Havardaraq"},{"id":"1196974","latitude":"39.56666700","longitude":"47.68333300","name":"Havar Kandi Qeshlaqi"},{"id":"1196979","latitude":"37.72520000","longitude":"48.41480000","name":"Havashanq"},{"id":"1196981","latitude":"39.14570000","longitude":"48.17090000","name":"Havas"},{"id":"1196982","latitude":"39.14570000","longitude":"48.17090000","name":"Havas Kandi"},{"id":"1197056","latitude":"39.51722200","longitude":"47.59444400","name":"Hazar Kandi Qeshlaqi"},{"id":"1197103","latitude":"37.97530000","longitude":"48.47340000","name":"Hefzabad"},{"id":"1197136","latitude":"37.93670000","longitude":"48.42280000","name":"Helabad"},{"id":"1197319","latitude":"37.61166700","longitude":"48.52583300","name":"Herauabad"},{"id":"1197320","latitude":"37.61166700","longitude":"48.52583300","name":"Herau"},{"id":"1197332","latitude":"37.66280000","longitude":"48.22620000","name":"Heris"},{"id":"1197356","latitude":"37.61166700","longitude":"48.52583300","name":"Heroabad"},{"id":"1197357","latitude":"37.61166700","longitude":"48.52583300","name":"Herowabad"},{"id":"1197358","latitude":"37.61166700","longitude":"48.52583300","name":"Herow"},{"id":"1197507","latitude":"38.06730000","longitude":"48.42180000","name":"Hesa r"},{"id":"1197508","latitude":"38.06730000","longitude":"48.42180000","name":"Hesar"},{"id":"1197565","latitude":"37.57540000","longitude":"48.06180000","name":"Heshabad"},{"id":"1197566","latitude":"37.35972200","longitude":"48.31611100","name":"Heshajeyn"},{"id":"1197567","latitude":"37.35972200","longitude":"48.31611100","name":"Heshajin"},{"id":"1197568","latitude":"37.57540000","longitude":"48.06180000","name":"Heshiabad"},{"id":"1197570","latitude":"37.34000000","longitude":"48.31444400","name":"Heshi"},{"id":"1197571","latitude":"37.35972200","longitude":"48.31611100","name":"Heshiin"},{"id":"1197604","latitude":"38.90070000","longitude":"47.70020000","name":"Heybat-e Bala"},{"id":"1197605","latitude":"39.21490000","longitude":"48.10200000","name":"Heybat-e Jahan Khanemlu"},{"id":"1197606","latitude":"38.90070000","longitude":"47.70020000","name":"Heybat-e `Olya"},{"id":"1197607","latitude":"38.91920000","longitude":"47.70680000","name":"Heybat-e Pa'in"},{"id":"1197608","latitude":"38.91920000","longitude":"47.70680000","name":"Heybat-e Sofl\u00e1"},{"id":"1197643","latitude":"38.50810000","longitude":"48.10950000","name":"Heydarabad"},{"id":"1197772","latitude":"39.31430000","longitude":"47.55120000","name":"H\u00cc\u00a7ajji `Avaz\u00cc\u00b1"},{"id":"1197773","latitude":"39.39850000","longitude":"47.53520000","name":"H\u00cc\u00a7ajji Babakh"},{"id":"1197774","latitude":"39.34230000","longitude":"47.51010000","name":"H\u00cc\u00a7ajji Khan `Ali"},{"id":"1197775","latitude":"39.41040000","longitude":"47.57130000","name":"H\u00cc\u00a7ajji Mowlla"},{"id":"1197776","latitude":"39.35180000","longitude":"47.50090000","name":"H\u00cc\u00a7ajji Nos\u00cc\u00a7rat"},{"id":"1197778","latitude":"39.09670000","longitude":"47.75060000","name":"H\u00cc\u00a7ajji Sardar"},{"id":"1197790","latitude":"38.68200000","longitude":"47.60170000","name":"H\u00cc\u00a7aram Qeshlaq"},{"id":"1197821","latitude":"37.60200000","longitude":"48.41300000","name":"Hija"},{"id":"1197896","latitude":"38.38280000","longitude":"47.58100000","name":"Hiq"},{"id":"1197899","latitude":"37.61166700","longitude":"48.52583300","name":"Hirabad"},{"id":"1197909","latitude":"37.66280000","longitude":"48.22620000","name":"Hiriz"},{"id":"1197949","latitude":"37.34000000","longitude":"48.31444400","name":"Hishain"},{"id":"1197951","latitude":"37.35972200","longitude":"48.31611100","name":"Hishen"},{"id":"1197952","latitude":"37.34000000","longitude":"48.31444400","name":"Hishi"},{"id":"1197982","latitude":"38.99560000","longitude":"47.56230000","name":"Hizan"},{"id":"1198647","latitude":"39.21110000","longitude":"47.88540000","name":"Hoseyn`ali Kandi"},{"id":"1198664","latitude":"39.02194400","longitude":"47.52361100","name":"Hoseyn Beyglu"},{"id":"1198672","latitude":"39.33333300","longitude":"47.86666700","name":"Hoseyn-e Khaki"},{"id":"1198685","latitude":"39.21670000","longitude":"47.65360000","name":"Hoseyn Hajjilu"},{"id":"1198723","latitude":"38.65910000","longitude":"48.03280000","name":"Hoseyn Khan Kandi"},{"id":"1198724","latitude":"38.97040000","longitude":"47.85500000","name":"Hoseyn Khanlu"},{"id":"1198739","latitude":"39.46800000","longitude":"47.54480000","name":"Hoseyn Qeshlaqi"},{"id":"1198757","latitude":"38.57100000","longitude":"48.37510000","name":"Hoshneh"},{"id":"1198962","latitude":"37.83880000","longitude":"48.34070000","name":"Hurani"},{"id":"1199130","latitude":"37.74480000","longitude":"48.23600000","name":"Ibli Ulia"},{"id":"1199131","latitude":"37.74480000","longitude":"48.23600000","name":"Ibli-Ulya"},{"id":"1199189","latitude":"39.18350000","longitude":"47.87430000","name":"Idehlu"},{"id":"1199192","latitude":"39.18350000","longitude":"47.87430000","name":"Idelu"},{"id":"1199195","latitude":"39.34120000","longitude":"47.47930000","name":"Ider"},{"id":"1199196","latitude":"39.34120000","longitude":"47.47930000","name":"Ider Sofla"},{"id":"1199199","latitude":"39.33770000","longitude":"47.47010000","name":"Idir-e Bala"},{"id":"1199200","latitude":"39.33770000","longitude":"47.47010000","name":"Idir-e `Olya"},{"id":"1199201","latitude":"39.34120000","longitude":"47.47930000","name":"Idir-e Pa'in"},{"id":"1199216","latitude":"39.34120000","longitude":"47.47930000","name":"Igdir"},{"id":"1199239","latitude":"39.34120000","longitude":"47.47930000","name":"Ikdir"},{"id":"1199256","latitude":"37.99990000","longitude":"47.92300000","name":"Ilanjegh"},{"id":"1199258","latitude":"37.99990000","longitude":"47.92300000","name":"Ilanjuq"},{"id":"1199275","latitude":"37.26222200","longitude":"48.93277800","name":"Ilat Zamin"},{"id":"1199283","latitude":"39.05090000","longitude":"48.13070000","name":"Ilchi-ye `Olya"},{"id":"1199284","latitude":"39.04860000","longitude":"48.12120000","name":"Ilchi-ye Sofla"},{"id":"1199297","latitude":"37.60200000","longitude":"48.41300000","name":"Ilidzha"},{"id":"1199298","latitude":"37.60200000","longitude":"48.41300000","name":"Ilija"},{"id":"1199305","latitude":"37.60200000","longitude":"48.41300000","name":"Iljeh"},{"id":"1199311","latitude":"38.97440000","longitude":"48.25630000","name":"Ilkhanlar"},{"id":"1199313","latitude":"39.05090000","longitude":"48.13070000","name":"Ilkhchih-ye Bala"},{"id":"1199314","latitude":"39.04860000","longitude":"48.12120000","name":"Ilkhchih-ye Pa'in"},{"id":"1199316","latitude":"37.63570000","longitude":"48.24520000","name":"Ilkhchi"},{"id":"1199320","latitude":"39.05090000","longitude":"48.13070000","name":"Ilkhchi-ye 'Olya"},{"id":"1199321","latitude":"39.04860000","longitude":"48.12120000","name":"Ilkhchi-ye Sofla"},{"id":"1199323","latitude":"39.11666700","longitude":"47.58333300","name":"Ilkhechi"},{"id":"1199335","latitude":"37.70160000","longitude":"48.45860000","name":"Ilvanaq"},{"id":"1199391","latitude":"38.73390000","longitude":"47.90540000","name":"Imcheh"},{"id":"1199400","latitude":"38.51020000","longitude":"48.18910000","name":"Imir"},{"id":"1199406","latitude":"38.27380000","longitude":"48.16220000","name":"Imtecheh"},{"id":"1199408","latitude":"37.98880000","longitude":"48.39700000","name":"Inalu"},{"id":"1199409","latitude":"38.08490000","longitude":"48.16350000","name":"Inanlu"},{"id":"1199425","latitude":"38.03310000","longitude":"48.22760000","name":"Incheh"},{"id":"1199462","latitude":"38.97430000","longitude":"48.13210000","name":"Ini"},{"id":"1199464","latitude":"38.82861100","longitude":"48.02694400","name":"In"},{"id":"1199481","latitude":"38.97430000","longitude":"48.13210000","name":"Inj"},{"id":"1199501","latitude":"39.58400000","longitude":"47.95880000","name":"Iranabad"},{"id":"1199524","latitude":"38.20030000","longitude":"48.13310000","name":"Irdi Musa"},{"id":"1199526","latitude":"38.20030000","longitude":"48.13310000","name":"Ird Musi"},{"id":"1199527","latitude":"38.36680000","longitude":"48.10540000","name":"Irebku"},{"id":"1199528","latitude":"38.07450000","longitude":"47.91540000","name":"Irenji"},