[{"id":"857","latitude":"32.24361100","longitude":"64.68500000","name":"Aba"},{"id":"882","latitude":"31.71861100","longitude":"64.60083300","name":"Abbaakhayi-Nakhri-Saradzh"},{"id":"893","latitude":"31.79166700","longitude":"64.56638900","name":"`Abbasha-ye Helmand"},{"id":"910","latitude":"31.79166700","longitude":"64.56638900","name":"Abbazha-i-Helmand"},{"id":"911","latitude":"31.71861100","longitude":"64.60083300","name":"Abbazha-i-Nahre Saraj"},{"id":"912","latitude":"31.79166700","longitude":"64.56638900","name":"Abbazha-ye Helmand"},{"id":"913","latitude":"31.71861100","longitude":"64.60083300","name":"Abbazha-ye Nahr-e Sera"},{"id":"914","latitude":"31.71861100","longitude":"64.60083300","name":"Abbazha-ye Nahr-e Seraj"},{"id":"915","latitude":"31.79166700","longitude":"64.56638900","name":"Abbazkhayi-Gil'mand"},{"id":"971","latitude":"31.68916700","longitude":"64.30361100","name":"`Abdol"},{"id":"977","latitude":"31.33000000","longitude":"64.27583300","name":"Abd ol Ali Khan Kalay"},{"id":"978","latitude":"31.22861100","longitude":"64.20500000","name":"`Abd ol `Alim Kalay"},{"id":"980","latitude":"31.68416700","longitude":"64.36138900","name":"`Abdol `Aziz Kalay"},{"id":"988","latitude":"30.72416700","longitude":"64.09777800","name":"`Abd ol Habib Kalay"},{"id":"1009","latitude":"31.10000000","longitude":"64.16666700","name":"`Abdollahjan Kalay"},{"id":"1013","latitude":"31.30000000","longitude":"64.25000000","name":"`Abdollah Kalay"},{"id":"1027","latitude":"31.85027800","longitude":"64.60833300","name":"`Abdollah Kur"},{"id":"1056","latitude":"31.68916700","longitude":"64.30361100","name":"`Abd ol Vahid Kalay"},{"id":"1069","latitude":"32.17777800","longitude":"64.72583300","name":"`Abd or Rahman Kariz"},{"id":"1079","latitude":"31.80250000","longitude":"64.49833300","name":"`Abd or Rashid Kariz"},{"id":"1089","latitude":"31.68916700","longitude":"64.30361100","name":"Abdul"},{"id":"1098","latitude":"31.33000000","longitude":"64.27583300","name":"Abdul`alikhan Kalay"},{"id":"1099","latitude":"31.22861100","longitude":"64.20500000","name":"Abdul`alim Kalay"},{"id":"1100","latitude":"31.70472200","longitude":"64.28500000","name":"`Abdul`alim Kalay"},{"id":"1101","latitude":"31.70472200","longitude":"64.28500000","name":"Abdulalim-Kalay"},{"id":"1102","latitude":"31.68416700","longitude":"64.36138900","name":"Abdul'aziz-Kalay"},{"id":"1103","latitude":"31.68416700","longitude":"64.36138900","name":"`Abdul `Aziz Kalay"},{"id":"1115","latitude":"30.72416700","longitude":"64.09777800","name":"Abdulhabib Kalay"},{"id":"1157","latitude":"31.10000000","longitude":"64.16666700","name":"Abdullahjan Kalay"},{"id":"1162","latitude":"31.09111100","longitude":"64.19416700","name":"`Abdullah Kalay"},{"id":"1177","latitude":"31.85027800","longitude":"64.60833300","name":"`Abdullah Kor"},{"id":"1180","latitude":"32.05805600","longitude":"64.82222200","name":"Abdullakalay"},{"id":"1191","latitude":"31.85027800","longitude":"64.60833300","name":"Abdullakor"},{"id":"1193","latitude":"32.37527800","longitude":"64.99888900","name":"Abdul Masek"},{"id":"1210","latitude":"31.68916700","longitude":"64.30361100","name":"Abdul'vakhid-Kalay"},{"id":"1214","latitude":"31.08888900","longitude":"64.20111100","name":"`Abdul Wahed Kalay"},{"id":"1215","latitude":"31.68916700","longitude":"64.30361100","name":"Abdulwahed Kalay"},{"id":"1235","latitude":"32.17777800","longitude":"64.72583300","name":"`Abdur Rahman Karez"},{"id":"1255","latitude":"32.17777800","longitude":"64.72583300","name":"Abdurrakhman-Karez"},{"id":"1266","latitude":"31.80250000","longitude":"64.49833300","name":"Abdurrashid Karez"},{"id":"1267","latitude":"31.80250000","longitude":"64.49833300","name":"Abdurrashid-Karez"},{"id":"1269","latitude":"31.80250000","longitude":"64.49833300","name":"`Abdurrasid Karez"},{"id":"1297","latitude":"31.55388900","longitude":"64.40694400","name":"Abelan"},{"id":"1332","latitude":"31.53194400","longitude":"64.35694400","name":"Abi Jan"},{"id":"1467","latitude":"32.02222200","longitude":"65.04388900","name":"Abulhasan"},{"id":"1469","latitude":"32.02222200","longitude":"65.04388900","name":"Abul'khasan"},{"id":"1471","latitude":"32.02222200","longitude":"65.04388900","name":"Abu ol Hasan"},{"id":"1598","latitude":"32.39138900","longitude":"65.20888900","name":"Adina"},{"id":"1601","latitude":"32.39138900","longitude":"65.20888900","name":"Adinah"},{"id":"1627","latitude":"31.86333300","longitude":"64.67083300","name":"Adinzai"},{"id":"1628","latitude":"31.86333300","longitude":"64.67083300","name":"Adin Za'i"},{"id":"1629","latitude":"31.86333300","longitude":"64.67083300","name":"Adinzi"},{"id":"1688","latitude":"32.19250000","longitude":"64.05472200","name":"Adzhrum"},{"id":"1741","latitude":"32.32027800","longitude":"65.00916700","name":"Aga-Akhmed"},{"id":"1772","latitude":"32.32027800","longitude":"65.00916700","name":"Agha Ahmad"},{"id":"1813","latitude":"31.97750000","longitude":"64.89444400","name":"Aghlegh"},{"id":"1826","latitude":"31.97750000","longitude":"64.89444400","name":"Aglig"},{"id":"1847","latitude":"32.69833300","longitude":"64.94722200","name":"Ahangaran"},{"id":"1923","latitude":"32.29638900","longitude":"64.77583300","name":"Ahmad Khwazi"},{"id":"1929","latitude":"32.05722200","longitude":"64.84527800","name":"Ahmad Za'i"},{"id":"1935","latitude":"32.05722200","longitude":"64.84527800","name":"Ahmadzayi"},{"id":"1972","latitude":"32.19250000","longitude":"64.05472200","name":"Ajrum"},{"id":"1976","latitude":"31.72805600","longitude":"64.34888900","name":"Akadzhankalay"},{"id":"2030","latitude":"32.73166700","longitude":"64.71694400","name":"Akbarkhannava"},{"id":"2031","latitude":"32.73166700","longitude":"64.71694400","name":"Akbar Khan Nawa"},{"id":"2032","latitude":"32.73166700","longitude":"64.71694400","name":"Akbar Khan Nawah"},{"id":"2052","latitude":"32.69833300","longitude":"64.94722200","name":"Akhangaran"},{"id":"2098","latitude":"32.29638900","longitude":"64.77583300","name":"Akhmedkhazi"},{"id":"2107","latitude":"32.05722200","longitude":"64.84527800","name":"Akhmedzai"},{"id":"2114","latitude":"32.36777800","longitude":"65.11750000","name":"Akhond Kheyl"},{"id":"2126","latitude":"32.95138900","longitude":"64.76138900","name":"Akhtak"},{"id":"2191","latitude":"32.36777800","longitude":"65.11750000","name":"Akhundkhel"},{"id":"2200","latitude":"32.36777800","longitude":"65.11750000","name":"Akhundkheyl'"},{"id":"2270","latitude":"32.36777800","longitude":"65.11750000","name":"Akhvond Kheyl"},{"id":"2323","latitude":"31.25250000","longitude":"64.21333300","name":"Akram Kalay"},{"id":"2402","latitude":"32.32305600","longitude":"65.10527800","name":"Alakadari-Kadzhaki"},{"id":"2485","latitude":"30.52138900","longitude":"63.39166700","name":"`Alamo"},{"id":"2492","latitude":"30.52138900","longitude":"63.39166700","name":"`Alamu"},{"id":"2509","latitude":"30.43472200","longitude":"63.30722200","name":"`Alaqadari Dehe Su"},{"id":"2514","latitude":"32.32305600","longitude":"65.10527800","name":"`Alaqadari Kajaki"},{"id":"2540","latitude":"30.43472200","longitude":"63.30722200","name":"`Alaqehdari Deh-e Shu"},{"id":"2541","latitude":"32.32305600","longitude":"65.10527800","name":"`Alaqehdari Kajaki"},{"id":"2564","latitude":"33.14000000","longitude":"65.00083300","name":"Alasa"},{"id":"2575","latitude":"33.14000000","longitude":"65.00083300","name":"Alasha"},{"id":"2576","latitude":"33.14000000","longitude":"65.00083300","name":"Alashah"},{"id":"2609","latitude":"32.32750000","longitude":"64.94750000","name":"Albelagh"},{"id":"2613","latitude":"32.32750000","longitude":"64.94750000","name":"Al'bilag"},{"id":"2614","latitude":"32.33666700","longitude":"64.94444400","name":"Albulagh"},{"id":"2674","latitude":"32.11166700","longitude":"64.56138900","name":"`Aliabad"},{"id":"2675","latitude":"32.11166700","longitude":"64.56138900","name":"Aliabad"},{"id":"2676","latitude":"32.33388900","longitude":"64.98333300","name":"`Aliabad"},{"id":"2677","latitude":"32.33388900","longitude":"64.98333300","name":"Aliabad"},{"id":"2764","latitude":"32.51444400","longitude":"64.40416700","name":"Alikhafa"},{"id":"2765","latitude":"32.51444400","longitude":"64.40416700","name":"`Ali Khafa"},{"id":"2766","latitude":"32.51444400","longitude":"64.40416700","name":"`Ali Khafah"},{"id":"2843","latitude":"30.50527800","longitude":"63.82583300","name":"`Alimardankhan Bagat"},{"id":"2844","latitude":"30.50527800","longitude":"63.82583300","name":"`Alimardan Khan-e Bagat"},{"id":"2936","latitude":"32.42305600","longitude":"64.46833300","name":"Alizai"},{"id":"2937","latitude":"32.42305600","longitude":"64.46833300","name":"`Ali Za`i"},{"id":"2938","latitude":"32.64583300","longitude":"64.70916700","name":"`Aliza'i"},{"id":"2944","latitude":"32.64583300","longitude":"64.70916700","name":"Alizay"},{"id":"2945","latitude":"32.64583300","longitude":"64.70916700","name":"`Ali Zay"},{"id":"2948","latitude":"32.42305600","longitude":"64.46833300","name":"`Alizayi"},{"id":"2970","latitude":"32.23111100","longitude":"64.32361100","name":"Allah Ghuli"},{"id":"2971","latitude":"31.30111100","longitude":"64.25222200","name":"Allahnur Kalay"},{"id":"2980","latitude":"32.23111100","longitude":"64.32361100","name":"Allakhguli"},{"id":"3027","latitude":"31.70305600","longitude":"64.67000000","name":"Alokowzi"},{"id":"3028","latitude":"31.70305600","longitude":"64.67000000","name":"Alokozi"},{"id":"3067","latitude":"32.57666700","longitude":"64.39111100","name":"Al'tigi"},{"id":"3068","latitude":"32.57666700","longitude":"64.39111100","name":"Altigi"},{"id":"3106","latitude":"31.70305600","longitude":"64.67000000","name":"Alukozi"},{"id":"3157","latitude":"30.74166700","longitude":"64.11722200","name":"Amannullakhan Kalay"},{"id":"3158","latitude":"31.70250000","longitude":"64.38805600","name":"Amanollah Kalay"},{"id":"3159","latitude":"31.98333300","longitude":"64.82777800","name":"Amanollah Kariz"},{"id":"3160","latitude":"30.74166700","longitude":"64.11722200","name":"Amanollah Khan Kalay"},{"id":"3161","latitude":"31.14083300","longitude":"64.17138900","name":"Amanollah Kur"},{"id":"3163","latitude":"31.98333300","longitude":"64.82777800","name":"Amanula-Karez"},{"id":"3164","latitude":"31.70250000","longitude":"64.38805600","name":"Amanullah Kalay"},{"id":"3165","latitude":"31.98333300","longitude":"64.82777800","name":"Amanullah Karez"},{"id":"3166","latitude":"31.14083300","longitude":"64.17138900","name":"Amanullah Kor"},{"id":"3167","latitude":"31.70250000","longitude":"64.38805600","name":"Amanulla-Kalay"},{"id":"3224","latitude":"31.70694400","longitude":"64.39083300","name":"Amimkalay"},{"id":"3225","latitude":"31.70694400","longitude":"64.39083300","name":"Amim Kalay"},{"id":"3262","latitude":"32.23777800","longitude":"63.72722200","name":"Amir Mahbata"},{"id":"3263","latitude":"32.23777800","longitude":"63.72722200","name":"Amir Mahbatah"},{"id":"3279","latitude":"30.74166700","longitude":"64.11722200","name":"Ammanullakhan Kalay"},{"id":"3325","latitude":"32.85833300","longitude":"64.57555600","name":"Amrut"},{"id":"3346","latitude":"32.08305600","longitude":"64.61361100","name":"Anarak"},{"id":"3359","latitude":"33.12500000","longitude":"65.09972200","name":"Anardzhoy"},{"id":"3364","latitude":"33.12500000","longitude":"65.09972200","name":"Anarjoy"},{"id":"3368","latitude":"33.12500000","longitude":"65.09972200","name":"Anarjuy"},{"id":"3388","latitude":"33.11111100","longitude":"65.13083300","name":"Anay"},{"id":"3448","latitude":"32.14138900","longitude":"65.06972200","name":"Andzharak"},{"id":"3449","latitude":"32.38222200","longitude":"65.09500000","name":"Andzharan"},{"id":"3454","latitude":"32.52500000","longitude":"64.34027800","name":"Andzhiri"},{"id":"3457","latitude":"33.01166700","longitude":"64.94916700","name":"Andzhuman"},{"id":"3496","latitude":"33.22611100","longitude":"65.16250000","name":"Angurak"},{"id":"3524","latitude":"31.75805600","longitude":"64.49250000","name":"Anizo Kalay"},{"id":"3525","latitude":"31.75805600","longitude":"64.49250000","name":"Anizu Kalay"},{"id":"3526","latitude":"31.75805600","longitude":"64.49250000","name":"Anizukulay"},{"id":"3532","latitude":"32.14138900","longitude":"65.06972200","name":"Anjarak"},{"id":"3533","latitude":"32.38222200","longitude":"65.09500000","name":"Anjaran"},{"id":"3549","latitude":"32.52500000","longitude":"64.34027800","name":"Anjiri"},{"id":"3550","latitude":"32.13250000","longitude":"64.66694400","name":"Anjir Shali"},{"id":"3553","latitude":"33.01166700","longitude":"64.94916700","name":"Anjoman"},{"id":"3558","latitude":"33.22611100","longitude":"65.16250000","name":"Ankarchak"},{"id":"3560","latitude":"33.22611100","longitude":"65.16250000","name":"Anqarcaq"},{"id":"3561","latitude":"33.22611100","longitude":"65.16250000","name":"Anqarchaq"},{"id":"3574","latitude":"31.75805600","longitude":"64.49250000","name":"Anzio Kalay"},{"id":"3598","latitude":"32.32027800","longitude":"65.00916700","name":"Aqa Ahmad"},{"id":"3603","latitude":"31.72805600","longitude":"64.34888900","name":"Aqaian Kalay"},{"id":"3605","latitude":"31.72805600","longitude":"64.34888900","name":"Aqa Jan Kalay"},{"id":"3606","latitude":"30.39888900","longitude":"63.27888900","name":"Aqa Kalay"},{"id":"3608","latitude":"30.39888900","longitude":"63.27888900","name":"Aqa Kelay"},{"id":"3626","latitude":"31.72805600","longitude":"64.34888900","name":"Aqayan Kalay"},{"id":"3732","latitude":"31.71916700","longitude":"64.34888900","name":"Arabkalay"},{"id":"3733","latitude":"31.71916700","longitude":"64.34888900","name":"`Arab Kalay"},{"id":"3978","latitude":"33.16888900","longitude":"65.09222200","name":"Arnay"},{"id":"4044","latitude":"32.64111100","longitude":"64.92750000","name":"Asad"},{"id":"4155","latitude":"32.17583300","longitude":"63.53666700","name":"Ashrafi"},{"id":"4242","latitude":"33.08833300","longitude":"65.08361100","name":"Asmanian"},{"id":"4248","latitude":"33.08833300","longitude":"65.08361100","name":"Asman'yan"},{"id":"4249","latitude":"33.08833300","longitude":"65.08361100","name":"Asmanyan"},{"id":"4262","latitude":"32.84027800","longitude":"64.47388900","name":"Aspakay"},{"id":"4263","latitude":"32.84027800","longitude":"64.47388900","name":"Aspakey"},{"id":"4294","latitude":"32.17583300","longitude":"63.53666700","name":"Asrafi"},{"id":"4389","latitude":"32.41055600","longitude":"65.02416700","name":"Atal"},{"id":"4390","latitude":"32.41055600","longitude":"65.02416700","name":"Atal'"},{"id":"4415","latitude":"33.12305600","longitude":"65.07138900","name":"Atana"},{"id":"4416","latitude":"33.12305600","longitude":"65.07138900","name":"Atanah"},{"id":"4535","latitude":"31.94722200","longitude":"64.88472200","name":"Avgani"},{"id":"4544","latitude":"31.97305600","longitude":"64.95722200","name":"Avkhana"},{"id":"4545","latitude":"31.97305600","longitude":"64.95722200","name":"Av Khaneh"},{"id":"4648","latitude":"31.94722200","longitude":"64.88472200","name":"Awghani"},{"id":"4656","latitude":"31.97305600","longitude":"64.95722200","name":"Awkhana"},{"id":"4744","latitude":"32.72944400","longitude":"64.70111100","name":"Aybak"},{"id":"4884","latitude":"31.51083300","longitude":"64.32888900","name":"`Aynak"},{"id":"4885","latitude":"31.51083300","longitude":"64.32888900","name":"Aynak"},{"id":"4967","latitude":"32.26888900","longitude":"64.99138900","name":"Azan"},{"id":"5004","latitude":"31.68416700","longitude":"64.36138900","name":"`Aziz Kalay"},{"id":"5066","latitude":"33.13444400","longitude":"65.05972200","name":"Babadzhi"},{"id":"5079","latitude":"31.66722200","longitude":"64.35222200","name":"Babaji"},{"id":"5175","latitude":"33.11194400","longitude":"65.11805600","name":"Babazangi"},{"id":"5176","latitude":"33.11194400","longitude":"65.11805600","name":"Baba Zangi"},{"id":"5259","latitude":"32.10250000","longitude":"64.34500000","name":"Bacha-i-Rabia"},{"id":"5264","latitude":"32.10250000","longitude":"64.34500000","name":"Bacha Rabia"},{"id":"5265","latitude":"32.10250000","longitude":"64.34500000","name":"Bachcheh Rabid"},{"id":"5294","latitude":"32.96055600","longitude":"65.02638900","name":"Badamak"},{"id":"5494","latitude":"32.13416700","longitude":"64.43777800","name":"Bagak"},{"id":"5506","latitude":"33.01166700","longitude":"64.94916700","name":"Bagal'"},{"id":"5521","latitude":"32.33805600","longitude":"65.06611100","name":"Bagarkhel"},{"id":"5522","latitude":"32.33805600","longitude":"65.06611100","name":"Bagarkheyl'"},{"id":"5523","latitude":"32.33805600","longitude":"65.06611100","name":"Bagar Kheyl"},{"id":"5524","latitude":"32.66944400","longitude":"64.65722200","name":"Bagatay"},{"id":"5525","latitude":"30.50527800","longitude":"63.82583300","name":"Bagat"},{"id":"5547","latitude":"33.08527800","longitude":"65.06694400","name":"Bagdzhoy"},{"id":"5548","latitude":"32.91583300","longitude":"64.94666700","name":"Bagela"},{"id":"5562","latitude":"32.13416700","longitude":"64.43777800","name":"Baghak"},{"id":"5580","latitude":"33.01166700","longitude":"64.94916700","name":"Baghal Anjoman"},{"id":"5581","latitude":"33.01166700","longitude":"64.94916700","name":"Baghal"},{"id":"5597","latitude":"32.33805600","longitude":"65.06611100","name":"Bagharkhe"},{"id":"5598","latitude":"32.66944400","longitude":"64.65722200","name":"Baghatay"},{"id":"5672","latitude":"32.91583300","longitude":"64.94666700","name":"Baghela"},{"id":"5673","latitude":"32.91583300","longitude":"64.94666700","name":"Baghelah"},{"id":"5680","latitude":"32.02916700","longitude":"65.07888900","name":"Bagh-e Mehrab"},{"id":"5707","latitude":"31.24944400","longitude":"64.21222200","name":"Bagh-e Rabat"},{"id":"5735","latitude":"32.68500000","longitude":"65.20750000","name":"Baghe Yosuf"},{"id":"5736","latitude":"32.68500000","longitude":"65.20750000","name":"Bagh-e Yusof"},{"id":"5778","latitude":"33.08527800","longitude":"65.06694400","name":"Baghjoy"},{"id":"5779","latitude":"33.08527800","longitude":"65.06694400","name":"Baghjuy"},{"id":"5792","latitude":"33.00888900","longitude":"64.96722200","name":"Baghran"},{"id":"5793","latitude":"33.00888900","longitude":"64.96722200","name":"Baghran Kholeh"},{"id":"5794","latitude":"33.00888900","longitude":"64.96722200","name":"Baghran Khowleh"},{"id":"5795","latitude":"33.00888900","longitude":"64.96722200","name":"Baghran Kolah"},{"id":"5831","latitude":"32.02916700","longitude":"65.07888900","name":"Bagi-Mikhrab"},{"id":"5851","latitude":"32.68500000","longitude":"65.20750000","name":"Bagi-Yusuf"},{"id":"5867","latitude":"33.00888900","longitude":"64.96722200","name":"Bagrankhula"},{"id":"5908","latitude":"30.50527800","longitude":"63.82583300","name":"Bahagrat"},{"id":"5932","latitude":"31.71722200","longitude":"64.40472200","name":"Bahloi Kalay"},{"id":"5936","latitude":"31.71722200","longitude":"64.40472200","name":"Bahlol Kalay"},{"id":"5942","latitude":"31.71722200","longitude":"64.40472200","name":"Bahlui Kalay"},{"id":"5948","latitude":"29.43333300","longitude":"64.05000000","name":"Bahramcah"},{"id":"5949","latitude":"29.43333300","longitude":"64.05000000","name":"Bahram Chah"},{"id":"5992","latitude":"31.78777800","longitude":"64.52194400","name":"Ba'iza'i"},{"id":"5993","latitude":"31.78777800","longitude":"64.52194400","name":"Baizai"},{"id":"6067","latitude":"31.71722200","longitude":"64.40472200","name":"Bakhlol'kalay"},{"id":"6084","latitude":"32.17250000","longitude":"64.37916700","name":"Bakhs Abad"},{"id":"6092","latitude":"32.17250000","longitude":"64.37916700","name":"Bakhshabad"},{"id":"6177","latitude":"32.17250000","longitude":"64.37916700","name":"Bakshabad"},{"id":"6450","latitude":"31.67972200","longitude":"64.23444400","name":"Balocan"},{"id":"6454","latitude":"31.67972200","longitude":"64.23444400","name":"Balochan"},{"id":"6475","latitude":"31.67972200","longitude":"64.23444400","name":"Balucan"},{"id":"6486","latitude":"31.67972200","longitude":"64.23444400","name":"Baluchan"},{"id":"6497","latitude":"33.11250000","longitude":"65.04027800","name":"Baluchi"},{"id":"6510","latitude":"33.11250000","longitude":"65.04027800","name":"Baluci"},{"id":"6520","latitude":"32.37916700","longitude":"65.20888900","name":"Balukchau"},{"id":"6527","latitude":"32.14722200","longitude":"64.93916700","name":"Baluzay"},{"id":"6538","latitude":"30.93944400","longitude":"64.14444400","name":"Bamerowzah"},{"id":"6539","latitude":"30.93944400","longitude":"64.14444400","name":"Bameroza"},{"id":"6549","latitude":"30.54250000","longitude":"63.96333300","name":"Banader"},{"id":"6550","latitude":"30.54250000","longitude":"63.96333300","name":"Banader Khvord"},{"id":"6632","latitude":"32.23333300","longitude":"65.08333300","name":"Band-e Kajaki"},{"id":"6669","latitude":"32.32750000","longitude":"65.12833300","name":"Bandi-Kadzhaki"},{"id":"6703","latitude":"32.19388900","longitude":"64.97000000","name":"Banekza'i"},{"id":"6759","latitude":"31.92888900","longitude":"64.82222200","name":"Bano Kalay"},{"id":"6764","latitude":"32.19138900","longitude":"64.97916700","name":"Banoza'i"},{"id":"6765","latitude":"32.19138900","longitude":"64.97916700","name":"Banozai"},{"id":"6777","latitude":"31.92888900","longitude":"64.82222200","name":"Banukalay"},{"id":"6781","latitude":"32.19138900","longitude":"64.97916700","name":"Banuza'i"},{"id":"6806","latitude":"32.19888900","longitude":"63.58666700","name":"Bara"},{"id":"6810","latitude":"29.43333300","longitude":"64.05000000","name":"Barabcah"},{"id":"6811","latitude":"29.43333300","longitude":"64.05000000","name":"Barab Chah"},{"id":"6845","latitude":"32.18333300","longitude":"63.58333300","name":"Bara-i-Janobi"},{"id":"6846","latitude":"32.19888900","longitude":"63.58666700","name":"Bara-i-Samali"},{"id":"6935","latitude":"31.62861100","longitude":"64.54666700","name":"Baranay"},{"id":"6948","latitude":"31.64333300","longitude":"64.73694400","name":"Barang"},{"id":"7046","latitude":"32.18333300","longitude":"63.58333300","name":"Bar"},{"id":"7088","latitude":"32.18333300","longitude":"63.58333300","name":"Bareh-ye Janubi"},{"id":"7089","latitude":"32.19888900","longitude":"63.58666700","name":"Bareh-ye Shamali"},{"id":"7090","latitude":"32.19888900","longitude":"63.58666700","name":"Bareh-ye Shemali"},{"id":"7093","latitude":"32.19388900","longitude":"64.97000000","name":"Barekza'i"},{"id":"7097","latitude":"31.85416700","longitude":"64.64250000","name":"Barekza'i Kalay"},{"id":"7100","latitude":"31.85416700","longitude":"64.64250000","name":"Barekzay Kalay"},{"id":"7101","latitude":"32.17888900","longitude":"64.95666700","name":"Barekzi"},{"id":"7130","latitude":"32.10416700","longitude":"64.64333300","name":"Bargana"},{"id":"7143","latitude":"32.10416700","longitude":"64.64333300","name":"Barghana"},{"id":"7144","latitude":"32.10416700","longitude":"64.64333300","name":"Barghanah"},{"id":"7186","latitude":"32.56555600","longitude":"65.08333300","name":"Barigav"},{"id":"7189","latitude":"32.56555600","longitude":"65.08333300","name":"Barigaw"},{"id":"7194","latitude":"32.56555600","longitude":"65.08333300","name":"Barik Ab"},{"id":"7219","latitude":"32.34166700","longitude":"65.08777800","name":"Barikdzhu"},{"id":"7241","latitude":"32.34166700","longitude":"65.08777800","name":"Barikjo"},{"id":"7254","latitude":"32.19388900","longitude":"64.97000000","name":"Barikzai"},{"id":"7257","latitude":"31.85416700","longitude":"64.64250000","name":"Barikzay-Kalay"},{"id":"7258","latitude":"32.17888900","longitude":"64.95666700","name":"Barikzi"},{"id":"7396","latitude":"32.48722200","longitude":"64.36027800","name":"Bar-Nau-Zadi-Garbi"},{"id":"7397","latitude":"32.48861100","longitude":"64.37472200","name":"Bar-Nau-Zadi-Sharki"},{"id":"7399","latitude":"32.48722200","longitude":"64.36027800","name":"Bar Naw Zade Gharbi"},{"id":"7400","latitude":"32.48861100","longitude":"64.37472200","name":"Bar Nawzade Sarqi"},{"id":"7404","latitude":"32.48722200","longitude":"64.36027800","name":"Bar Nowzad"},{"id":"7405","latitude":"32.48722200","longitude":"64.36027800","name":"Bar Nowzad-e Gharbi"},{"id":"7406","latitude":"32.48861100","longitude":"64.37472200","name":"Bar Nowzad-e Sharqi"},{"id":"7431","latitude":"33.11638900","longitude":"65.03527800","name":"Bars"},{"id":"7445","latitude":"33.09305600","longitude":"65.05750000","name":"Bars Khola"},{"id":"7446","latitude":"33.09305600","longitude":"65.05750000","name":"Bars Kholah"},{"id":"7447","latitude":"33.09305600","longitude":"65.05750000","name":"Barskhula"},{"id":"7448","latitude":"33.09305600","longitude":"65.05750000","name":"Bars Khulah"},{"id":"7454","latitude":"30.94416700","longitude":"64.12555600","name":"Bartaka"},{"id":"7455","latitude":"30.94416700","longitude":"64.12555600","name":"Bartakah"},{"id":"7456","latitude":"30.94416700","longitude":"64.12555600","name":"Bartakeh"},{"id":"7499","latitude":"31.65500000","longitude":"64.33027800","name":"Basaran"},{"id":"7520","latitude":"31.65500000","longitude":"64.33027800","name":"Basharan"},{"id":"7529","latitude":"32.87388900","longitude":"64.88888900","name":"Bashleng"},{"id":"7530","latitude":"32.87388900","longitude":"64.88888900","name":"Bashling"},{"id":"7545","latitude":"32.87388900","longitude":"64.88888900","name":"Basleng"},{"id":"7592","latitude":"32.68361100","longitude":"65.02750000","name":"Batel"},{"id":"7599","latitude":"32.68361100","longitude":"65.02750000","name":"Batil'"},{"id":"7614","latitude":"32.38555600","longitude":"65.12750000","name":"Baur"},{"id":"7618","latitude":"32.38555600","longitude":"65.12750000","name":"Bavr"},{"id":"7632","latitude":"32.38555600","longitude":"65.12750000","name":"Bawr"},{"id":"7677","latitude":"31.81416700","longitude":"64.86000000","name":"Baydak"},{"id":"7700","latitude":"31.26250000","longitude":"64.24416700","name":"Baykhan Kalay"},{"id":"7704","latitude":"32.12166700","longitude":"65.07972200","name":"Baykhus"},{"id":"7705","latitude":"32.12166700","longitude":"65.07972200","name":"Baykhush"},{"id":"7706","latitude":"32.12166700","longitude":"65.07972200","name":"Baykhvosh"},{"id":"7739","latitude":"32.47555600","longitude":"64.35111100","name":"Baysufi"},{"id":"7740","latitude":"32.47555600","longitude":"64.35111100","name":"Bay Sufi"},{"id":"7822","latitude":"33.03361100","longitude":"64.97861100","name":"Bazgir"},{"id":"7832","latitude":"32.34111100","longitude":"64.25611100","name":"Bazi Deh"},{"id":"7833","latitude":"32.34111100","longitude":"64.25611100","name":"Bazidekh"},{"id":"7918","latitude":"32.15194400","longitude":"64.75388900","name":"Bedak"},{"id":"7931","latitude":"32.15194400","longitude":"64.75388900","name":"Bedak Seh Ab"},{"id":"8113","latitude":"30.93944400","longitude":"64.14444400","name":"Bemeroza"},{"id":"8114","latitude":"30.93944400","longitude":"64.14444400","name":"Bemeruzah"},{"id":"8115","latitude":"32.31027800","longitude":"64.95694400","name":"Benafash"},{"id":"8116","latitude":"32.31027800","longitude":"64.95694400","name":"Benafsh"},{"id":"8118","latitude":"32.31027800","longitude":"64.95694400","name":"Benavsh"},{"id":"8122","latitude":"32.86277800","longitude":"64.59416700","name":"Benaws"},{"id":"8125","latitude":"32.86277800","longitude":"64.59416700","name":"Benawsh"},{"id":"8130","latitude":"32.31027800","longitude":"64.95694400","name":"Benos"},{"id":"8133","latitude":"32.31027800","longitude":"64.95694400","name":"Benosh"},{"id":"8134","latitude":"32.86277800","longitude":"64.59416700","name":"Benowsh"},{"id":"8135","latitude":"32.30611100","longitude":"64.93805600","name":"Bensham"},{"id":"8164","latitude":"32.98055600","longitude":"65.01861100","name":"Berenjak"},{"id":"8174","latitude":"32.98055600","longitude":"65.01861100","name":"Berindzhak"},{"id":"8180","latitude":"30.94416700","longitude":"64.12555600","name":"Bertaka"},{"id":"8181","latitude":"30.94416700","longitude":"64.12555600","name":"Bertakeh"},{"id":"8186","latitude":"32.30611100","longitude":"64.93805600","name":"Besam"},{"id":"8201","latitude":"32.30611100","longitude":"64.93805600","name":"Besham"},{"id":"8258","latitude":"32.31027800","longitude":"64.95694400","name":"Beynowsh"},{"id":"8268","latitude":"30.50527800","longitude":"63.82583300","name":"Bhagat"},{"id":"8269","latitude":"30.50527800","longitude":"63.82583300","name":"Bhaghat"},{"id":"8271","latitude":"32.18972200","longitude":"64.18666700","name":"Biabanak"},{"id":"8279","latitude":"32.34972200","longitude":"65.06805600","name":"Bibanak"},{"id":"8296","latitude":"30.46305600","longitude":"63.36222200","name":"Bibijan Kala"},{"id":"8297","latitude":"32.39777800","longitude":"65.20527800","name":"Bibika"},{"id":"8298","latitude":"32.39777800","longitude":"65.20527800","name":"Bibikah"},{"id":"8303","latitude":"32.39777800","longitude":"65.20527800","name":"Bibiku"},{"id":"8319","latitude":"32.15194400","longitude":"64.75388900","name":"Bidak"},{"id":"8331","latitude":"32.15194400","longitude":"64.75388900","name":"Bidak Seh Ab"},{"id":"8415","latitude":"30.54250000","longitude":"63.96333300","name":"Binadar Khurd"},{"id":"8421","latitude":"32.86277800","longitude":"64.59416700","name":"Binaush"},{"id":"8486","latitude":"30.94416700","longitude":"64.12555600","name":"Birtakeh"},{"id":"8493","latitude":"32.30611100","longitude":"64.93805600","name":"Bisham"},{"id":"8516","latitude":"31.58916700","longitude":"64.36333300","name":"Bist"},{"id":"8583","latitude":"33.28805600","longitude":"65.23916700","name":"Bohari Qol"},{"id":"8584","latitude":"33.28805600","longitude":"65.23916700","name":"Bohari Qowl"},{"id":"8644","latitude":"31.59500000","longitude":"64.33722200","name":"Bolan"},{"id":"8691","latitude":"32.37916700","longitude":"65.20888900","name":"Bolukcaw"},{"id":"8692","latitude":"32.37916700","longitude":"65.20888900","name":"Bolukchaw"},{"id":"8742","latitude":"33.14055600","longitude":"65.01944400","name":"Borj"},{"id":"8784","latitude":"32.23055600","longitude":"65.00277800","name":"Bostanza'i"},{"id":"8785","latitude":"32.23055600","longitude":"65.00277800","name":"Bostanzai"},{"id":"8786","latitude":"32.23055600","longitude":"65.00277800","name":"Bostan Zay"},{"id":"8787","latitude":"31.58916700","longitude":"64.36333300","name":"Bost"},{"id":"8823","latitude":"31.59500000","longitude":"64.33722200","name":"Bowlan"},{"id":"8956","latitude":"32.98305600","longitude":"65.02694400","name":"Budzhban"},{"id":"8980","latitude":"32.98305600","longitude":"65.02694400","name":"Bujban"},{"id":"8993","latitude":"33.28805600","longitude":"65.23916700","name":"Bukharikul'"},{"id":"9146","latitude":"33.14055600","longitude":"65.01944400","name":"Burdzh"},{"id":"9200","latitude":"33.14055600","longitude":"65.01944400","name":"Burj"},{"id":"9275","latitude":"32.23055600","longitude":"65.00277800","name":"Bustanza'i"},{"id":"9276","latitude":"32.23055600","longitude":"65.00277800","name":"Bustanzay"},{"id":"9278","latitude":"31.50888900","longitude":"64.36333300","name":"Bust"},{"id":"9299","latitude":"33.27750000","longitude":"65.23194400","name":"Butkhar"},{"id":"9356","latitude":"32.18972200","longitude":"64.18666700","name":"B'yabanak"},{"id":"9357","latitude":"32.18972200","longitude":"64.18666700","name":"Byabanak"},{"id":"9397","latitude":"31.56361100","longitude":"64.42833300","name":"Caghalano Ghar"},{"id":"9398","latitude":"32.25583300","longitude":"64.79388900","name":"Caghali"},{"id":"9423","latitude":"32.60944400","longitude":"64.27333300","name":"Cahak"},{"id":"9427","latitude":"31.67805600","longitude":"64.31444400","name":"Cahanjir"},{"id":"9428","latitude":"31.67416700","longitude":"64.30777800","name":"Cahanjir Kalay"},{"id":"9439","latitude":"31.69055600","longitude":"64.37305600","name":"Caharbagh"},{"id":"9458","latitude":"32.35000000","longitude":"65.17583300","name":"Cahardar"},{"id":"9521","latitude":"32.63111100","longitude":"64.77777800","name":"Cahar Sa`i"},{"id":"9560","latitude":"32.22083300","longitude":"64.35388900","name":"Cahe Daraz Karez"},{"id":"9579","latitude":"32.19305600","longitude":"64.31027800","name":"Cahgoli"},{"id":"9604","latitude":"32.11972200","longitude":"64.92638900","name":"Caka"},{"id":"9633","latitude":"32.08527800","longitude":"64.62638900","name":"Cakaw"},{"id":"9655","latitude":"33.14222200","longitude":"65.05166700","name":"Caktu"},{"id":"9698","latitude":"33.01611100","longitude":"64.96583300","name":"Caman"},{"id":"9779","latitude":"32.41750000","longitude":"64.48861100","name":"Cangolak"},{"id":"9849","latitude":"32.10250000","longitude":"64.34500000","name":"Cara Beya"},{"id":"9861","latitude":"31.69055600","longitude":"64.37305600","name":"Carbagh"},{"id":"9878","latitude":"32.21333300","longitude":"64.99833300","name":"Cardeh"},{"id":"9900","latitude":"31.80416700","longitude":"64.55166700","name":"Carkhandaz"},{"id":"9915","latitude":"32.69722200","longitude":"64.57138900","name":"Carmestan"},{"id":"9949","latitude":"32.18361100","longitude":"64.37472200","name":"Casma"},{"id":"9953","latitude":"32.97750000","longitude":"65.02611100","name":"Casmagak"},{"id":"10074","latitude":"32.18333300","longitude":"65.06222200","name":"Caydar"},{"id":"10103","latitude":"33.28194400","longitude":"65.20777800","name":"Cehelgazi"},{"id":"10241","latitude":"32.97750000","longitude":"65.12833300","name":"Ceya"},{"id":"10278","latitude":"32.25583300","longitude":"64.79388900","name":"Chagali"},{"id":"10292","latitude":"31.56361100","longitude":"64.42833300","name":"Chaghalano Ghar"},{"id":"10293","latitude":"31.56361100","longitude":"64.42833300","name":"Chaghalanu Ghar"},{"id":"10294","latitude":"32.25583300","longitude":"64.79388900","name":"Chaghali"},{"id":"10328","latitude":"32.60944400","longitude":"64.27333300","name":"Chahak"},{"id":"10333","latitude":"31.67805600","longitude":"64.31444400","name":"Chah Anjir"},{"id":"10347","latitude":"31.69055600","longitude":"64.37305600","name":"Chahar Bagh"},{"id":"10387","latitude":"32.21333300","longitude":"64.99833300","name":"Chahardah"},{"id":"10390","latitude":"32.35000000","longitude":"65.17583300","name":"Chahardar"},{"id":"10500","latitude":"32.63111100","longitude":"64.77777800","name":"Chahar Sa`i"},{"id":"10529","latitude":"33.20750000","longitude":"65.14527800","name":"Chahartu"},{"id":"10556","latitude":"31.67805600","longitude":"64.31444400","name":"Chah-e Anjir"},{"id":"10557","latitude":"31.67416700","longitude":"64.30777800","name":"Chah-e Anjir Kalay"},{"id":"10563","latitude":"32.22083300","longitude":"64.35388900","name":"Chah-e Deraz Kariz"},{"id":"10587","latitude":"32.19305600","longitude":"64.31027800","name":"Chah Goli"},{"id":"10590","latitude":"31.67805600","longitude":"64.31444400","name":"Chah-i-Anjir"},{"id":"10620","latitude":"31.67805600","longitude":"64.31444400","name":"Chai Ingil"},{"id":"10626","latitude":"32.08527800","longitude":"64.62638900","name":"Chakab"},{"id":"10637","latitude":"32.11972200","longitude":"64.92638900","name":"Chaka"},{"id":"10646","latitude":"32.11972200","longitude":"64.92638900","name":"Chakah"},{"id":"10687","latitude":"32.08527800","longitude":"64.62638900","name":"Chakav"},{"id":"10692","latitude":"32.28027800","longitude":"64.81083300","name":"Chakaw"},{"id":"10716","latitude":"32.60944400","longitude":"64.27333300","name":"Chakhak"},{"id":"10719","latitude":"31.67805600","longitude":"64.31444400","name":"Chakhandzhir"},{"id":"10720","latitude":"31.67416700","longitude":"64.30777800","name":"Chakhandzhirkalay"},{"id":"10726","latitude":"31.69055600","longitude":"64.37305600","name":"Chakharbag"},{"id":"10737","latitude":"32.35000000","longitude":"65.17583300","name":"Chakharda"},{"id":"10783","latitude":"32.63111100","longitude":"64.77777800","name":"Chakharsay"},{"id":"10805","latitude":"32.19305600","longitude":"64.31027800","name":"Chakhguli"},{"id":"10809","latitude":"32.22083300","longitude":"64.35388900","name":"Chakhi-Darazkarez"},{"id":"10839","latitude":"33.14222200","longitude":"65.05166700","name":"Chaktu"},{"id":"10868","latitude":"32.22916700","longitude":"64.81444400","name":"Chalav'yan"},{"id":"10917","latitude":"33.01611100","longitude":"64.96583300","name":"Chaman"},{"id":"10992","latitude":"32.67833300","longitude":"64.68222200","name":"Chanagay"},{"id":"11052","latitude":"32.41750000","longitude":"64.48861100","name":"Changolak"},{"id":"11054","latitude":"32.41750000","longitude":"64.48861100","name":"Changowlak"},{"id":"11055","latitude":"32.41750000","longitude":"64.48861100","name":"Changulak"},{"id":"11170","latitude":"32.10250000","longitude":"64.34500000","name":"Chara Bia"},{"id":"11171","latitude":"32.10250000","longitude":"64.34500000","name":"Charabiya"},{"id":"11186","latitude":"31.69055600","longitude":"64.37305600","name":"Charbag"},{"id":"11191","latitude":"31.69055600","longitude":"64.37305600","name":"Charbagh"},{"id":"11225","latitude":"32.31333300","longitude":"64.76250000","name":"Chardeh"},{"id":"11230","latitude":"32.31333300","longitude":"64.76250000","name":"Chardekh"},{"id":"11240","latitude":"32.18000000","longitude":"64.94833300","name":"Charez"},{"id":"11293","latitude":"32.69722200","longitude":"64.57138900","name":"Charmestan"},{"id":"11305","latitude":"32.69722200","longitude":"64.57138900","name":"Charmistan"},{"id":"11359","latitude":"32.18361100","longitude":"64.37472200","name":"Chashma"},{"id":"11365","latitude":"32.97750000","longitude":"65.02611100","name":"Chashmagak"},{"id":"11418","latitude":"32.01666700","longitude":"63.91666700","name":"Chashmeh-e-Dalkhak"},{"id":"11427","latitude":"32.01666700","longitude":"63.91666700","name":"Chashmeh-ye Talkhak"},{"id":"11535","latitude":"32.18333300","longitude":"65.06222200","name":"Chaydar"},{"id":"11585","latitude":"33.28194400","longitude":"65.20777800","name":"Chehelgazi"},{"id":"11754","latitude":"32.18361100","longitude":"64.37472200","name":"Cheshmeh"},{"id":"11759","latitude":"32.97750000","longitude":"65.02611100","name":"Cheshmehgak"},{"id":"11816","latitude":"32.01666700","longitude":"63.91666700","name":"Cheshmeh-ye Talkhak"},{"id":"11831","latitude":"32.97750000","longitude":"65.12833300","name":"Cheya"},{"id":"11832","latitude":"32.97750000","longitude":"65.12833300","name":"Cheyah"},{"id":"11878","latitude":"33.28194400","longitude":"65.20777800","name":"Chikhil'gazi"},{"id":"11940","latitude":"31.96805600","longitude":"64.80083300","name":"China"},{"id":"11953","latitude":"32.23777800","longitude":"64.95444400","name":"Chinagi"},{"id":"11956","latitude":"31.96805600","longitude":"64.80083300","name":"Chinah"},{"id":"11964","latitude":"32.67833300","longitude":"64.68222200","name":"Chinahgay"},{"id":"11974","latitude":"32.18805600","longitude":"64.95333300","name":"Chinakza"},{"id":"11975","latitude":"32.18805600","longitude":"64.95333300","name":"Chinakzai"},{"id":"12016","latitude":"31.96805600","longitude":"64.80083300","name":"Chineh"},{"id":"12076","latitude":"32.69722200","longitude":"64.57138900","name":"Chirmistan"},{"id":"12103","latitude":"32.11888900","longitude":"65.05500000","name":"Chogak"},{"id":"12109","latitude":"32.08805600","longitude":"64.85027800","name":"Choghak"},{"id":"12116","latitude":"33.20750000","longitude":"65.14527800","name":"Chohartu"},{"id":"12172","latitude":"32.08805600","longitude":"64.85027800","name":"Chowghak"},{"id":"12225","latitude":"32.08805600","longitude":"64.85027800","name":"Chugak"},{"id":"12233","latitude":"32.08805600","longitude":"64.85027800","name":"Chughak"},{"id":"12248","latitude":"33.20750000","longitude":"65.14527800","name":"Chukhartu"},{"id":"12261","latitude":"32.22916700","longitude":"64.81444400","name":"Chulawyan"},{"id":"12265","latitude":"32.40722200","longitude":"65.06944400","name":"Chul'tan"},{"id":"12266","latitude":"32.40722200","longitude":"65.06944400","name":"Chultan"},{"id":"12339","latitude":"31.96805600","longitude":"64.80083300","name":"Cina"},{"id":"12350","latitude":"32.67833300","longitude":"64.68222200","name":"Cinagay"},{"id":"12351","latitude":"32.23777800","longitude":"64.95444400","name":"Cinagi"},{"id":"12357","latitude":"32.18805600","longitude":"64.95333300","name":"Cinakza"},{"id":"12358","latitude":"32.18805600","longitude":"64.95333300","name":"Cinakza'i"},{"id":"12413","latitude":"32.11888900","longitude":"65.05500000","name":"Coghak"},{"id":"12416","latitude":"33.20750000","longitude":"65.14527800","name":"Cohartu"},{"id":"12425","latitude":"32.22916700","longitude":"64.81444400","name":"Colawyan"},{"id":"12478","latitude":"32.08805600","longitude":"64.85027800","name":"Cughak"},{"id":"12494","latitude":"32.40722200","longitude":"65.06944400","name":"Cultan"},{"id":"12529","latitude":"32.24361100","longitude":"64.67611100","name":"Dabak"},{"id":"12553","latitude":"31.90027800","longitude":"64.81833300","name":"Dab"},{"id":"12659","latitude":"33.00888900","longitude":"64.96722200","name":"Daghran"},{"id":"12660","latitude":"31.81222200","longitude":"64.61527800","name":"Dagian"},{"id":"12688","latitude":"32.31333300","longitude":"64.77972200","name":"Dag'yan"},{"id":"12689","latitude":"32.31333300","longitude":"64.77972200","name":"Dagyan"},{"id":"12700","latitude":"32.35611100","longitude":"64.51638900","name":"Dahana"},{"id":"13035","latitude":"32.35611100","longitude":"64.51638900","name":"Dahaneh"},{"id":"14111","latitude":"31.72222200","longitude":"64.61500000","name":"Daktardzhay"},{"id":"14112","latitude":"31.72222200","longitude":"64.61500000","name":"Daktar Jay"},{"id":"14120","latitude":"31.71666700","longitude":"64.58694400","name":"Dalakan"},{"id":"14154","latitude":"32.01666700","longitude":"63.91666700","name":"Dalkhak"},{"id":"14156","latitude":"32.01666700","longitude":"63.91666700","name":"Dalkhak Spring"},{"id":"14249","latitude":"32.33416700","longitude":"64.75805600","name":"Dand"},{"id":"14305","latitude":"32.19361100","longitude":"63.55666700","name":"Dangarabad"},{"id":"14393","latitude":"32.32083300","longitude":"64.77277800","name":"Darakhel"},{"id":"14395","latitude":"32.32083300","longitude":"64.77277800","name":"Darakheyl"},{"id":"14396","latitude":"32.32083300","longitude":"64.77277800","name":"Darakheyl'"},{"id":"14412","latitude":"32.26583300","longitude":"64.82888900","name":"Darautay"},{"id":"14417","latitude":"32.26583300","longitude":"64.82888900","name":"Darawtay"},{"id":"14449","latitude":"32.12250000","longitude":"64.05694400","name":"Darband"},{"id":"14462","latitude":"31.74000000","longitude":"64.68055600","name":"Darbandsar"},{"id":"14551","latitude":"32.59694400","longitude":"64.36166700","name":"Darra"},{"id":"14569","latitude":"32.59694400","longitude":"64.36166700","name":"Darrah"},{"id":"14618","latitude":"32.78944400","longitude":"65.00555600","name":"Darrahe Sah"},{"id":"14742","latitude":"32.78944400","longitude":"65.00555600","name":"Darrayi-Shakh"},{"id":"14748","latitude":"32.59694400","longitude":"64.36166700","name":"Darreh"},{"id":"14856","latitude":"32.78944400","longitude":"65.00555600","name":"Darreh-ye Shah"},{"id":"14896","latitude":"32.31583300","longitude":"65.00166700","name":"Daruzi"},{"id":"14936","latitude":"30.98305600","longitude":"64.17972200","name":"Darvishan"},{"id":"14977","latitude":"31.13333300","longitude":"64.19250000","name":"Darwesan"},{"id":"14983","latitude":"30.98305600","longitude":"64.17972200","name":"Darweshan"},{"id":"14985","latitude":"30.98305600","longitude":"64.17972200","name":"Darweshan pain"},{"id":"15046","latitude":"33.28277800","longitude":"65.23777800","name":"Dashtak"},{"id":"15061","latitude":"32.97333300","longitude":"65.01750000","name":"Dasht"},{"id":"15076","latitude":"32.56833300","longitude":"64.56527800","name":"Dasht-e Farhad"},{"id":"15160","latitude":"31.31472200","longitude":"64.24861100","name":"Dastagir Khan Kalay"},{"id":"15166","latitude":"33.28277800","longitude":"65.23777800","name":"Dastak"},{"id":"15184","latitude":"32.97333300","longitude":"65.01750000","name":"Dast"},{"id":"15263","latitude":"32.43444400","longitude":"64.48000000","name":"Daudzai"},{"id":"15264","latitude":"32.43444400","longitude":"64.48000000","name":"Da'ud Za'i"},{"id":"15308","latitude":"32.48888900","longitude":"64.43000000","name":"Da'uzay"},{"id":"15309","latitude":"32.48888900","longitude":"64.43000000","name":"Dauzay"},{"id":"15316","latitude":"32.33944400","longitude":"64.94888900","name":"Davarshuvundzhay"},{"id":"15317","latitude":"33.15472200","longitude":"65.08583300","name":"Davazdah Emam"},{"id":"15319","latitude":"33.15472200","longitude":"65.08583300","name":"Davazdeh Emam"},{"id":"15325","latitude":"32.48888900","longitude":"64.43000000","name":"Davodza'i"},{"id":"15326","latitude":"32.43444400","longitude":"64.48000000","name":"Davodzay"},{"id":"15343","latitude":"32.26222200","longitude":"64.67416700","name":"Davuzay"},{"id":"15346","latitude":"32.34388900","longitude":"64.92666700","name":"Dawdan"},{"id":"15408","latitude":"32.26222200","longitude":"64.67416700","name":"Dawuzay"},{"id":"15436","latitude":"32.05805600","longitude":"64.82222200","name":"De`Abdollah Kalay"},{"id":"15439","latitude":"32.05805600","longitude":"64.82222200","name":"De`Abdullah Kalay"},{"id":"15495","latitude":"31.74000000","longitude":"64.68055600","name":"De Darband Sar"},{"id":"15496","latitude":"32.33944400","longitude":"64.94888900","name":"De Davar Suwunjay"},{"id":"15497","latitude":"32.33944400","longitude":"64.94888900","name":"De Dawar Sowunjay"},{"id":"15504","latitude":"32.14027800","longitude":"64.90444400","name":"De Engar Jangal"},{"id":"15520","latitude":"32.30388900","longitude":"64.55555600","name":"De Ghoragh Qarya"},{"id":"15521","latitude":"32.30388900","longitude":"64.55555600","name":"De Ghowragh"},{"id":"15539","latitude":"32.39305600","longitude":"64.81305600","name":"De Gurjat Karez"},{"id":"15540","latitude":"32.39305600","longitude":"64.81305600","name":"De Gurjat Kariz"},{"id":"15546","latitude":"31.82944400","longitude":"64.59250000","name":"Deh Adam Khan"},{"id":"15564","latitude":"32.51444400","longitude":"65.05361100","name":"Dehak"},{"id":"15580","latitude":"32.36333300","longitude":"64.83361100","name":"De Hazarmishi Kariz"},{"id":"15581","latitude":"32.36333300","longitude":"64.83361100","name":"De Hazarmisi Karez"},{"id":"15584","latitude":"32.37277800","longitude":"64.94638900","name":"Deh Baba"},{"id":"15585","latitude":"32.37277800","longitude":"64.94638900","name":"Deh Babeh"},{"id":"15618","latitude":"31.82944400","longitude":"64.59250000","name":"Deh-e Adam Khan"},{"id":"15653","latitude":"32.39722200","longitude":"64.49333300","name":"Dehe Baluc"},{"id":"15654","latitude":"32.39722200","longitude":"64.49333300","name":"Deh-e Baluch"},{"id":"15787","latitude":"32.33361100","longitude":"64.77000000","name":"Deh-e Mastan"},{"id":"15961","latitude":"30.43444400","longitude":"63.31833300","name":"Dehe Su"},{"id":"16002","latitude":"32.36333300","longitude":"64.83361100","name":"De Hezarmishi Kariz"},{"id":"16018","latitude":"32.27416700","longitude":"64.79611100","name":"Deh Ghawcak"},{"id":"16021","latitude":"32.27416700","longitude":"64.79611100","name":"Deh Ghawchak"},{"id":"16164","latitude":"32.32916700","longitude":"64.77500000","name":"Deh Mastan"},{"id":"16166","latitude":"31.81027800","longitude":"64.55888900","name":"Deh Mazang"},{"id":"16200","latitude":"32.32250000","longitude":"64.99305600","name":"Deh Musak"},{"id":"16203","latitude":"32.32250000","longitude":"64.99305600","name":"Deh Mushak"},{"id":"16272","latitude":"30.43444400","longitude":"63.31833300","name":"Deh Shu"},{"id":"16273","latitude":"30.43444400","longitude":"63.31833300","name":"Deh Shuy"},{"id":"16280","latitude":"32.28250000","longitude":"64.79138900","name":"Deh Sufian"},{"id":"16312","latitude":"32.74055600","longitude":"64.99472200","name":"Deh Yak"},{"id":"16352","latitude":"32.34694400","longitude":"64.73527800","name":"Deh Zar"},{"id":"16356","latitude":"32.34694400","longitude":"64.73527800","name":"Deh Zohr-e `Olya"},{"id":"16357","latitude":"32.30611100","longitude":"64.74138900","name":"Deh Zohr-e Sofla"},{"id":"16358","latitude":"32.30611100","longitude":"64.74138900","name":"Deh Zor"},{"id":"16359","latitude":"32.30611100","longitude":"64.74138900","name":"Deh Zore Sufla"},{"id":"16360","latitude":"32.34694400","longitude":"64.73527800","name":"Deh Zowr"},{"id":"16361","latitude":"32.30611100","longitude":"64.74138900","name":"Deh Zowr-e Sofl\u00e1"},{"id":"16362","latitude":"32.30611100","longitude":"64.74138900","name":"Deh Zowr Sani"},{"id":"16363","latitude":"32.34694400","longitude":"64.73527800","name":"Deh Zuhre `Ulya"},{"id":"16370","latitude":"32.10388900","longitude":"65.04222200","name":"De Kanat-e Latif"},{"id":"16372","latitude":"32.15527800","longitude":"64.75833300","name":"De Karez Keli"},{"id":"16374","latitude":"32.15527800","longitude":"64.75833300","name":"De Kariz Keli"},{"id":"16383","latitude":"32.51444400","longitude":"65.05361100","name":"Dekhak"},{"id":"16384","latitude":"32.00972200","longitude":"64.83527800","name":"De Khakesh Kariz"},{"id":"16385","latitude":"32.00972200","longitude":"64.83527800","name":"De Khakes Karez"},{"id":"16417","latitude":"32.27416700","longitude":"64.79611100","name":"Dekhgavchak"},{"id":"16427","latitude":"31.82944400","longitude":"64.59250000","name":"Dekhi-Adamkhay"},{"id":"16446","latitude":"32.39722200","longitude":"64.49333300","name":"Dekhi-Baluch"},{"id":"16502","latitude":"32.33361100","longitude":"64.77000000","name":"Dekhi-Mastan"},{"id":"16583","latitude":"32.32916700","longitude":"64.77500000","name":"Dekhmastan"},{"id":"16584","latitude":"31.81027800","longitude":"64.55888900","name":"Dekhmazang"},{"id":"16596","latitude":"32.32250000","longitude":"64.99305600","name":"Dekhmusak"},{"id":"16617","latitude":"32.28250000","longitude":"64.79138900","name":"Dekhsufian"},{"id":"16625","latitude":"32.74055600","longitude":"64.99472200","name":"Dekh\"yak"},{"id":"16636","latitude":"32.30611100","longitude":"64.74138900","name":"Dekh-Zari-Sufla"},{"id":"16637","latitude":"32.34694400","longitude":"64.73527800","name":"Dekhzukhri-Ulia"},{"id":"16688","latitude":"30.59611100","longitude":"64.00750000","name":"De Lowy Wayalah Kalay"},{"id":"16689","latitude":"30.59611100","longitude":"64.00750000","name":"De Loy Wyala Kalay"},{"id":"16695","latitude":"30.59611100","longitude":"64.00750000","name":"De Luy Wiyalah Kalay"},{"id":"16709","latitude":"31.80333300","longitude":"64.86000000","name":"De M'asum Karez"},{"id":"16710","latitude":"31.80333300","longitude":"64.86000000","name":"De Ma`sum Kariz"},{"id":"16739","latitude":"32.44333300","longitude":"64.74500000","name":"De Musa Qal`eh"},{"id":"16761","latitude":"32.32250000","longitude":"64.99305600","name":"Den Mushar"},{"id":"16762","latitude":"32.74055600","longitude":"64.99472200","name":"Den Yak"},{"id":"16851","latitude":"32.04472200","longitude":"64.83777800","name":"De Sadi Khan Jomat"},{"id":"16869","latitude":"32.04472200","longitude":"64.83777800","name":"De Shadi Khan Jomat"},{"id":"16881","latitude":"30.43444400","longitude":"63.31833300","name":"Deshu"},{"id":"16898","latitude":"31.71861100","longitude":"64.63500000","name":"De Table Safian"},{"id":"16899","latitude":"31.69722200","longitude":"64.64333300","name":"De Table Tak"},{"id":"16906","latitude":"32.11166700","longitude":"64.87916700","name":"De Toro Obo Kalay"},{"id":"16907","latitude":"32.11166700","longitude":"64.87916700","name":"De Towrow Owbow Kala"},{"id":"16908","latitude":"32.11166700","longitude":"64.87916700","name":"De Towrow Owbow Kalay"},{"id":"16917","latitude":"33.07166700","longitude":"64.98555600","name":"Devalak"},{"id":"16924","latitude":"31.07888900","longitude":"64.20500000","name":"Devalan Kalay"},{"id":"16947","latitude":"31.62166700","longitude":"64.49305600","name":"Devgan"},{"id":"16966","latitude":"33.07166700","longitude":"64.98555600","name":"Dewalak"},{"id":"17013","latitude":"31.62166700","longitude":"64.49305600","name":"Dewghan"},{"id":"17036","latitude":"32.07138900","longitude":"64.91444400","name":"De Yahya Karez"},{"id":"17037","latitude":"32.07138900","longitude":"64.91444400","name":"De Yahya Kariz"},{"id":"17049","latitude":"30.56916700","longitude":"63.53222200","name":"De Zherand Kalay"},{"id":"17093","latitude":"31.82944400","longitude":"64.59250000","name":"Dih Adam Khan"},{"id":"17173","latitude":"31.24222200","longitude":"64.21972200","name":"Din Mohammad Kalay"},{"id":"17176","latitude":"31.13527800","longitude":"64.17472200","name":"Dinmohammadkhan Kalay"},{"id":"17177","latitude":"31.13527800","longitude":"64.17472200","name":"Din Mohammad Khan Kalay"},{"id":"17190","latitude":"33.11222200","longitude":"65.09305600","name":"Dipsang"},{"id":"17209","latitude":"30.43444400","longitude":"63.31833300","name":"Dishu"},{"id":"17212","latitude":"30.43444400","longitude":"63.31833300","name":"Disu"},{"id":"17222","latitude":"33.07166700","longitude":"64.98555600","name":"Divalak"},{"id":"17232","latitude":"31.07888900","longitude":"64.20500000","name":"Divalan Kalay"},{"id":"17255","latitude":"32.35083300","longitude":"64.50611100","name":"Divanak"},{"id":"17273","latitude":"33.07166700","longitude":"64.98555600","name":"Divarak"},{"id":"17309","latitude":"31.07888900","longitude":"64.20500000","name":"Diwalan Kalay"},{"id":"17325","latitude":"32.35083300","longitude":"64.50611100","name":"Diwanak"},{"id":"17336","latitude":"32.51444400","longitude":"65.05361100","name":"Di Yak"},{"id":"17359","latitude":"32.09805600","longitude":"64.82527800","name":"Do Ab"},{"id":"17459","latitude":"32.26416700","longitude":"64.78333300","name":"Dogaka"},{"id":"17475","latitude":"32.26416700","longitude":"64.78333300","name":"Doghaka"},{"id":"17616","latitude":"30.92611100","longitude":"64.15277800","name":"Dor Kheyl"},{"id":"17631","latitude":"32.80222200","longitude":"64.55111100","name":"Do Rudi"},{"id":"17647","latitude":"32.19166700","longitude":"64.22694400","name":"Do Sakh"},{"id":"17655","latitude":"32.49500000","longitude":"64.32916700","name":"Do Sang"},{"id":"17656","latitude":"33.04944400","longitude":"65.00250000","name":"Dosang"},{"id":"17670","latitude":"32.19166700","longitude":"64.22694400","name":"Do Shakh"},{"id":"17704","latitude":"31.03527800","longitude":"64.18222200","name":"Dostmohammadkhan Kalay"},{"id":"17711","latitude":"32.85750000","longitude":"64.56166700","name":"Dota'i"},{"id":"17843","latitude":"32.09805600","longitude":"64.82527800","name":"Duab"},{"id":"17871","latitude":"32.10083300","longitude":"64.84527800","name":"Dubay"},{"id":"17872","latitude":"32.10083300","longitude":"64.84527800","name":"Dubaygirday"},{"id":"17893","latitude":"32.54777800","longitude":"65.10361100","name":"Dudvan"},{"id":"17901","latitude":"32.26416700","longitude":"64.78333300","name":"Dughakah"},{"id":"17908","latitude":"32.48500000","longitude":"64.97000000","name":"Dughol"},{"id":"18019","latitude":"30.92611100","longitude":"64.15277800","name":"Durkhel"},{"id":"18039","latitude":"32.80222200","longitude":"64.55111100","name":"Du Rodi"},{"id":"18048","latitude":"32.80222200","longitude":"64.55111100","name":"Durudi"},{"id":"18059","latitude":"30.66666700","longitude":"64.05000000","name":"Durzay"},{"id":"18061","latitude":"32.49500000","longitude":"64.32916700","name":"Dusang"},{"id":"18062","latitude":"32.49500000","longitude":"64.32916700","name":"Du Sang"},{"id":"18063","latitude":"33.04944400","longitude":"65.00250000","name":"Dusang"},{"id":"18071","latitude":"32.19166700","longitude":"64.22694400","name":"Dushakh"},{"id":"18091","latitude":"31.03527800","longitude":"64.18222200","name":"Dust Mohammad Khan Kalay"},{"id":"18094","latitude":"32.85750000","longitude":"64.56166700","name":"Dutai"},{"id":"18099","latitude":"32.25666700","longitude":"64.22916700","name":"Duzake Pa'in"},{"id":"18101","latitude":"32.25666700","longitude":"64.22916700","name":"Duzaki-Pain"},{"id":"18106","latitude":"32.26000000","longitude":"64.20666700","name":"Duzdak-e Bala"},{"id":"18107","latitude":"32.25666700","longitude":"64.22916700","name":"Duzdak-e Pa'in"},{"id":"18108","latitude":"32.26000000","longitude":"64.20666700","name":"Duzdaki-Bala"},{"id":"18121","latitude":"32.26000000","longitude":"63.88750000","name":"Duzno"},{"id":"18122","latitude":"32.26000000","longitude":"63.88750000","name":"Duznow"},{"id":"18126","latitude":"33.15472200","longitude":"65.08583300","name":"Dvazdaimam"},{"id":"18132","latitude":"33.15472200","longitude":"65.08583300","name":"Dwazda-emam"},{"id":"18200","latitude":"32.96083300","longitude":"64.86555600","name":"Dzhagatu"},{"id":"18224","latitude":"32.32166700","longitude":"64.56916700","name":"Dzhakhazi"},{"id":"18230","latitude":"32.35916700","longitude":"64.41055600","name":"Dzhalaluddin"},{"id":"18270","latitude":"31.67416700","longitude":"64.37111100","name":"Dzhamal'kalay"},{"id":"18271","latitude":"32.20083300","longitude":"64.37805600","name":"Dzhamal'karez"},{"id":"18276","latitude":"31.72527800","longitude":"64.44916700","name":"Dzhamal'kor"},{"id":"18300","latitude":"32.04027800","longitude":"65.04888900","name":"Dzhanabad"},{"id":"18379","latitude":"31.74500000","longitude":"64.70027800","name":"Dzhanmukhammedshakh"},{"id":"18405","latitude":"31.79888900","longitude":"64.59888900","name":"Dzhanubi-Nurzai"},{"id":"18411","latitude":"31.98472200","longitude":"64.94277800","name":"Dzhanubi-Tutak"},{"id":"18422","latitude":"32.40722200","longitude":"65.10638900","name":"Dzharchi"},{"id":"18425","latitude":"33.21583300","longitude":"65.27388900","name":"Dzhar"},{"id":"18433","latitude":"32.74277800","longitude":"65.02250000","name":"Dzhari-Gar"},{"id":"18443","latitude":"32.58722200","longitude":"64.95805600","name":"Dzhari-Mukhammed"},{"id":"18448","latitude":"32.63138900","longitude":"64.98111100","name":"Dzhari-Shir'yak"},{"id":"18458","latitude":"31.66000000","longitude":"64.65111100","name":"Dzharnayl'kala"},{"id":"18464","latitude":"32.38250000","longitude":"65.13444400","name":"Dzhar'ya"},{"id":"18585","latitude":"31.65472200","longitude":"64.71416700","name":"Dzhoman"},{"id":"18596","latitude":"32.10888900","longitude":"64.89222200","name":"Dzhosh'yalay"},{"id":"18602","latitude":"32.30527800","longitude":"64.78027800","name":"Dzhoybavari"},{"id":"18603","latitude":"32.46444400","longitude":"64.89666700","name":"Dzhoydaraz"},{"id":"18620","latitude":"31.63722200","longitude":"64.67833300","name":"Dzhoyi-Shakhi"},{"id":"18629","latitude":"32.12750000","longitude":"64.90138900","name":"Dzhuglandak"},{"id":"18635","latitude":"32.40694400","longitude":"65.14388900","name":"Dzhula"},{"id":"18669","latitude":"32.20861100","longitude":"64.71888900","name":"Dzhuzgoray"},{"id":"18810","latitude":"32.86666700","longitude":"64.69916700","name":"Emam Rabat"},{"id":"18811","latitude":"32.86666700","longitude":"64.69916700","name":"Emam Robat"},{"id":"18872","latitude":"32.13250000","longitude":"64.66694400","name":"Enjir Sali"},{"id":"19000","latitude":"31.69250000","longitude":"64.39083300","name":"Esizukalay"},{"id":"19001","latitude":"31.69250000","longitude":"64.39083300","name":"`Esizu Kalay"},{"id":"19050","latitude":"32.79888900","longitude":"65.01527800","name":"Eslam Ghoara"},{"id":"19051","latitude":"32.79888900","longitude":"65.01527800","name":"Eslam Ghoarah"},{"id":"19198","latitude":"32.50805600","longitude":"64.44888900","name":"`Eydizay"},{"id":"19268","latitude":"31.52111100","longitude":"64.34972200","name":"Fakian"},{"id":"19281","latitude":"31.73611100","longitude":"64.43916700","name":"Fakirburdzhi"},{"id":"19290","latitude":"32.28416700","longitude":"64.66166700","name":"Fakirnika"},{"id":"19291","latitude":"31.76638900","longitude":"64.52722200","name":"Fakirpayan-Kalay"},{"id":"19302","latitude":"32.32750000","longitude":"63.99833300","name":"Faolad"},{"id":"19308","latitude":"30.90166700","longitude":"64.13777800","name":"Faqiran"},{"id":"19328","latitude":"31.13527800","longitude":"64.17472200","name":"Faqir Mohammad Khan Kalay"},{"id":"19329","latitude":"32.28416700","longitude":"64.66166700","name":"Faqir Nika"},{"id":"19330","latitude":"32.28416700","longitude":"64.66166700","name":"Faqir Nikeh"},{"id":"19331","latitude":"31.76638900","longitude":"64.52722200","name":"Faqir Payan Kalay"},{"id":"19371","latitude":"32.56833300","longitude":"64.56527800","name":"Farhad"},{"id":"19412","latitude":"32.11000000","longitude":"64.62444400","name":"Fateh Jang"},{"id":"19435","latitude":"32.11000000","longitude":"64.62444400","name":"Fatekhdzhang"},{"id":"19502","latitude":"31.32666700","longitude":"64.23166700","name":"Faydzojan Kor"},{"id":"19514","latitude":"31.32666700","longitude":"64.23166700","name":"Fayzowjan Kur"},{"id":"19568","latitude":"32.13777800","longitude":"64.92194400","name":"Ferozay"},{"id":"19584","latitude":"31.31388900","longitude":"64.27694400","name":"Feydzmohammad Kl"},{"id":"19598","latitude":"31.31388900","longitude":"64.27694400","name":"Feyzmohammad Kalay"},{"id":"19624","latitude":"32.13777800","longitude":"64.92194400","name":"Firuzay"},{"id":"19626","latitude":"32.48777800","longitude":"64.40722200","name":"Firuzeh"},{"id":"19641","latitude":"32.32750000","longitude":"63.99833300","name":"Folad"},{"id":"19670","latitude":"32.32750000","longitude":"63.99833300","name":"Fulad"},{"id":"19711","latitude":"32.41527800","longitude":"65.02416700","name":"Gachzar"},{"id":"19765","latitude":"32.73000000","longitude":"64.64250000","name":"Gadayzay"},{"id":"19793","latitude":"31.79777800","longitude":"64.57666700","name":"Gadzhari-Vali"},{"id":"19938","latitude":"32.82444400","longitude":"64.54583300","name":"Gambad"},{"id":"19948","latitude":"32.96277800","longitude":"65.01472200","name":"Gami-Chaudi"},{"id":"19950","latitude":"32.72750000","longitude":"64.72861100","name":"Gamizard"},{"id":"19951","latitude":"32.72750000","longitude":"64.72861100","name":"Gami Zard"},{"id":"19981","latitude":"32.20388900","longitude":"64.33333300","name":"Gandacah"},{"id":"19990","latitude":"32.20388900","longitude":"64.33333300","name":"Gandachah"},{"id":"19992","latitude":"32.20388900","longitude":"64.33333300","name":"Gandachakh"},{"id":"20031","latitude":"32.11527800","longitude":"64.16194400","name":"Gandamushk"},{"id":"20032","latitude":"32.11527800","longitude":"64.16194400","name":"Ganda Musk"},{"id":"20062","latitude":"32.20388900","longitude":"64.33333300","name":"Gandeh Chah"},{"id":"20075","latitude":"32.11527800","longitude":"64.16194400","name":"Gandeh Moshk"},{"id":"20076","latitude":"32.11527800","longitude":"64.16194400","name":"Gandeh Mushk"},{"id":"20088","latitude":"32.38611100","longitude":"65.04861100","name":"Gandom Riz-e 'Olya"},{"id":"20089","latitude":"32.36972200","longitude":"65.06083300","name":"Gandom Riz-e Sofla"},{"id":"20093","latitude":"32.36972200","longitude":"65.06083300","name":"Gandumreze Sufla"},{"id":"20094","latitude":"32.38611100","longitude":"65.04861100","name":"Gandumreze 'Ulya"},{"id":"20095","latitude":"32.36972200","longitude":"65.06083300","name":"Gandumrezi-Sufla"},{"id":"20096","latitude":"32.38611100","longitude":"65.04861100","name":"Gandumrezi-Ulia"},{"id":"20159","latitude":"31.81361100","longitude":"64.58583300","name":"Garaj-e Mohammad Yosufkhan"},{"id":"20160","latitude":"31.81361100","longitude":"64.58583300","name":"Garaj-e Mohammad Yusofkhan"},{"id":"20210","latitude":"31.71194400","longitude":"64.38527800","name":"Garbi-Mukhammedumar-Kalay"},{"id":"20355","latitude":"32.18000000","longitude":"64.94833300","name":"Garezi"},{"id":"20356","latitude":"32.77722200","longitude":"64.68000000","name":"Gargaday"},{"id":"20362","latitude":"32.37194400","longitude":"64.93083300","name":"Gargak"},{"id":"20366","latitude":"32.95611100","longitude":"64.89944400","name":"Gargarab"},{"id":"20375","latitude":"32.37194400","longitude":"64.93083300","name":"Gargarh"},{"id":"20407","latitude":"32.37194400","longitude":"64.93083300","name":"Garkak"},{"id":"20446","latitude":"32.08722200","longitude":"64.66583300","name":"Garma-Dzhanubi"},{"id":"20448","latitude":"32.08722200","longitude":"64.66583300","name":"Garma Janubi"},{"id":"20449","latitude":"32.08722200","longitude":"64.66583300","name":"Garma Jonubi"},{"id":"20457","latitude":"32.10333300","longitude":"64.66638900","name":"Garma Samali"},{"id":"20458","latitude":"32.10333300","longitude":"64.66638900","name":"Garma Shamali"},{"id":"20459","latitude":"32.10333300","longitude":"64.66638900","name":"Garma-Shamali"},{"id":"20463","latitude":"32.09472200","longitude":"64.66333300","name":"Garma-Vasati"},{"id":"20471","latitude":"32.09472200","longitude":"64.66333300","name":"Garma Wasati"},{"id":"20482","latitude":"32.10333300","longitude":"64.66638900","name":"Garmeh Shomali"},{"id":"20483","latitude":"32.09472200","longitude":"64.66333300","name":"Garmeh Vasati"},{"id":"20491","latitude":"31.11666700","longitude":"64.20000000","name":"Garmsir"},{"id":"20502","latitude":"32.35361100","longitude":"64.75944400","name":"Gartalakili"},{"id":"20513","latitude":"33.19111100","longitude":"65.14055600","name":"Gar'yan"},{"id":"20579","latitude":"32.42583300","longitude":"65.06361100","name":"Gavand"},{"id":"20590","latitude":"31.72638900","longitude":"64.70027800","name":"Gavband"},{"id":"20605","latitude":"31.61277800","longitude":"64.51694400","name":"Gavgaray"},{"id":"20618","latitude":"32.08138900","longitude":"65.07750000","name":"Gavkhana"},{"id":"20620","latitude":"32.08138900","longitude":"65.07750000","name":"Gavkhaneh"},{"id":"20648","latitude":"31.61277800","longitude":"64.51694400","name":"Gavragay"},{"id":"20673","latitude":"31.72638900","longitude":"64.70027800","name":"Gawband"},{"id":"20699","latitude":"32.08138900","longitude":"65.07750000","name":"Gawkhana"},{"id":"20723","latitude":"31.61277800","longitude":"64.51694400","name":"Gawragay"},{"id":"20747","latitude":"32.29277800","longitude":"64.93805600","name":"Gaysaraka"},{"id":"20760","latitude":"32.57083300","longitude":"64.91722200","name":"Gazak"},{"id":"20802","latitude":"33.25083300","longitude":"65.15111100","name":"Gazi"},{"id":"20852","latitude":"32.88138900","longitude":"65.03250000","name":"Gelgay"},{"id":"20898","latitude":"32.10083300","longitude":"64.84527800","name":"Gerday"},{"id":"20952","latitude":"31.81888900","longitude":"64.56472200","name":"Gereshk"},{"id":"20953","latitude":"31.81888900","longitude":"64.56472200","name":"Geresk"},{"id":"20992","latitude":"32.41527800","longitude":"65.02416700","name":"Ghachi Zar"},{"id":"20993","latitude":"32.41527800","longitude":"65.02416700","name":"Ghach Zar"},{"id":"20994","latitude":"32.41527800","longitude":"65.02416700","name":"Ghaczar"},{"id":"21089","latitude":"32.73333300","longitude":"64.53333300","name":"Gham Bad"},{"id":"21092","latitude":"32.96277800","longitude":"65.01472200","name":"Ghame Cawdi"},{"id":"21093","latitude":"32.96277800","longitude":"65.01472200","name":"Ghameh Chawdi"},{"id":"21181","latitude":"31.71194400","longitude":"64.38527800","name":"Gharbi Mohammad `Omar Kalay"},{"id":"21205","latitude":"32.77722200","longitude":"64.68000000","name":"Gharghaday"},{"id":"21211","latitude":"32.95611100","longitude":"64.89944400","name":"Ghargharab"},{"id":"21235","latitude":"33.19111100","longitude":"65.14055600","name":"Gharian"},{"id":"21292","latitude":"32.35361100","longitude":"64.75944400","name":"Ghartalah Keli"},{"id":"21293","latitude":"32.35361100","longitude":"64.75944400","name":"Ghartala Keli"},{"id":"21299","latitude":"33.19111100","longitude":"65.14055600","name":"Gharyan"},{"id":"21330","latitude":"32.42583300","longitude":"65.06361100","name":"Ghavand"},{"id":"21334","latitude":"32.42583300","longitude":"65.06361100","name":"Ghawand"},{"id":"21417","latitude":"32.29277800","longitude":"64.93805600","name":"Ghaysaraka"},{"id":"21490","latitude":"32.29277800","longitude":"64.93805600","name":"Gheysarakeh"},{"id":"21538","latitude":"32.38027800","longitude":"64.94388900","name":"Ghola Husein"},{"id":"21545","latitude":"31.22250000","longitude":"64.19194400","name":"Gholam `Alikhan Kalay"},{"id":"21558","latitude":"31.75583300","longitude":"64.46055600","name":"Gholam Dastagir Kalay"},{"id":"21570","latitude":"31.06416700","longitude":"64.21583300","name":"Gholam Haydar Kor"},{"id":"21575","latitude":"31.06416700","longitude":"64.21583300","name":"Gholam Heydar Kur"},{"id":"21589","latitude":"31.66972200","longitude":"64.35416700","name":"Gholam Mohammad Kalay"},{"id":"21591","latitude":"31.07638900","longitude":"64.17666700","name":"Gholam Mohammad Kor"},{"id":"21592","latitude":"31.07638900","longitude":"64.17666700","name":"Gholam Mohammad Kur"},{"id":"21593","latitude":"30.73416700","longitude":"64.11916700","name":"Gholam Nabi Kalay"},{"id":"21604","latitude":"31.22833300","longitude":"64.19722200","name":"Gholamrasul Kor"},{"id":"21605","latitude":"31.22833300","longitude":"64.19722200","name":"Gholam Rasul Kur"},{"id":"21613","latitude":"32.33666700","longitude":"65.07916700","name":"Gholba"},{"id":"21643","latitude":"32.30388900","longitude":"64.55555600","name":"Ghorak"},{"id":"21689","latitude":"32.56361100","longitude":"64.43250000","name":"Ghoryan"},{"id":"21715","latitude":"32.60277800","longitude":"65.07944400","name":"Ghowjakah"},{"id":"21742","latitude":"32.30388900","longitude":"64.55555600","name":"Ghowrak"},{"id":"21790","latitude":"33.15500000","longitude":"65.01000000","name":"Ghrah-Madow"},{"id":"21797","latitude":"33.15500000","longitude":"65.01000000","name":"Ghreh-mado"},{"id":"21798","latitude":"33.15500000","longitude":"65.01000000","name":"Ghreh Mado"},{"id":"21814","latitude":"32.60277800","longitude":"65.07944400","name":"Ghujaka"},{"id":"21848","latitude":"32.67166700","longitude":"64.69527800","name":"Ghulba"},{"id":"21849","latitude":"32.33666700","longitude":"65.07916700","name":"Ghulbah"},{"id":"21861","latitude":"32.61861100","longitude":"65.17888900","name":"Ghulmes"},{"id":"21862","latitude":"32.61861100","longitude":"65.17888900","name":"Ghulmish"},{"id":"21896","latitude":"31.77388900","longitude":"64.51166700","name":"Ghundey"},{"id":"21913","latitude":"32.32722200","longitude":"64.75611100","name":"Ghund Kalay"},{"id":"21939","latitude":"32.12972200","longitude":"64.89611100","name":"Ghurghori Baba"},{"id":"21968","latitude":"32.56361100","longitude":"64.43250000","name":"Ghuryan"},{"id":"21999","latitude":"33.06166700","longitude":"65.13027800","name":"Ghwayah"},{"id":"22000","latitude":"33.06166700","longitude":"65.13027800","name":"Ghwayeh"},{"id":"22016","latitude":"32.41527800","longitude":"65.02416700","name":"Gichzar"},{"id":"22045","latitude":"32.88138900","longitude":"65.03250000","name":"Gil'gay"},{"id":"22050","latitude":"32.10888900","longitude":"64.61833300","name":"Gimak"},{"id":"22051","latitude":"31.82555600","longitude":"64.63833300","name":"Giman"},{"id":"22110","latitude":"31.81888900","longitude":"64.56472200","name":"Girishk"},{"id":"22257","latitude":"32.11638900","longitude":"65.03944400","name":"Golabad"},{"id":"22295","latitude":"32.71333300","longitude":"64.63361100","name":"Gol Banah"},{"id":"22357","latitude":"32.66888900","longitude":"64.94694400","name":"Golkhaneh"},{"id":"22440","latitude":"32.78027800","longitude":"65.01222200","name":"Gombad"},{"id":"22452","latitude":"31.80416700","longitude":"64.55166700","name":"Gonbad Charkhandaz"},{"id":"22461","latitude":"31.80194400","longitude":"64.53861100","name":"Gonbad"},{"id":"22470","latitude":"31.80194400","longitude":"64.53861100","name":"Gonbad Sartakht"},{"id":"22483","latitude":"32.36972200","longitude":"65.06083300","name":"Gondumrez Sufla"},{"id":"22484","latitude":"32.38611100","longitude":"65.04861100","name":"Gondumrez Ulya"},{"id":"22489","latitude":"33.22527800","longitude":"65.19777800","name":"Gonkuch"},{"id":"22496","latitude":"32.30388900","longitude":"64.55555600","name":"Goragkar'ya"},{"id":"22512","latitude":"32.26638900","longitude":"63.92055600","name":"Gorazan"},{"id":"22598","latitude":"31.60000000","longitude":"64.25388900","name":"Gorupe Sas Kalay"},{"id":"22599","latitude":"31.60000000","longitude":"64.25388900","name":"Gorupe Shash Kalay"},{"id":"22600","latitude":"31.60000000","longitude":"64.25388900","name":"Gorup-e Shesh Kalay"},{"id":"22608","latitude":"32.56361100","longitude":"64.43250000","name":"Gor'yan"},{"id":"22731","latitude":"31.64416700","longitude":"64.41333300","name":"Gozar-e Sorkh"},{"id":"22732","latitude":"31.64416700","longitude":"64.41333300","name":"Gozare Surkh"},{"id":"22742","latitude":"33.15500000","longitude":"65.01000000","name":"Gramadu"},{"id":"22818","latitude":"32.60277800","longitude":"65.07944400","name":"Gudzh'yaka"},{"id":"22826","latitude":"32.11638900","longitude":"65.03944400","name":"Gulabad"},{"id":"22849","latitude":"32.67166700","longitude":"64.69527800","name":"Gul'ba"},{"id":"22853","latitude":"32.71333300","longitude":"64.63361100","name":"Gul'bana"},{"id":"22854","latitude":"32.71333300","longitude":"64.63361100","name":"Gul Bana"},{"id":"22953","latitude":"32.08138900","longitude":"65.07750000","name":"Gul'khana"},{"id":"22954","latitude":"32.08138900","longitude":"65.07750000","name":"Gulkhana"},{"id":"22955","latitude":"32.66888900","longitude":"64.94694400","name":"Gul'khana"},{"id":"22956","latitude":"32.66888900","longitude":"64.94694400","name":"Gulkhana"},{"id":"22983","latitude":"32.61861100","longitude":"65.17888900","name":"Gul'mesh"},{"id":"23058","latitude":"31.75583300","longitude":"64.46055600","name":"Gulyamdastagir-Kalay"},{"id":"23073","latitude":"31.66972200","longitude":"64.35416700","name":"Gulyammukhammed-Kalay"},{"id":"23105","latitude":"31.80416700","longitude":"64.55166700","name":"Gumbad Carkhandaz"},{"id":"23114","latitude":"31.80194400","longitude":"64.53861100","name":"Gumbad"},{"id":"23129","latitude":"31.80194400","longitude":"64.53861100","name":"Gumbad Sartakht"},{"id":"23132","latitude":"32.27361100","longitude":"64.83527800","name":"Gumbate"},{"id":"23133","latitude":"32.27361100","longitude":"64.83527800","name":"Gumbatey"},{"id":"23179","latitude":"31.77388900","longitude":"64.51166700","name":"Gunday"},{"id":"23200","latitude":"32.32722200","longitude":"64.75611100","name":"Gundkalay"},{"id":"23211","latitude":"33.22527800","longitude":"65.19777800","name":"Gunkuc"},{"id":"23212","latitude":"33.22527800","longitude":"65.19777800","name":"Gunkuch"},{"id":"23238","latitude":"32.50694400","longitude":"64.17888900","name":"Gurdah-e `Olya"},{"id":"23239","latitude":"32.50694400","longitude":"64.17888900","name":"Gurdahe `Ulya"},{"id":"23242","latitude":"32.50694400","longitude":"64.17888900","name":"Gurdakhi-Ulia"},{"id":"23247","latitude":"32.24916700","longitude":"64.71194400","name":"Gurdzhak"},{"id":"23248","latitude":"32.39305600","longitude":"64.81305600","name":"Gurdzhatkarez"},{"id":"23288","latitude":"32.12972200","longitude":"64.89611100","name":"Gurguribaba"},{"id":"23296","latitude":"32.24916700","longitude":"64.71194400","name":"Gurjat"},{"id":"23318","latitude":"31.60000000","longitude":"64.25388900","name":"Gurupi-Shashkalay"},{"id":"23370","latitude":"31.64416700","longitude":"64.41333300","name":"Guzari-Surkh"},{"id":"23383","latitude":"33.06166700","longitude":"65.13027800","name":"Gvaya"},{"id":"23418","latitude":"31.84583300","longitude":"64.62694400","name":"Habibollah Kalay"},{"id":"23423","latitude":"31.84583300","longitude":"64.62694400","name":"Habibullah Kalay"},{"id":"23463","latitude":"32.72944400","longitude":"64.70111100","name":"Haibak"},{"id":"23465","latitude":"31.89805600","longitude":"64.74333300","name":"Haidarabad"},{"id":"23468","latitude":"32.36472200","longitude":"65.08611100","name":"Haidarbaji"},{"id":"23471","latitude":"32.36472200","longitude":"65.08611100","name":"Haidrarbaji"},{"id":"23496","latitude":"31.68666700","longitude":"64.61555600","name":"Haji `Abdurrahim Tak"},{"id":"23512","latitude":"31.12527800","longitude":"64.18916700","name":"Haji Amin Kalay"},{"id":"23528","latitude":"31.86222200","longitude":"64.69861100","name":"Haji Bahadur"},{"id":"23530","latitude":"31.48000000","longitude":"64.14138900","name":"Haji Bakawuddin"},{"id":"23537","latitude":"32.31611100","longitude":"64.92055600","name":"Haji Bora"},{"id":"23538","latitude":"32.31611100","longitude":"64.92055600","name":"Haji Bowreh"},{"id":"23550","latitude":"31.77861100","longitude":"64.51361100","name":"Haji Faydzmohammadkhan Kalay"},{"id":"23551","latitude":"31.77861100","longitude":"64.51361100","name":"Haji Faydzmohammadkhan Kolay"},{"id":"23571","latitude":"31.74750000","longitude":"64.46027800","name":"Hajijamal Kalay"},{"id":"23583","latitude":"32.66416700","longitude":"64.70333300","name":"Haji Khan Mohammad"},{"id":"23588","latitude":"32.35611100","longitude":"65.02777800","name":"Hajikhel"},{"id":"23594","latitude":"32.35611100","longitude":"65.02777800","name":"Haji Kheyl"},{"id":"23611","latitude":"31.88666700","longitude":"64.81361100","name":"Haji Mir Afdzal Kalay"},{"id":"23613","latitude":"31.68555600","longitude":"64.49861100","name":"Hajimirkhan Kalay"},{"id":"23615","latitude":"31.73777800","longitude":"64.46666700","name":"Hajimirzakhan Kalay"},{"id":"23622","latitude":"31.05111100","longitude":"64.18500000","name":"Haji Mohammadjan Kalay"},{"id":"23654","latitude":"31.08472200","longitude":"64.16583300","name":"Haji Ne`matullah Kalay"},{"id":"23670","latitude":"31.25527800","longitude":"64.23277800","name":"Hajirangin Kl"},{"id":"23681","latitude":"30.41138900","longitude":"63.31027800","name":"Haji Sarvar Khan Kalay"},{"id":"23682","latitude":"30.41138900","longitude":"63.31027800","name":"Haji Sarwarkhan Kalay"},{"id":"23687","latitude":"31.89694400","longitude":"64.72305600","name":"Haji Sayed Mohammad Kalay"},{"id":"23699","latitude":"31.23694400","longitude":"64.20861100","name":"Hajitori Kalay"},{"id":"23702","latitude":"31.70972200","longitude":"64.56416700","name":"Hajitorkhan Kalay"},{"id":"23730","latitude":"31.68666700","longitude":"64.61555600","name":"Hajji `Abdorrahim Tak"},{"id":"23747","latitude":"31.12527800","longitude":"64.18916700","name":"Hajji Amin Kalay"},{"id":"23760","latitude":"31.86222200","longitude":"64.69861100","name":"Hajji Bahador"},{"id":"23762","latitude":"31.48000000","longitude":"64.14138900","name":"Hajji Baha od Din"},{"id":"23769","latitude":"32.31611100","longitude":"64.92055600","name":"Hajji Bowreh"},{"id":"23784","latitude":"31.77861100","longitude":"64.51361100","name":"Hajji Feyz Mohammad Khan Kalay"},{"id":"23801","latitude":"31.74750000","longitude":"64.46027800","name":"Hajji Jamal Kalay"},{"id":"23813","latitude":"32.66416700","longitude":"64.70333300","name":"Hajji Khan Mohammad"},{"id":"23819","latitude":"32.35611100","longitude":"65.02777800","name":"Hajji Kheyl"},{"id":"23840","latitude":"31.88666700","longitude":"64.81361100","name":"Hajji Mir Afzal Kalay"},{"id":"23842","latitude":"31.68555600","longitude":"64.49861100","name":"Hajjimirkhan Kalay"},{"id":"23844","latitude":"31.73777800","longitude":"64.46666700","name":"Hajji Mirza Khan Kalay"},{"id":"23852","latitude":"31.05111100","longitude":"64.18500000","name":"Hajji Mohammadjan Kalay"},{"id":"23876","latitude":"31.08472200","longitude":"64.16583300","name":"Hajji Ne`matollah Kalay"},{"id":"23890","latitude":"31.25527800","longitude":"64.23277800","name":"Hajji Rangin Kalay"},{"id":"23901","latitude":"30.41138900","longitude":"63.31027800","name":"Hajji Sarvar Khan Kalay"},{"id":"23902","latitude":"30.41138900","longitude":"63.31027800","name":"Hajji Sarvar Khan Kelay"},{"id":"23907","latitude":"31.89694400","longitude":"64.72305600","name":"Hajji Seyyed Mohammad Kalay"},{"id":"23919","latitude":"31.23694400","longitude":"64.20861100","name":"Hajji Towri Kalay"},{"id":"23922","latitude":"31.70972200","longitude":"64.56416700","name":"Hajjiturkhan Kalay"},{"id":"23949","latitude":"32.07972200","longitude":"64.58666700","name":"Halaku"},{"id":"24052","latitude":"32.03777800","longitude":"65.06722200","name":"Hasanabad"},{"id":"24072","latitude":"32.09083300","longitude":"63.69500000","name":"Hasan Gilan"},{"id":"24094","latitude":"30.91472200","longitude":"64.15194400","name":"Hasan Khel"},{"id":"24104","latitude":"30.91472200","longitude":"64.15194400","name":"Hasan Kheyl"},{"id":"24133","latitude":"31.19500000","longitude":"64.17527800","name":"Hasemkhan Kalay"},{"id":"24139","latitude":"31.19500000","longitude":"64.17527800","name":"Hashemkhan Kalay"},{"id":"24155","latitude":"31.20083300","longitude":"64.18222200","name":"Hatam Kalay"},{"id":"24230","latitude":"31.89805600","longitude":"64.74333300","name":"Haydarabad"},{"id":"24234","latitude":"32.36472200","longitude":"65.08611100","name":"Haydar Bughci"},{"id":"24254","latitude":"31.80611100","longitude":"64.55750000","name":"Hazaragan"},{"id":"24289","latitude":"33.08250000","longitude":"65.01055600","name":"Hazarboz"},{"id":"24291","latitude":"33.08250000","longitude":"65.01055600","name":"Hazarbuz"},{"id":"24393","latitude":"31.72527800","longitude":"64.57833300","name":"Hendu Kala"},{"id":"24399","latitude":"30.89722200","longitude":"64.13000000","name":"Herati"},{"id":"24402","latitude":"31.82333300","longitude":"64.56777800","name":"Hesah-e Tank"},{"id":"24403","latitude":"31.82333300","longitude":"64.56777800","name":"Hesa-i-Tank"},{"id":"24431","latitude":"31.89805600","longitude":"64.74333300","name":"Heydarabad"},{"id":"24435","latitude":"32.36472200","longitude":"65.08611100","name":"Heydar Bughchi"},{"id":"24459","latitude":"33.08250000","longitude":"65.01055600","name":"Hezarboz"},{"id":"24463","latitude":"31.80611100","longitude":"64.55750000","name":"Hezaregan"},{"id":"24509","latitude":"31.72527800","longitude":"64.57833300","name":"Hindu Kala"},{"id":"24522","latitude":"31.64250000","longitude":"64.24138900","name":"Hokumat-e Nad-e `Ali"},{"id":"24530","latitude":"33.07527800","longitude":"65.08638900","name":"Hokumati Baghlan"},{"id":"24531","latitude":"33.07527800","longitude":"65.08638900","name":"Hokumati Baghran"},{"id":"24536","latitude":"31.64250000","longitude":"64.24138900","name":"Hokumati Nad-e `Ali"},{"id":"24540","latitude":"32.32111100","longitude":"64.96777800","name":"Hokumat Khan"},{"id":"24554","latitude":"31.66444400","longitude":"64.53388900","name":"Hosayni Kala"},{"id":"24555","latitude":"31.69111100","longitude":"64.56888900","name":"Hosayni Tak"},{"id":"24578","latitude":"31.66444400","longitude":"64.53388900","name":"Hoseyni Kala"},{"id":"24579","latitude":"31.69111100","longitude":"64.56888900","name":"Hoseyni Tak"},{"id":"24715","latitude":"32.50805600","longitude":"64.44888900","name":"`Idizay"},{"id":"24716","latitude":"32.50805600","longitude":"64.44888900","name":"Idizay"},{"id":"24768","latitude":"32.86666700","longitude":"64.69916700","name":"Imamrabat"},{"id":"24769","latitude":"32.86666700","longitude":"64.69916700","name":"Imam Ribat"},{"id":"24770","latitude":"32.86666700","longitude":"64.69916700","name":"Imam Robat"},{"id":"24799","latitude":"32.13250000","longitude":"64.66694400","name":"Indzhirshali"},{"id":"24801","latitude":"32.06972200","longitude":"64.65777800","name":"Ingarak"},{"id":"24803","latitude":"32.14027800","longitude":"64.90444400","name":"Ingardzhangel'"},{"id":"24955","latitude":"32.79888900","longitude":"65.01527800","name":"Islamguara"},{"id":"25121","latitude":"32.96083300","longitude":"64.86555600","name":"Jaghatu"},{"id":"25148","latitude":"32.32166700","longitude":"64.56916700","name":"Jahazi"},{"id":"25200","latitude":"32.35916700","longitude":"64.41055600","name":"Jalal od Din"},{"id":"25201","latitude":"32.35916700","longitude":"64.41055600","name":"Jalaluddin"},{"id":"25202","latitude":"32.35916700","longitude":"64.41055600","name":"Jalaludin"},{"id":"25218","latitude":"31.87833300","longitude":"64.67027800","name":"Jalatkhan Kor"},{"id":"25219","latitude":"31.87833300","longitude":"64.67027800","name":"Jalatkhan Kur"},{"id":"25220","latitude":"32.35916700","longitude":"64.41055600","name":"Jalaudin"},{"id":"25272","latitude":"31.72527800","longitude":"64.44916700","name":"Jamal"},{"id":"25276","latitude":"31.67416700","longitude":"64.37111100","name":"Jamal Kalay"},{"id":"25277","latitude":"32.20083300","longitude":"64.37805600","name":"Jamal Karez"},{"id":"25278","latitude":"32.20083300","longitude":"64.37805600","name":"Jamal Kariz"},{"id":"25285","latitude":"31.72527800","longitude":"64.44916700","name":"Jamal Ko"},{"id":"25286","latitude":"31.72527800","longitude":"64.44916700","name":"Jamal Kor"},{"id":"25287","latitude":"31.72527800","longitude":"64.44916700","name":"Jamal Kowr"},{"id":"25343","latitude":"32.30694400","longitude":"64.46027800","name":"Jamshed"},{"id":"25356","latitude":"32.04027800","longitude":"65.04888900","name":"Janabad"},{"id":"25521","latitude":"31.74500000","longitude":"64.70027800","name":"Janmohammad Sakh"},{"id":"25522","latitude":"31.74500000","longitude":"64.70027800","name":"Janmohammad Shakh"},{"id":"25571","latitude":"31.79888900","longitude":"64.59888900","name":"Janubi Nurza'i"},{"id":"25580","latitude":"31.98472200","longitude":"64.94277800","name":"Janubi Tutak"},{"id":"25605","latitude":"32.40722200","longitude":"65.10638900","name":"Jarchi"},{"id":"25607","latitude":"32.40722200","longitude":"65.10638900","name":"Jarci"},{"id":"25633","latitude":"32.74277800","longitude":"65.02250000","name":"Jare Ghar"},{"id":"25654","latitude":"32.58722200","longitude":"64.95805600","name":"Jar-e Mohammad"},{"id":"25673","latitude":"32.63138900","longitude":"64.98111100","name":"Jar-e Shiryak"},{"id":"25678","latitude":"32.63138900","longitude":"64.98111100","name":"Jare Siryak"},{"id":"25706","latitude":"33.21583300","longitude":"65.27388900","name":"Jar"},{"id":"25723","latitude":"31.66000000","longitude":"64.65111100","name":"Jarnayl Kala"},{"id":"25758","latitude":"32.38250000","longitude":"65.13444400","name":"Jarya"},{"id":"25762","latitude":"32.38250000","longitude":"65.13444400","name":"Jaryeh"},{"id":"25959","latitude":"29.46666700","longitude":"63.31666700","name":"Jelejel"},{"id":"25994","latitude":"32.38250000","longitude":"65.13444400","name":"Jeria"},{"id":"26051","latitude":"29.46666700","longitude":"63.31666700","name":"Jilejil"},{"id":"26110","latitude":"31.65472200","longitude":"64.71416700","name":"Joman"},{"id":"26147","latitude":"31.79888900","longitude":"64.59888900","name":"Jonubi Nurza'i"},{"id":"26154","latitude":"31.98472200","longitude":"64.94277800","name":"Jonubi Tutak"},{"id":"26184","latitude":"32.10888900","longitude":"64.89222200","name":"Josyalay"},{"id":"26210","latitude":"31.65472200","longitude":"64.71416700","name":"Jowman"},{"id":"26250","latitude":"32.30527800","longitude":"64.78027800","name":"Joybawari"},{"id":"26252","latitude":"32.46444400","longitude":"64.89666700","name":"Joy Daraz"},{"id":"26281","latitude":"31.63722200","longitude":"64.67833300","name":"Joye Sahi"},{"id":"26307","latitude":"32.12750000","longitude":"64.90138900","name":"Jugh Landak"},{"id":"26314","latitude":"31.61138900","longitude":"64.47000000","name":"Jui Sarkar"},{"id":"26315","latitude":"31.61138900","longitude":"64.47000000","name":"Jui Sirkar"},{"id":"26322","latitude":"32.40694400","longitude":"65.14388900","name":"Jula"},{"id":"26371","latitude":"32.10888900","longitude":"64.89222200","name":"Jushyalay"},{"id":"26372","latitude":"32.10888900","longitude":"64.89222200","name":"Jusyalay"},{"id":"26384","latitude":"32.30527800","longitude":"64.78027800","name":"Juybavari"},{"id":"26385","latitude":"32.30527800","longitude":"64.78027800","name":"Juybawari"},{"id":"26388","latitude":"32.46444400","longitude":"64.89666700","name":"Juy Deraz"},{"id":"26410","latitude":"31.63722200","longitude":"64.67833300","name":"Juy-e Shahi"},{"id":"26421","latitude":"31.61138900","longitude":"64.47000000","name":"Juy Sarkar"},{"id":"26455","latitude":"32.20861100","longitude":"64.71888900","name":"Juz Ghoray"},{"id":"26456","latitude":"32.20861100","longitude":"64.71888900","name":"Juz Ghuray"},{"id":"26531","latitude":"31.62194400","longitude":"64.60250000","name":"Kaca"},{"id":"26547","latitude":"31.62194400","longitude":"64.60250000","name":"Kacha"},{"id":"26628","latitude":"32.55861100","longitude":"64.24694400","name":"Kadalak"},{"id":"26638","latitude":"32.86305600","longitude":"64.58277800","name":"Kadamchakh"},{"id":"26664","latitude":"31.85027800","longitude":"64.68305600","name":"Kadirkalay"},{"id":"26698","latitude":"32.76027800","longitude":"64.54861100","name":"Kadzhaki"},{"id":"26701","latitude":"32.28277800","longitude":"65.06027800","name":"Kadzhaki-Sufla"},{"id":"26703","latitude":"32.30277800","longitude":"65.08972200","name":"Kadzhaki-Ulia"},{"id":"26713","latitude":"32.15972200","longitude":"64.96361100","name":"Kadzhgird"},{"id":"26718","latitude":"32.35055600","longitude":"65.08138900","name":"Kadzhi"},{"id":"26727","latitude":"32.79944400","longitude":"65.01000000","name":"Kadzhkar"},{"id":"26750","latitude":"32.66138900","longitude":"64.94222200","name":"Kafar Koh"},{"id":"26751","latitude":"32.66138900","longitude":"64.94222200","name":"Kafarkokh"},{"id":"26752","latitude":"32.66138900","longitude":"64.94222200","name":"Kafar Kuh"},{"id":"26843","latitude":"32.29277800","longitude":"64.93805600","name":"Kaisarak"},{"id":"26849","latitude":"32.76027800","longitude":"64.54861100","name":"Kajakai"},{"id":"26855","latitude":"32.30277800","longitude":"65.08972200","name":"Kajakay"},{"id":"26864","latitude":"32.28277800","longitude":"65.06027800","name":"Kajaki"},{"id":"26865","latitude":"32.30277800","longitude":"65.08972200","name":"Kajaki `Olya"},{"id":"26866","latitude":"32.28277800","longitude":"65.06027800","name":"Kajaki Sofla"},{"id":"26867","latitude":"32.28277800","longitude":"65.06027800","name":"Kajaki Sufla"},{"id":"26868","latitude":"32.30277800","longitude":"65.08972200","name":"Kajaki `Ulya"},{"id":"26876","latitude":"32.78722200","longitude":"64.92861100","name":"Kaj Bed"},{"id":"26877","latitude":"32.78722200","longitude":"64.92861100","name":"Kaj Bid"},{"id":"26893","latitude":"32.15972200","longitude":"64.96361100","name":"Kaj Gerd"},{"id":"26905","latitude":"32.35055600","longitude":"65.08138900","name":"Kaji"},{"id":"26918","latitude":"32.23333300","longitude":"65.08333300","name":"Kajkai"},{"id":"26923","latitude":"32.79944400","longitude":"65.01000000","name":"Kajkar"},{"id":"26942","latitude":"32.35055600","longitude":"65.08138900","name":"Kajo"},{"id":"26956","latitude":"32.35500000","longitude":"65.07833300","name":"Kakakhel"},{"id":"26960","latitude":"32.35500000","longitude":"65.07833300","name":"Kakakheyl'"},{"id":"26961","latitude":"32.35500000","longitude":"65.07833300","name":"Kaka Kheyl"},{"id":"26976","latitude":"31.67527800","longitude":"64.23444400","name":"Kakaran"},{"id":"26984","latitude":"31.89361100","longitude":"64.76833300","name":"Kakar"},{"id":"27114","latitude":"32.83861100","longitude":"65.03722200","name":"Kalacha"},{"id":"27190","latitude":"31.97277800","longitude":"64.78166700","name":"Kalagaz"},{"id":"27421","latitude":"32.99777800","longitude":"64.98250000","name":"Kalanah"},{"id":"27425","latitude":"32.99777800","longitude":"64.98250000","name":"Kalana"},{"id":"27467","latitude":"33.17833300","longitude":"65.12777800","name":"Kalandzhoy"},{"id":"27475","latitude":"33.17833300","longitude":"65.12777800","name":"Kalanjoy"},{"id":"27476","latitude":"33.17833300","longitude":"65.12777800","name":"Kalanjuy"},{"id":"27622","latitude":"32.68277800","longitude":"64.98500000","name":"Kalatae Baghnay"},{"id":"27624","latitude":"32.68277800","longitude":"64.98500000","name":"Kalatah"},{"id":"27632","latitude":"32.68277800","longitude":"64.98500000","name":"Kalata"},{"id":"27652","latitude":"32.68277800","longitude":"64.98500000","name":"Kalateh-ye Baghni"},{"id":"27680","latitude":"32.31972200","longitude":"64.75861100","name":"Kalaval'"},{"id":"27690","latitude":"32.31972200","longitude":"64.75861100","name":"Kalawal"},{"id":"27732","latitude":"32.52972200","longitude":"64.45500000","name":"Kalayi-Badam"},{"id":"27772","latitude":"32.00361100","longitude":"64.78361100","name":"Kalayi-Gaz"},{"id":"27782","latitude":"32.33722200","longitude":"65.10138900","name":"Kalayi-Gul'"},{"id":"27874","latitude":"32.21805600","longitude":"64.32638900","name":"Kalayi-Nau"},{"id":"27960","latitude":"32.14527800","longitude":"64.59194400","name":"Kalayi-Zer"},{"id":"27971","latitude":"32.47138900","longitude":"64.21361100","name":"Kalay Siah"},{"id":"27994","latitude":"32.41138900","longitude":"65.09388900","name":"Kald"},{"id":"28039","latitude":"32.36444400","longitude":"65.11388900","name":"Kaliza"},{"id":"28040","latitude":"32.36444400","longitude":"65.11388900","name":"Kalizeh"},{"id":"28111","latitude":"32.41138900","longitude":"65.09388900","name":"Kalu"},{"id":"28161","latitude":"32.76416700","longitude":"65.08111100","name":"Kamanaki"},{"id":"28346","latitude":"32.10388900","longitude":"65.04222200","name":"Kanate Saydal"},{"id":"28358","latitude":"32.10388900","longitude":"65.04222200","name":"Kanati-Latif"},{"id":"28360","latitude":"32.10388900","longitude":"65.04222200","name":"Kanati-Saidal'"},{"id":"28487","latitude":"32.16555600","longitude":"64.95972200","name":"Kang"},{"id":"28536","latitude":"32.32805600","longitude":"65.07694400","name":"Kanzay"},{"id":"28537","latitude":"32.32805600","longitude":"65.07694400","name":"Kanzi"},{"id":"28559","latitude":"33.26388900","longitude":"65.28277800","name":"Karabag"},{"id":"28563","latitude":"32.20750000","longitude":"64.49416700","name":"Karabayi-Kar'yayi-Barang"},{"id":"28600","latitude":"32.20111100","longitude":"64.12527800","name":"Karakan"},{"id":"28612","latitude":"32.22055600","longitude":"64.21583300","name":"Karak"},{"id":"28658","latitude":"30.82944400","longitude":"64.12472200","name":"Karamza'i Kalay"},{"id":"28775","latitude":"32.25333300","longitude":"64.68416700","name":"Karezata"},{"id":"28776","latitude":"32.25333300","longitude":"64.68416700","name":"Karez Ata"},{"id":"28777","latitude":"32.03333300","longitude":"64.80416700","name":"Karezay"},{"id":"28784","latitude":"32.37333300","longitude":"65.07472200","name":"Karezdei"},{"id":"28786","latitude":"32.37333300","longitude":"65.07472200","name":"Karezdi"},{"id":"28787","latitude":"32.37333300","longitude":"65.07472200","name":"Karezdu"},{"id":"28790","latitude":"32.37527800","longitude":"64.99888900","name":"Kareze `Abdul Malek"},{"id":"28791","latitude":"33.05333300","longitude":"65.09083300","name":"Kareze Adamkhan"},{"id":"28792","latitude":"32.39000000","longitude":"64.48638900","name":"Kareze Afghan"},{"id":"28796","latitude":"32.33666700","longitude":"64.94444400","name":"Kareze Albelagh"},{"id":"28808","latitude":"32.36638900","longitude":"64.87861100","name":"Kareze Bahadur"},{"id":"28815","latitude":"32.82527800","longitude":"64.89611100","name":"Kareze Bedake Khurd"},{"id":"28821","latitude":"32.34861100","longitude":"64.94888900","name":"Kareze Celcagh"},{"id":"28824","latitude":"32.34388900","longitude":"64.92666700","name":"Kareze Dawran"},{"id":"28825","latitude":"32.37277800","longitude":"64.94638900","name":"Kareze Deh Baba"},{"id":"28826","latitude":"32.34500000","longitude":"64.80888900","name":"Kareze Deh"},{"id":"28838","latitude":"32.37194400","longitude":"64.93083300","name":"Kareze Gargak"},{"id":"28842","latitude":"32.39222200","longitude":"64.98388900","name":"Kareze Gharib"},{"id":"28845","latitude":"32.38027800","longitude":"64.94388900","name":"Kareze Gholam Hosayn"},{"id":"28854","latitude":"32.32111100","longitude":"64.96777800","name":"Kareze Hokumatkhan"},{"id":"28855","latitude":"33.13250000","longitude":"65.13250000","name":"Kareze Hosayn"},{"id":"28857","latitude":"32.16111100","longitude":"64.77138900","name":"Kareze `Isa Khan"},{"id":"28860","latitude":"32.34638900","longitude":"64.87944400","name":"Kareze Julji Abdurrahman"},{"id":"28861","latitude":"32.33916700","longitude":"64.86805600","name":"Kareze Julji"},{"id":"28875","latitude":"32.34750000","longitude":"64.99138900","name":"Kareze Khandeq"},{"id":"28878","latitude":"32.24361100","longitude":"64.68500000","name":"Kareze Khusk Awa"},{"id":"28880","latitude":"32.04361100","longitude":"64.80083300","name":"Kareze Kuka"},{"id":"28881","latitude":"32.36722200","longitude":"64.94472200","name":"Kareze Kundagha"},{"id":"28885","latitude":"32.37361100","longitude":"64.92500000","name":"Kareze Landay"},{"id":"28896","latitude":"32.35638900","longitude":"64.93861100","name":"Kareze Mirzi"},{"id":"28902","latitude":"32.35777800","longitude":"64.97805600","name":"Kareze Mo`in Abad"},{"id":"28904","latitude":"32.36250000","longitude":"64.99722200","name":"Kareze Mughri"},{"id":"28910","latitude":"32.37555600","longitude":"64.81833300","name":"Kareze Nadamat"},{"id":"28913","latitude":"32.37694400","longitude":"64.94111100","name":"Kareze Naswaryan"},{"id":"28915","latitude":"32.41250000","longitude":"65.11777800","name":"Kareze Naw Gharbi"},{"id":"28919","latitude":"32.18972200","longitude":"63.77527800","name":"Kareze Naw"},{"id":"28921","latitude":"32.40083300","longitude":"65.14083300","name":"Kareze Naw Sarqi"},{"id":"28926","latitude":"32.33861100","longitude":"64.79916700","name":"Kareze Pir"},{"id":"28927","latitude":"32.35138900","longitude":"64.94472200","name":"Kareze Pirzay Caharbagh"},{"id":"28928","latitude":"32.35972200","longitude":"64.97888900","name":"Kareze Popalzay"},{"id":"28929","latitude":"32.36416700","longitude":"64.98027800","name":"Kareze Qambaryan"},{"id":"28937","latitude":"32.12222200","longitude":"64.44277800","name":"Kareze Safed"},{"id":"28940","latitude":"32.35805600","longitude":"64.99333300","name":"Kareze Sahr"},{"id":"28944","latitude":"32.14333300","longitude":"64.44083300","name":"Kareze Sang"},{"id":"28945","latitude":"32.39750000","longitude":"64.98083300","name":"Kareze Sarcasma"},{"id":"28947","latitude":"31.55722200","longitude":"64.11916700","name":"Kareze Saydi"},{"id":"28948","latitude":"32.35305600","longitude":"64.98194400","name":"Kareze Sayedane Janubi"},{"id":"28949","latitude":"32.38388900","longitude":"64.97638900","name":"Kareze Sayedane Samali"},{"id":"28962","latitude":"32.36888900","longitude":"64.96694400","name":"Kareze Surkh"},{"id":"28965","latitude":"32.34138900","longitude":"64.94388900","name":"Kareze Tajoy"},{"id":"28971","latitude":"32.35416700","longitude":"64.98944400","name":"Kareze Walang"},{"id":"28972","latitude":"32.33444400","longitude":"64.93833300","name":"Kareze Yedel"},{"id":"28977","latitude":"32.13583300","longitude":"64.15638900","name":"Kareze Zyarat"},{"id":"28980","latitude":"32.38361100","longitude":"65.20944400","name":"Karezga"},{"id":"28983","latitude":"32.38361100","longitude":"65.20944400","name":"Karezgay"},{"id":"28991","latitude":"32.19888900","longitude":"64.76861100","name":"Karez Gholam"},{"id":"28996","latitude":"32.19888900","longitude":"64.76861100","name":"Karezgulyam"},{"id":"28998","latitude":"32.37527800","longitude":"64.99888900","name":"Karezi-Abdul'malik"},{"id":"28999","latitude":"33.05333300","longitude":"65.09083300","name":"Karezi-Adamkhan"},{"id":"29000","latitude":"32.39000000","longitude":"64.48638900","name":"Karezi-Afgan"},{"id":"29002","latitude":"32.33666700","longitude":"64.94444400","name":"Karezi-Al'bilag"},{"id":"29005","latitude":"32.36638900","longitude":"64.87861100","name":"Karezi-Bakhadur"},{"id":"29007","latitude":"32.82527800","longitude":"64.89611100","name":"Karezi-Bedaki-Khurd"},{"id":"29012","latitude":"32.34861100","longitude":"64.94888900","name":"Karezi-Chil'chag"},{"id":"29014","latitude":"32.34388900","longitude":"64.92666700","name":"Karezi-Dauran"},{"id":"29015","latitude":"32.37277800","longitude":"64.94638900","name":"Karezi-Dekhbaba"},{"id":"29016","latitude":"32.34500000","longitude":"64.80888900","name":"Karezi-Dekh"},{"id":"29021","latitude":"32.34638900","longitude":"64.87944400","name":"Karezi-Dzhul'dzhi-Abdurrakhman"},{"id":"29022","latitude":"32.33916700","longitude":"64.86805600","name":"Karezi-Dzhul'dzhi"},