[{"id":"1268042","latitude":"45.90000000","longitude":"9.33333300","name":"Abbadia Lariana"},{"id":"1268054","latitude":"45.40000000","longitude":"8.90000000","name":"Abbiategrasso"},{"id":"1268098","latitude":"45.30000000","longitude":"10.40000000","name":"Acquafredda"},{"id":"1268104","latitude":"45.31666700","longitude":"9.95000000","name":"Acqualunga"},{"id":"1268152","latitude":"45.61666700","longitude":"9.95000000","name":"Adro"},{"id":"1268160","latitude":"46.21666700","longitude":"8.20000000","name":"Agaro"},{"id":"1268179","latitude":"45.45000000","longitude":"9.55000000","name":"Agnadello"},{"id":"1268190","latitude":"45.85000000","longitude":"8.41666700","name":"Agrano"},{"id":"1268191","latitude":"45.56666700","longitude":"9.35000000","name":"Agrate"},{"id":"1268192","latitude":"45.56666700","longitude":"9.35000000","name":"Agrate Brianza"},{"id":"1268197","latitude":"46.21666700","longitude":"8.20000000","name":"Agro"},{"id":"1268198","latitude":"46.21666700","longitude":"8.20000000","name":"Agro Fuori"},{"id":"1268201","latitude":"46.11666700","longitude":"8.13333300","name":"Agrosa"},{"id":"1268230","latitude":"45.75000000","longitude":"9.41666700","name":"Airuno"},{"id":"1268236","latitude":"45.16666700","longitude":"8.88333300","name":"Alagna"},{"id":"1268238","latitude":"46.20000000","longitude":"8.33333300","name":"Alagua"},{"id":"1268249","latitude":"45.68333300","longitude":"9.76666700","name":"Albano"},{"id":"1268253","latitude":"45.68333300","longitude":"9.76666700","name":"Albano Sant'Alessandro"},{"id":"1268256","latitude":"45.08333300","longitude":"9.25000000","name":"Albaredo"},{"id":"1268260","latitude":"46.10000000","longitude":"9.58333300","name":"Albaredo per San Marco"},{"id":"1268265","latitude":"45.78333300","longitude":"9.11666700","name":"Albate"},{"id":"1268295","latitude":"45.65000000","longitude":"9.25000000","name":"Albiate"},{"id":"1268297","latitude":"45.50000000","longitude":"9.48333300","name":"Albignano"},{"id":"1268301","latitude":"45.76666700","longitude":"9.78333300","name":"Albino"},{"id":"1268305","latitude":"45.73333300","longitude":"8.80000000","name":"Albizzate"},{"id":"1268307","latitude":"46.20000000","longitude":"9.41666700","name":"Albonico"},{"id":"1268308","latitude":"45.18333300","longitude":"9.26666700","name":"Albuzzano"},{"id":"1268328","latitude":"45.23333300","longitude":"10.11666700","name":"Alfiano Nuovo"},{"id":"1268331","latitude":"46.10000000","longitude":"8.43333300","name":"Al Geccio"},{"id":"1268347","latitude":"45.85000000","longitude":"9.63333300","name":"Alino"},{"id":"1268363","latitude":"45.73333300","longitude":"9.61666700","name":"Alm\u00e8"},{"id":"1268364","latitude":"45.75000000","longitude":"9.56666700","name":"Almenno San Bartolomeo"},{"id":"1268365","latitude":"45.75000000","longitude":"9.58333300","name":"Almenno San Salvatore"},{"id":"1268368","latitude":"46.31666700","longitude":"8.38333300","name":"Al Passo"},{"id":"1268369","latitude":"46.26666700","longitude":"9.91666700","name":"Alpe Acquanegra"},{"id":"1268370","latitude":"46.26666700","longitude":"9.91666700","name":"Alpe Acquanera"},{"id":"1268371","latitude":"46.11666700","longitude":"8.13333300","name":"Alpe Agrosa"},{"id":"1268372","latitude":"46.23333300","longitude":"9.76666700","name":"Alpe Airale"},{"id":"1268373","latitude":"46.40000000","longitude":"8.40000000","name":"Alpe Balma Rossa"},{"id":"1268374","latitude":"46.05000000","longitude":"8.23333300","name":"Alpe Basciumo"},{"id":"1268375","latitude":"46.10000000","longitude":"8.45000000","name":"Alpe Basso"},{"id":"1268376","latitude":"46.05000000","longitude":"8.48333300","name":"Alpe Busarasca"},{"id":"1268377","latitude":"46.20000000","longitude":"9.75000000","name":"Alpe Caldenno"},{"id":"1268378","latitude":"46.05000000","longitude":"8.45000000","name":"Alpe Campo"},{"id":"1268380","latitude":"46.05000000","longitude":"8.45000000","name":"Alpe Campo di Sotto"},{"id":"1268381","latitude":"46.10000000","longitude":"8.06666700","name":"Alpe Campolomana"},{"id":"1268382","latitude":"46.28333300","longitude":"9.90000000","name":"Alpe Campolungo"},{"id":"1268383","latitude":"46.05000000","longitude":"8.40000000","name":"Alpe Casarolo"},{"id":"1268384","latitude":"46.23333300","longitude":"8.45000000","name":"Alpe Cavegna"},{"id":"1268385","latitude":"46.16666700","longitude":"8.41666700","name":"Alpe Cazzola"},{"id":"1268386","latitude":"46.08333300","longitude":"8.11666700","name":"Alpe Cheggio"},{"id":"1268387","latitude":"46.26666700","longitude":"8.20000000","name":"Alpe Ciamporino"},{"id":"1268388","latitude":"46.16666700","longitude":"8.36666700","name":"Alpe Col"},{"id":"1268389","latitude":"46.23333300","longitude":"8.38333300","name":"Alpe Cortefreddo"},{"id":"1268390","latitude":"46.01666700","longitude":"8.11666700","name":"Alpe Cortelancio"},{"id":"1268391","latitude":"46.05000000","longitude":"8.36666700","name":"Alpe Cortevecchio"},{"id":"1268392","latitude":"46.21666700","longitude":"8.41666700","name":"Alpe Cortone"},{"id":"1268393","latitude":"46.31666700","longitude":"8.25000000","name":"Alpe Devero"},{"id":"1268394","latitude":"46.38333300","longitude":"9.36666700","name":"Alpe di Bondeno"},{"id":"1268395","latitude":"46.18333300","longitude":"8.16666700","name":"Alpe di Camona"},{"id":"1268397","latitude":"46.03333300","longitude":"8.81666700","name":"Alpe di Dumenza"},{"id":"1268398","latitude":"46.00000000","longitude":"9.15000000","name":"Alpe di Lenno"},{"id":"1268399","latitude":"46.10000000","longitude":"8.10000000","name":"Alpe di Teste"},{"id":"1268401","latitude":"46.20000000","longitude":"8.41666700","name":"Alpe Forgnone"},{"id":"1268402","latitude":"46.03333300","longitude":"9.45000000","name":"Alpe Forno"},{"id":"1268403","latitude":"46.31666700","longitude":"9.95000000","name":"Alpe Gembr\u00e8"},{"id":"1268404","latitude":"46.31666700","longitude":"9.93333300","name":"Alpe Gera"},{"id":"1268405","latitude":"46.35000000","longitude":"8.36666700","name":"Alpe Giove"},{"id":"1268406","latitude":"46.01666700","longitude":"9.40000000","name":"Alpe Grasso"},{"id":"1268407","latitude":"46.43333300","longitude":"9.36666700","name":"Alpe Groppera"},{"id":"1268408","latitude":"46.20000000","longitude":"8.46666700","name":"Alpe i Motti"},{"id":"1268409","latitude":"46.01666700","longitude":"8.33333300","name":"Alpe Lagarasc"},{"id":"1268410","latitude":"46.01666700","longitude":"8.33333300","name":"Alpe Lagarsc"},{"id":"1268411","latitude":"46.21666700","longitude":"8.50000000","name":"Alpe Larecchio"},{"id":"1268412","latitude":"46.03333300","longitude":"8.06666700","name":"Alpe Lareccio"},{"id":"1268413","latitude":"46.35000000","longitude":"8.30000000","name":"Alpe la Satta"},{"id":"1268414","latitude":"46.18333300","longitude":"8.21666700","name":"Alpe Lorino"},{"id":"1268416","latitude":"46.16666700","longitude":"8.26666700","name":"Alpe Marghino"},{"id":"1268417","latitude":"46.25000000","longitude":"8.41666700","name":"Alpe Mattignale"},{"id":"1268418","latitude":"46.41666700","longitude":"9.41666700","name":"Alpe Mulecetto"},{"id":"1268419","latitude":"46.05000000","longitude":"8.35000000","name":"Alpe Ogliana"},{"id":"1268420","latitude":"46.05000000","longitude":"8.35000000","name":"Alpe Ogliano"},{"id":"1268421","latitude":"46.10000000","longitude":"9.61666700","name":"Alpe Olza"},{"id":"1268423","latitude":"46.28333300","longitude":"9.28333300","name":"Alpe Piodella"},{"id":"1268425","latitude":"46.05000000","longitude":"9.45000000","name":"Alpe Rasica"},{"id":"1268426","latitude":"46.45000000","longitude":"9.43333300","name":"Alpe Rebella"},{"id":"1268427","latitude":"46.45000000","longitude":"9.43333300","name":"Alpe Rebellao"},{"id":"1268428","latitude":"46.45000000","longitude":"8.45000000","name":"Alpe Regina"},{"id":"1268431","latitude":"46.03333300","longitude":"8.81666700","name":"Alpet"},{"id":"1268433","latitude":"46.10000000","longitude":"8.23333300","name":"Alpe Torcelli"},{"id":"1268436","latitude":"46.03333300","longitude":"8.08333300","name":"Alpe Valaverta"},{"id":"1268437","latitude":"46.08333300","longitude":"8.41666700","name":"Alpe Vald"},{"id":"1268438","latitude":"46.08333300","longitude":"8.41666700","name":"Alpe Valle"},{"id":"1268439","latitude":"46.08333300","longitude":"8.16666700","name":"Alpe Vauzone"},{"id":"1268440","latitude":"46.06666700","longitude":"8.48333300","name":"Alpe Zucchero"},{"id":"1268441","latitude":"46.08333300","longitude":"8.50000000","name":"Alpe Zunchi"},{"id":"1268445","latitude":"46.35000000","longitude":"9.43333300","name":"Alpiggia"},{"id":"1268486","latitude":"45.73333300","longitude":"9.71666700","name":"Alzano"},{"id":"1268487","latitude":"45.73333300","longitude":"9.73333300","name":"Alzano di Sopra"},{"id":"1268488","latitude":"45.73333300","longitude":"9.71666700","name":"Alzano Lombardo"},{"id":"1268489","latitude":"45.73333300","longitude":"9.71666700","name":"Alzano Maggiore"},{"id":"1268490","latitude":"45.73333300","longitude":"9.73333300","name":"Alzano Sopra"},{"id":"1268510","latitude":"45.78333300","longitude":"8.43333300","name":"Ameno"},{"id":"1268548","latitude":"45.76666700","longitude":"10.48333300","name":"Anfo"},{"id":"1268551","latitude":"45.76666700","longitude":"8.58333300","name":"Angera"},{"id":"1268554","latitude":"45.88333300","longitude":"10.13333300","name":"Angolo"},{"id":"1268555","latitude":"45.88333300","longitude":"10.13333300","name":"Angolo Terme"},{"id":"1268565","latitude":"45.80000000","longitude":"9.33333300","name":"Annone di Brianza"},{"id":"1268576","latitude":"45.61666700","longitude":"8.85000000","name":"Ansizio"},{"id":"1268577","latitude":"45.85000000","longitude":"9.66666700","name":"Antea"},{"id":"1268578","latitude":"45.48333300","longitude":"9.78333300","name":"Antegnate"},{"id":"1268602","latitude":"46.05000000","longitude":"8.11666700","name":"Antronapiana"},{"id":"1268607","latitude":"45.76666700","longitude":"9.20000000","name":"Anzano del Parco"},{"id":"1268610","latitude":"45.98333300","longitude":"8.15000000","name":"Anzino"},{"id":"1268616","latitude":"45.98333300","longitude":"8.35000000","name":"Anzola d'Ossola"},{"id":"1268630","latitude":"45.73333300","longitude":"8.98333300","name":"Appiano"},{"id":"1268632","latitude":"45.73333300","longitude":"8.98333300","name":"Appiano Gentile"},{"id":"1268636","latitude":"46.15000000","longitude":"10.10000000","name":"Aprica"},{"id":"1268680","latitude":"45.56666700","longitude":"9.60000000","name":"Arcene"},{"id":"1268692","latitude":"45.55000000","longitude":"8.85000000","name":"Arconate"},{"id":"1268693","latitude":"45.61666700","longitude":"9.31666700","name":"Arcore"},{"id":"1268695","latitude":"45.91666700","longitude":"8.71666700","name":"Arcumeggia"},{"id":"1268700","latitude":"46.15000000","longitude":"9.63333300","name":"Ardenno"},{"id":"1268702","latitude":"45.93333300","longitude":"9.93333300","name":"Ardesio"},{"id":"1268709","latitude":"45.08333300","longitude":"9.35000000","name":"Arena Po"},{"id":"1268712","latitude":"45.53333300","longitude":"9.08333300","name":"Arese"},{"id":"1268718","latitude":"45.93333300","longitude":"9.13333300","name":"Argegno"},{"id":"1268726","latitude":"45.06666700","longitude":"9.11666700","name":"Argine"},{"id":"1268729","latitude":"46.23333300","longitude":"8.26666700","name":"Argnai"},{"id":"1268744","latitude":"46.13333300","longitude":"9.98333300","name":"Arigna"},{"id":"1268756","latitude":"45.50000000","longitude":"8.93333300","name":"Arluno"},{"id":"1268759","latitude":"45.81666700","longitude":"8.43333300","name":"Armeno"},{"id":"1268773","latitude":"45.80000000","longitude":"8.35000000","name":"Arola"},{"id":"1268775","latitude":"45.76666700","longitude":"8.56666700","name":"Arona"},{"id":"1268776","latitude":"45.70000000","longitude":"9.20000000","name":"Arosio"},{"id":"1268779","latitude":"44.93333300","longitude":"9.11666700","name":"Arpesina"},{"id":"1268790","latitude":"45.68333300","longitude":"8.73333300","name":"Arsago"},{"id":"1268791","latitude":"45.68333300","longitude":"8.73333300","name":"Arsago Seprio"},{"id":"1268810","latitude":"45.85000000","longitude":"10.16666700","name":"Artogne"},{"id":"1268838","latitude":"45.21666700","longitude":"10.40000000","name":"Asola"},{"id":"1268847","latitude":"45.86666700","longitude":"9.26666700","name":"Asso"},{"id":"1268893","latitude":"45.73333300","longitude":"8.41666700","name":"Auzate"},{"id":"1268909","latitude":"45.98333300","longitude":"9.63333300","name":"Averara"},{"id":"1268911","latitude":"46.23333300","longitude":"9.28333300","name":"Avert d' Ingherina"},{"id":"1268912","latitude":"46.23333300","longitude":"9.28333300","name":"Avert d'Inghirina"},{"id":"1268927","latitude":"45.88333300","longitude":"9.51666700","name":"Avolasio"},{"id":"1268935","latitude":"45.30000000","longitude":"9.91666700","name":"Azzanello"},{"id":"1268941","latitude":"45.78333300","longitude":"8.80000000","name":"Azzate"},{"id":"1268943","latitude":"45.98333300","longitude":"10.11666700","name":"Azzone"},{"id":"1268947","latitude":"46.26666700","longitude":"8.31666700","name":"Baceno"},{"id":"1268996","latitude":"45.45000000","longitude":"9.08333300","name":"Baggio"},{"id":"1268999","latitude":"46.08333300","longitude":"9.65000000","name":"Bagini"},{"id":"1269029","latitude":"46.25000000","longitude":"9.60000000","name":"Bagni"},{"id":"1269036","latitude":"46.25000000","longitude":"9.60000000","name":"Bagni del Masino"},{"id":"1269042","latitude":"46.25000000","longitude":"9.60000000","name":"Bagni di M\u00e1sino"},{"id":"1269087","latitude":"45.35000000","longitude":"9.60000000","name":"Bagnolo Cremasco"},{"id":"1269091","latitude":"45.43333300","longitude":"10.16666700","name":"Bagnolo Mella"},{"id":"1269101","latitude":"45.81666700","longitude":"10.46666700","name":"Bagolino"},{"id":"1269108","latitude":"46.01666700","longitude":"8.55000000","name":"Baiessa"},{"id":"1269115","latitude":"46.10000000","longitude":"9.91666700","name":"Baita la Rua"},{"id":"1269118","latitude":"46.11666700","longitude":"10.13333300","name":"Baite Bota"},{"id":"1269119","latitude":"46.05000000","longitude":"9.86666700","name":"Baite Cigola"},{"id":"1269120","latitude":"46.10000000","longitude":"9.91666700","name":"Baite della Rua"},{"id":"1269122","latitude":"46.11666700","longitude":"10.13333300","name":"Baite di Bota"},{"id":"1269127","latitude":"46.10000000","longitude":"9.91666700","name":"Baite Rua"},{"id":"1269145","latitude":"45.90000000","longitude":"9.41666700","name":"Ballabio"},{"id":"1269146","latitude":"45.88333300","longitude":"9.41666700","name":"Ballabio Inferiore"},{"id":"1269147","latitude":"45.90000000","longitude":"9.41666700","name":"Ballabio Superiore"},{"id":"1269156","latitude":"46.23333300","longitude":"8.15000000","name":"Balmelle"},{"id":"1269157","latitude":"45.81666700","longitude":"8.13333300","name":"Balmuccia"},{"id":"1269195","latitude":"45.53333300","longitude":"9.11666700","name":"Baranzate"},{"id":"1269199","latitude":"45.55000000","longitude":"9.00000000","name":"Barbaiana"},{"id":"1269220","latitude":"45.55000000","longitude":"9.00000000","name":"Barbiana"},{"id":"1269222","latitude":"45.08333300","longitude":"9.20000000","name":"Barbianello"},{"id":"1269252","latitude":"45.46666700","longitude":"8.98333300","name":"Bareggio"},{"id":"1269259","latitude":"45.68333300","longitude":"10.40000000","name":"Barghe"},{"id":"1269270","latitude":"45.65000000","longitude":"9.13333300","name":"Barlassina"},{"id":"1269273","latitude":"45.90000000","longitude":"9.26666700","name":"Barni"},{"id":"1269289","latitude":"45.73333300","longitude":"9.56666700","name":"Barzana"},{"id":"1269291","latitude":"45.73333300","longitude":"9.31666700","name":"Barzan\u00f2"},{"id":"1269292","latitude":"46.00000000","longitude":"10.13333300","name":"Barzesto"},{"id":"1269298","latitude":"45.30000000","longitude":"9.30000000","name":"Bascape"},{"id":"1269319","latitude":"46.10000000","longitude":"8.75000000","name":"Bassano"},{"id":"1269321","latitude":"45.31666700","longitude":"10.11666700","name":"Bassano Bresciano"},{"id":"1269334","latitude":"45.03333300","longitude":"8.91666700","name":"Bastida de' Dossi"},{"id":"1269335","latitude":"45.03333300","longitude":"8.91666700","name":"Bastida dei Dossi"},{"id":"1269361","latitude":"45.91666700","longitude":"8.50000000","name":"Baveno"},{"id":"1269391","latitude":"45.16666700","longitude":"9.31666700","name":"Belgioioso"},{"id":"1269392","latitude":"45.83333300","longitude":"8.56666700","name":"Belgirate"},{"id":"1269401","latitude":"45.98333300","longitude":"9.25000000","name":"Bellagio"},{"id":"1269404","latitude":"46.03333300","longitude":"9.30000000","name":"Bellano"},{"id":"1269423","latitude":"46.08333300","longitude":"9.26666700","name":"Belmonte"},{"id":"1269466","latitude":"46.16666700","longitude":"9.73333300","name":"Berbenno"},{"id":"1269467","latitude":"46.16666700","longitude":"9.73333300","name":"Berbenno di Valtellina"},{"id":"1269468","latitude":"46.16666700","longitude":"9.73333300","name":"Berbenno Valtellina"},{"id":"1269472","latitude":"45.25000000","longitude":"9.01666700","name":"Bereguardo"},{"id":"1269473","latitude":"46.01666700","longitude":"9.66666700","name":"Berere"},{"id":"1269475","latitude":"45.68333300","longitude":"9.71666700","name":"Bergamo"},{"id":"1269484","latitude":"45.50000000","longitude":"10.03333300","name":"Berlingo"},{"id":"1269495","latitude":"45.66666700","longitude":"10.33333300","name":"Bersenico"},{"id":"1269509","latitude":"46.21666700","longitude":"8.23333300","name":"Bertonio"},{"id":"1269518","latitude":"45.91666700","longitude":"10.26666700","name":"Berzo Inferiore"},{"id":"1269519","latitude":"45.70000000","longitude":"9.28333300","name":"Besana"},{"id":"1269520","latitude":"45.70000000","longitude":"9.28333300","name":"Besana Brianza"},{"id":"1269521","latitude":"45.70000000","longitude":"9.28333300","name":"Besana in Brianza"},{"id":"1269523","latitude":"45.86666700","longitude":"8.88333300","name":"Besano"},{"id":"1269524","latitude":"45.31666700","longitude":"8.96666700","name":"Besate"},{"id":"1269528","latitude":"45.70000000","longitude":"8.76666700","name":"Besnate"},{"id":"1269529","latitude":"45.85000000","longitude":"8.65000000","name":"Besozzo"},{"id":"1269530","latitude":"45.85000000","longitude":"8.65000000","name":"Besozzo Inferiore"},{"id":"1269532","latitude":"45.85000000","longitude":"8.65000000","name":"Besozzo Superiore"},{"id":"1269538","latitude":"46.45000000","longitude":"8.36666700","name":"Bettelmatt"},{"id":"1269544","latitude":"46.08333300","longitude":"8.30000000","name":"Beura"},{"id":"1269545","latitude":"46.08333300","longitude":"8.30000000","name":"B\u00e9ura Cardezza"},{"id":"1269550","latitude":"45.75000000","longitude":"9.35000000","name":"Bevera"},{"id":"1269553","latitude":"45.91666700","longitude":"10.26666700","name":"Bezzo Inferiore"},{"id":"1269565","latitude":"45.81666700","longitude":"8.71666700","name":"Biandronno"},{"id":"1269567","latitude":"46.18333300","longitude":"10.10000000","name":"Bianzone"},{"id":"1269568","latitude":"45.61666700","longitude":"9.26666700","name":"Biassono"},{"id":"1269591","latitude":"45.93333300","longitude":"10.30000000","name":"Bienno"},{"id":"1269601","latitude":"45.23333300","longitude":"10.16666700","name":"Binanuova"},{"id":"1269602","latitude":"45.33333300","longitude":"9.10000000","name":"Binasco"},{"id":"1269604","latitude":"46.00000000","longitude":"9.36666700","name":"Bindo"},{"id":"1269628","latitude":"45.13333300","longitude":"9.41666700","name":"Bissone"},{"id":"1269667","latitude":"45.88333300","longitude":"10.18333300","name":"Boario Terme"},{"id":"1269674","latitude":"45.60000000","longitude":"10.48333300","name":"Bocca di Croce"},{"id":"1269689","latitude":"45.83333300","longitude":"8.10000000","name":"Boccioleto"},{"id":"1269694","latitude":"46.26666700","longitude":"9.30000000","name":"Bodengo"},{"id":"1269695","latitude":"45.43333300","longitude":"9.16666700","name":"Boffalora"},{"id":"1269697","latitude":"45.35000000","longitude":"9.48333300","name":"Boffalora d'Adda"},{"id":"1269703","latitude":"46.11666700","longitude":"8.20000000","name":"Bognanco Terme"},{"id":"1269713","latitude":"45.55000000","longitude":"9.11666700","name":"Bollate"},{"id":"1269727","latitude":"45.76666700","longitude":"8.45000000","name":"Bolzano Novarese"},{"id":"1269746","latitude":"45.68333300","longitude":"9.55000000","name":"Bonate di Sopra"},{"id":"1269754","latitude":"46.03333300","longitude":"10.00000000","name":"Bondione"},{"id":"1269777","latitude":"45.95000000","longitude":"8.00000000","name":"Borca"},{"id":"1269780","latitude":"46.18333300","longitude":"8.45000000","name":"Borca Verzasco"},{"id":"1269785","latitude":"45.95000000","longitude":"9.71666700","name":"Bordogna"},{"id":"1269786","latitude":"45.28333300","longitude":"9.98333300","name":"Bordolano"},{"id":"1269811","latitude":"46.43333300","longitude":"9.28333300","name":"Borghetto"},{"id":"1269817","latitude":"45.21666700","longitude":"9.50000000","name":"Borghetto Lodigiano"},{"id":"1269856","latitude":"45.71666700","longitude":"9.88333300","name":"Borgo di Terzo"},{"id":"1269884","latitude":"45.70000000","longitude":"8.46666700","name":"Borgomanero"},{"id":"1269892","latitude":"45.96666700","longitude":"8.06666700","name":"Borgone"},{"id":"1269920","latitude":"44.96666700","longitude":"9.15000000","name":"Borgo Priolo"},{"id":"1269923","latitude":"44.93333300","longitude":"9.18333300","name":"Borgoratto"},{"id":"1269924","latitude":"44.93333300","longitude":"9.18333300","name":"Borgoratto Mormorolo"},{"id":"1269935","latitude":"45.35000000","longitude":"9.96666700","name":"Borgo San Giacomo"},{"id":"1269941","latitude":"45.46666700","longitude":"10.23333300","name":"Borgosatollo"},{"id":"1269946","latitude":"45.68333300","longitude":"8.60000000","name":"Borgo Ticino"},{"id":"1269961","latitude":"45.26666700","longitude":"9.21666700","name":"Bornasco"},{"id":"1269962","latitude":"45.93333300","longitude":"10.20000000","name":"Borno"},{"id":"1269971","latitude":"45.58333300","longitude":"8.85000000","name":"Borsano"},{"id":"1270017","latitude":"45.80000000","longitude":"9.28333300","name":"Bosisio Parini"},{"id":"1270027","latitude":"45.76666700","longitude":"9.60000000","name":"Botta"},{"id":"1270028","latitude":"45.63333300","longitude":"9.50000000","name":"Bottanuco"},{"id":"1270034","latitude":"45.53333300","longitude":"10.30000000","name":"Botticino Sera"},{"id":"1270052","latitude":"45.80000000","longitude":"10.26666700","name":"Bovegno"},{"id":"1270054","latitude":"45.58333300","longitude":"10.23333300","name":"Bovezzo"},{"id":"1270059","latitude":"45.50000000","longitude":"9.15000000","name":"Bovisa"},{"id":"1270060","latitude":"45.61666700","longitude":"9.13333300","name":"Bovisio"},{"id":"1270061","latitude":"45.61666700","longitude":"9.13333300","name":"Bovisio Masciago"},{"id":"1270062","latitude":"45.61666700","longitude":"9.13333300","name":"Bov\u00edsio-Masciago Milanese"},{"id":"1270096","latitude":"45.98333300","longitude":"10.33333300","name":"Braone"},{"id":"1270104","latitude":"45.83333300","longitude":"8.65000000","name":"Brebbia"},{"id":"1270114","latitude":"45.76666700","longitude":"8.30000000","name":"Breia"},{"id":"1270116","latitude":"45.60000000","longitude":"9.51666700","name":"Brembate"},{"id":"1270117","latitude":"45.81666700","longitude":"9.60000000","name":"Brembilla"},{"id":"1270118","latitude":"45.21666700","longitude":"9.56666700","name":"Brembio"},{"id":"1270121","latitude":"45.73333300","longitude":"9.18333300","name":"Brenna"},{"id":"1270125","latitude":"45.95000000","longitude":"10.30000000","name":"Breno"},{"id":"1270132","latitude":"45.55000000","longitude":"10.25000000","name":"Brescia"},{"id":"1270135","latitude":"45.08333300","longitude":"9.13333300","name":"Bressana Bottarone"},{"id":"1270136","latitude":"45.08333300","longitude":"9.13333300","name":"Bressana"},{"id":"1270139","latitude":"45.53333300","longitude":"9.18333300","name":"Bresso"},{"id":"1270152","latitude":"45.91666700","longitude":"9.13333300","name":"Brienno"},{"id":"1270154","latitude":"45.73333300","longitude":"8.45000000","name":"Briga Novarese"},{"id":"1270156","latitude":"45.53333300","longitude":"9.63333300","name":"Brignano Gera d'Adda"},{"id":"1270165","latitude":"45.90000000","longitude":"8.78333300","name":"Brinzio"},{"id":"1270171","latitude":"45.95000000","longitude":"8.73333300","name":"Brissago Valtravaglia"},{"id":"1270175","latitude":"45.73333300","longitude":"9.45000000","name":"Brivio"},{"id":"1270182","latitude":"45.06666700","longitude":"9.26666700","name":"Broni"},{"id":"1270199","latitude":"45.55000000","longitude":"9.30000000","name":"Brugherio"},{"id":"1270207","latitude":"45.85000000","longitude":"9.48333300","name":"Brumano"},{"id":"1270209","latitude":"45.81666700","longitude":"9.10000000","name":"Brunate"},{"id":"1270233","latitude":"45.53333300","longitude":"9.16666700","name":"Brusuglio"},{"id":"1270234","latitude":"45.53333300","longitude":"9.18333300","name":"Bruzzano"},{"id":"1270238","latitude":"46.08333300","longitude":"9.11666700","name":"Bubegno"},{"id":"1270262","latitude":"46.18333300","longitude":"9.38333300","name":"Bugiallo"},{"id":"1270264","latitude":"46.21666700","longitude":"8.16666700","name":"Bugliaga"},{"id":"1270265","latitude":"46.18333300","longitude":"9.66666700","name":"Buglio"},{"id":"1270266","latitude":"46.18333300","longitude":"9.66666700","name":"Buglio in Monte"},{"id":"1270267","latitude":"45.56666700","longitude":"9.15000000","name":"Bugnano"},{"id":"1270332","latitude":"45.61666700","longitude":"8.85000000","name":"Busto Arsizio"},{"id":"1270333","latitude":"45.55000000","longitude":"8.88333300","name":"Busto Garolfo"},{"id":"1270350","latitude":"44.95000000","longitude":"9.16666700","name":"Ca Boatti"},{"id":"1270359","latitude":"45.76666700","longitude":"9.01666700","name":"Caccivio"},{"id":"1270360","latitude":"45.76666700","longitude":"9.00000000","name":"Caccivio Colombaro"},{"id":"1270366","latitude":"46.05000000","longitude":"8.61666700","name":"Cadaglia"},{"id":"1270368","latitude":"46.30000000","longitude":"8.35000000","name":"Cadarese"},{"id":"1270369","latitude":"46.13333300","longitude":"8.26666700","name":"Caddo"},{"id":"1270371","latitude":"44.95000000","longitude":"9.16666700","name":"Ca de' Boatti"},{"id":"1270387","latitude":"45.35000000","longitude":"10.05000000","name":"Cadignano"},{"id":"1270390","latitude":"45.21666700","longitude":"10.35000000","name":"Cadimarco"},{"id":"1270391","latitude":"45.21666700","longitude":"10.35000000","name":"Ca'di Marco di Fiessa"},{"id":"1270410","latitude":"45.86666700","longitude":"9.23333300","name":"Caglio"},{"id":"1270413","latitude":"46.20000000","longitude":"9.86666700","name":"Cagnoletti"},{"id":"1270421","latitude":"45.75000000","longitude":"8.76666700","name":"Caidate"},{"id":"1270425","latitude":"45.70000000","longitude":"8.88333300","name":"Cairate"},{"id":"1270434","latitude":"46.06666700","longitude":"8.60000000","name":"Calachina"},{"id":"1270468","latitude":"45.61666700","longitude":"9.78333300","name":"Calcinate"},{"id":"1270469","latitude":"45.45000000","longitude":"10.40000000","name":"Calcinato"},{"id":"1270472","latitude":"45.50000000","longitude":"9.83333300","name":"Calcio"},{"id":"1270486","latitude":"45.63333300","longitude":"9.90000000","name":"Calepio"},{"id":"1270513","latitude":"45.68333300","longitude":"9.26666700","name":"Cal\u00f2"},{"id":"1270514","latitude":"45.80000000","longitude":"9.43333300","name":"Calolzio"},{"id":"1270515","latitude":"45.80000000","longitude":"9.43333300","name":"Calolziocorte"},{"id":"1270520","latitude":"46.01666700","longitude":"8.60000000","name":"Calpera"},{"id":"1270530","latitude":"45.68333300","longitude":"9.46666700","name":"Calusco d'Adda"},{"id":"1270538","latitude":"45.48333300","longitude":"9.60000000","name":"Calvenzano"},{"id":"1270541","latitude":"44.98333300","longitude":"9.16666700","name":"Calvignano"},{"id":"1270543","latitude":"45.33333300","longitude":"10.33333300","name":"Calvisano"},{"id":"1270552","latitude":"46.06666700","longitude":"9.16666700","name":"Cama"},{"id":"1270568","latitude":"45.56666700","longitude":"9.41666700","name":"Cambiago"},{"id":"1270570","latitude":"46.05000000","longitude":"8.20000000","name":"Camblione"},{"id":"1270573","latitude":"46.16666700","longitude":"8.61666700","name":"Camedo"},{"id":"1270579","latitude":"45.90000000","longitude":"9.65000000","name":"Camerata Cornello"},{"id":"1270607","latitude":"45.43333300","longitude":"9.73333300","name":"Camisano"},{"id":"1270612","latitude":"45.80000000","longitude":"9.11666700","name":"Camnago"},{"id":"1270613","latitude":"45.80000000","longitude":"9.11666700","name":"Camnago Volta"},{"id":"1270617","latitude":"45.80000000","longitude":"9.60000000","name":"Camorone"},{"id":"1270638","latitude":"45.65000000","longitude":"9.31666700","name":"Camparada"},{"id":"1270643","latitude":"46.13333300","longitude":"9.86666700","name":"Campeglio"},{"id":"1270644","latitude":"46.13333300","longitude":"9.86666700","name":"Campelli"},{"id":"1270646","latitude":"46.21666700","longitude":"10.00000000","name":"Campello"},{"id":"1270654","latitude":"46.11666700","longitude":"9.56666700","name":"Campiano"},{"id":"1270671","latitude":"45.96666700","longitude":"8.96666700","name":"Campione"},{"id":"1270674","latitude":"45.96666700","longitude":"8.96666700","name":"Campione d'Italia"},{"id":"1270682","latitude":"46.03333300","longitude":"8.28333300","name":"Campo Albino"},{"id":"1270688","latitude":"46.13333300","longitude":"9.65000000","name":"Campo"},{"id":"1270697","latitude":"45.90000000","longitude":"8.78333300","name":"Campo di Fiori"},{"id":"1270704","latitude":"46.40000000","longitude":"9.35000000","name":"Campodolcino"},{"id":"1270721","latitude":"46.10000000","longitude":"8.06666700","name":"Campolamana"},{"id":"1270778","latitude":"45.08333300","longitude":"9.25000000","name":"Campospinoso Albaredo"},{"id":"1270784","latitude":"46.11666700","longitude":"8.40000000","name":"Campra"},{"id":"1270804","latitude":"46.11666700","longitude":"9.45000000","name":"Canargo"},{"id":"1270833","latitude":"45.96666700","longitude":"8.41666700","name":"Candoglia-Albo"},{"id":"1270834","latitude":"45.96666700","longitude":"8.41666700","name":"Candoglia"},{"id":"1270840","latitude":"45.56666700","longitude":"8.93333300","name":"Canegrate"},{"id":"1270865","latitude":"46.01666700","longitude":"8.68333300","name":"Cannero"},{"id":"1270866","latitude":"46.01666700","longitude":"8.68333300","name":"Cannero Riviera"},{"id":"1270873","latitude":"45.05000000","longitude":"9.28333300","name":"Canneto Pavese"},{"id":"1270878","latitude":"46.06666700","longitude":"8.70000000","name":"Cannobio"},{"id":"1270886","latitude":"45.90000000","longitude":"8.73333300","name":"Canonica"},{"id":"1270891","latitude":"45.73333300","longitude":"9.40000000","name":"Canova"},{"id":"1270914","latitude":"45.88333300","longitude":"9.60000000","name":"Cantiglio"},{"id":"1270923","latitude":"45.73333300","longitude":"9.13333300","name":"Cant\u00f9"},{"id":"1270926","latitude":"45.85000000","longitude":"9.26666700","name":"Canzo"},{"id":"1270934","latitude":"46.18333300","longitude":"9.90000000","name":"C\u00e0 Paini"},{"id":"1270951","latitude":"45.33333300","longitude":"9.63333300","name":"Capergnanica"},{"id":"1270952","latitude":"45.33333300","longitude":"9.63333300","name":"Capergnanica di Sotto"},{"id":"1270953","latitude":"45.33333300","longitude":"9.63333300","name":"Capernanica di Sotto"},{"id":"1270971","latitude":"45.78333300","longitude":"9.56666700","name":"Capizzone"},{"id":"1270994","latitude":"45.80000000","longitude":"8.81666700","name":"Capolago"},{"id":"1271030","latitude":"45.43333300","longitude":"9.63333300","name":"Capralba"},{"id":"1271045","latitude":"45.61666700","longitude":"9.51666700","name":"Capriate San Gervasio"},{"id":"1271060","latitude":"45.75000000","longitude":"9.48333300","name":"Caprino Bergamasco"},{"id":"1271061","latitude":"45.75000000","longitude":"9.48333300","name":"Caprino"},{"id":"1271063","latitude":"45.63333300","longitude":"9.93333300","name":"Capriolo"},{"id":"1271089","latitude":"45.68333300","longitude":"9.23333300","name":"Carate Brianza"},{"id":"1271090","latitude":"45.68333300","longitude":"9.23333300","name":"Carate"},{"id":"1271091","latitude":"45.50000000","longitude":"9.63333300","name":"Caravaggio"},{"id":"1271092","latitude":"45.86666700","longitude":"8.65000000","name":"Caravate"},{"id":"1271099","latitude":"45.16666700","longitude":"9.05000000","name":"Carbonara al Ticino"},{"id":"1271122","latitude":"45.91666700","longitude":"8.03333300","name":"Carcoforo"},{"id":"1271136","latitude":"45.81666700","longitude":"9.26666700","name":"Carella"},{"id":"1271138","latitude":"45.80000000","longitude":"9.45000000","name":"Carenno"},{"id":"1271166","latitude":"45.70000000","longitude":"9.10000000","name":"Carimate"},{"id":"1271177","latitude":"46.05000000","longitude":"9.15000000","name":"Carlazzo"},{"id":"1271188","latitude":"46.03333300","longitude":"8.70000000","name":"Carmine"},{"id":"1271189","latitude":"45.65000000","longitude":"9.38333300","name":"Carnaa"},{"id":"1271190","latitude":"45.73333300","longitude":"8.83333300","name":"Carnago"},{"id":"1271192","latitude":"45.65000000","longitude":"9.38333300","name":"Carnate"},{"id":"1271199","latitude":"46.01666700","longitude":"9.78333300","name":"Carona"},{"id":"1271219","latitude":"45.36666700","longitude":"10.43333300","name":"Carpenedolo"},{"id":"1271223","latitude":"45.33333300","longitude":"9.26666700","name":"Carpiano"},{"id":"1271247","latitude":"46.11666700","longitude":"9.35000000","name":"Carriola"},{"id":"1271268","latitude":"45.55000000","longitude":"9.33333300","name":"Carugate"},{"id":"1271273","latitude":"45.70000000","longitude":"9.46666700","name":"Carvico"},{"id":"1271274","latitude":"46.20000000","longitude":"8.36666700","name":"Carvirone"},{"id":"1271275","latitude":"45.68333300","longitude":"9.53333300","name":"Carvisi"},{"id":"1271276","latitude":"45.51666700","longitude":"10.45000000","name":"Carzago della Riviera"},{"id":"1271277","latitude":"45.71666700","longitude":"10.08333300","name":"Carzano"},{"id":"1271513","latitude":"46.35000000","longitude":"8.30000000","name":"Casa la Satta"},{"id":"1271524","latitude":"45.25000000","longitude":"9.96666700","name":"Casalbuttano"},{"id":"1271525","latitude":"45.25000000","longitude":"9.96666700","name":"Casalbuttano ed Uniti"},{"id":"1271565","latitude":"45.91666700","longitude":"8.41666700","name":"Casale Corte Cerro"},{"id":"1271599","latitude":"46.08333300","longitude":"9.81666700","name":"Casale la Costa"},{"id":"1271627","latitude":"46.15000000","longitude":"10.06666700","name":"Casale Piali"},{"id":"1271658","latitude":"45.31666700","longitude":"9.61666700","name":"Casaletto Ceredano"},{"id":"1271689","latitude":"45.35000000","longitude":"9.36666700","name":"Casalmaiocco"},{"id":"1271690","latitude":"45.28333300","longitude":"9.90000000","name":"Casalmorano"},{"id":"1271691","latitude":"45.25000000","longitude":"10.40000000","name":"Casalmoro"},{"id":"1271699","latitude":"45.25000000","longitude":"10.46666700","name":"Casaloldo"},{"id":"1271700","latitude":"45.25000000","longitude":"10.46666700","name":"Casaloldo il Palazzio"},{"id":"1271723","latitude":"45.90000000","longitude":"8.71666700","name":"Casalzuigno"},{"id":"1271830","latitude":"46.15000000","longitude":"10.06666700","name":"Casa Piali"},{"id":"1271878","latitude":"46.03333300","longitude":"9.38333300","name":"Casargo"},{"id":"1271880","latitude":"45.30000000","longitude":"9.10000000","name":"Casarile"},{"id":"1271970","latitude":"45.70000000","longitude":"9.31666700","name":"Casatenaovo"},{"id":"1271971","latitude":"45.70000000","longitude":"9.31666700","name":"Casatenovo"},{"id":"1271972","latitude":"45.70000000","longitude":"9.31666700","name":"Casatenuovo"},{"id":"1271979","latitude":"45.05000000","longitude":"9.11666700","name":"Casatisma"},{"id":"1272023","latitude":"45.75000000","longitude":"9.90000000","name":"Casazza"},{"id":"1272034","latitude":"45.63333300","longitude":"8.75000000","name":"Cascina Costa"},{"id":"1272035","latitude":"45.63333300","longitude":"8.75000000","name":"Cascina della Costa"},{"id":"1272044","latitude":"45.60000000","longitude":"9.66666700","name":"Cascina Nuovo"},{"id":"1272098","latitude":"46.10000000","longitude":"9.98333300","name":"Case del Forno"},{"id":"1272124","latitude":"45.00000000","longitude":"8.91666700","name":"Casei Gerola"},{"id":"1272139","latitude":"45.26666700","longitude":"9.35000000","name":"Caselle Lurani"},{"id":"1272292","latitude":"45.88333300","longitude":"10.18333300","name":"Casino Boario"},{"id":"1272302","latitude":"45.48333300","longitude":"9.56666700","name":"Casirate d'Adda"},{"id":"1272303","latitude":"45.30000000","longitude":"9.10000000","name":"Casirile"},{"id":"1272305","latitude":"45.80000000","longitude":"9.85000000","name":"Casnigo"},{"id":"1272323","latitude":"46.45000000","longitude":"9.36666700","name":"Casone"},{"id":"1272336","latitude":"45.25000000","longitude":"8.78333300","name":"Casoni di Sant'Albino"},{"id":"1272340","latitude":"45.31666700","longitude":"9.01666700","name":"Casorate Primo"},{"id":"1272341","latitude":"45.66666700","longitude":"8.73333300","name":"Casorate Sempione"},{"id":"1272342","latitude":"45.51666700","longitude":"8.90000000","name":"Casorezzo"},{"id":"1272352","latitude":"46.26666700","longitude":"9.86666700","name":"Caspoggio"},{"id":"1272366","latitude":"45.53333300","longitude":"9.51666700","name":"Cassano d'Adda"},{"id":"1272373","latitude":"45.75000000","longitude":"9.90000000","name":"Cassazza"},{"id":"1272380","latitude":"45.96666700","longitude":"9.61666700","name":"Cassiglio"},{"id":"1272381","latitude":"46.33333300","longitude":"9.46666700","name":"Cassinaccia"},{"id":"1272382","latitude":"45.51666700","longitude":"9.36666700","name":"Cassina de' Pecchi"},{"id":"1272425","latitude":"45.00000000","longitude":"9.11666700","name":"Casteggio"},{"id":"1272426","latitude":"45.56666700","longitude":"10.11666700","name":"Castegnato"},{"id":"1272497","latitude":"45.45000000","longitude":"9.71666700","name":"Castel Gabbiano"},{"id":"1272502","latitude":"45.30000000","longitude":"10.46666700","name":"Castel Goffredo"},{"id":"1272530","latitude":"45.61666700","longitude":"8.90000000","name":"Castellanza"},{"id":"1272545","latitude":"45.30000000","longitude":"9.76666700","name":"Castelleone"},{"id":"1272547","latitude":"45.40000000","longitude":"8.93333300","name":"Castelletto"},{"id":"1272549","latitude":"45.40000000","longitude":"8.93333300","name":"Castelletto Mendosio"},{"id":"1272551","latitude":"45.71666700","longitude":"8.63333300","name":"Castelletto sopra Ticino"},{"id":"1272555","latitude":"45.63333300","longitude":"9.90000000","name":"Castelli Calepio"},{"id":"1272568","latitude":"45.56666700","longitude":"10.50000000","name":"Castello"},{"id":"1272578","latitude":"46.15000000","longitude":"10.00000000","name":"Castello dell'Acqua"},{"id":"1272608","latitude":"46.01666700","longitude":"9.05000000","name":"Castello Valsolda"},{"id":"1272631","latitude":"45.48333300","longitude":"10.13333300","name":"Castel Mella"},{"id":"1272652","latitude":"45.23333300","longitude":"10.45000000","name":"Castelnuovo"},{"id":"1272682","latitude":"44.98333300","longitude":"8.88333300","name":"Castelnuovo Scrivia"},{"id":"1272711","latitude":"45.06666700","longitude":"9.43333300","name":"Castel San Giovanni"},{"id":"1272730","latitude":"45.71666700","longitude":"8.86666700","name":"Castelseprio"},{"id":"1272744","latitude":"45.43333300","longitude":"10.51666700","name":"Castel Venzago"},{"id":"1272759","latitude":"45.46666700","longitude":"10.30000000","name":"Castenedolo"},{"id":"1272787","latitude":"45.38333300","longitude":"10.48333300","name":"Castiglione delle Stiviere"},{"id":"1272792","latitude":"45.95000000","longitude":"9.08333300","name":"Castiglione d'Intelvi"},{"id":"1272802","latitude":"45.76666700","longitude":"8.86666700","name":"Castiglione Olona"},{"id":"1272818","latitude":"45.90000000","longitude":"10.06666700","name":"Castione"},{"id":"1272821","latitude":"45.90000000","longitude":"10.06666700","name":"Castione della Presolana"},{"id":"1272828","latitude":"45.70000000","longitude":"10.31666700","name":"Casto"},{"id":"1272838","latitude":"45.80000000","longitude":"10.06666700","name":"Castro"},{"id":"1272847","latitude":"45.75000000","longitude":"8.81666700","name":"Castronno"},{"id":"1272859","latitude":"46.21666700","longitude":"9.63333300","name":"Cataeggio"},{"id":"1272875","latitude":"46.21666700","longitude":"9.63333300","name":"Cattaeggio"},{"id":"1272884","latitude":"46.35000000","longitude":"9.31666700","name":"Caurga"},{"id":"1272912","latitude":"45.13333300","longitude":"9.11666700","name":"Cava Manara"},{"id":"1272917","latitude":"46.08333300","longitude":"9.10000000","name":"Cavargna"},{"id":"1272918","latitude":"45.70000000","longitude":"8.80000000","name":"Cavaria"},{"id":"1272919","latitude":"45.70000000","longitude":"8.80000000","name":"Cavaria con Premezzo"},{"id":"1272934","latitude":"46.28333300","longitude":"9.83333300","name":"Cave d'Ardesia"},{"id":"1272937","latitude":"45.28333300","longitude":"9.60000000","name":"Cavenago d'Adda"},{"id":"1272938","latitude":"45.58333300","longitude":"9.41666700","name":"Cavenago di Brianza"},{"id":"1272947","latitude":"46.06666700","longitude":"9.16666700","name":"Cavia"},{"id":"1272948","latitude":"45.28333300","longitude":"9.56666700","name":"Caviaga"},{"id":"1272970","latitude":"45.58333300","longitude":"10.01666700","name":"Cazzago San Martino"},{"id":"1272972","latitude":"45.80000000","longitude":"9.88333300","name":"Cazzano Sant'Andrea"},{"id":"1272984","latitude":"45.68333300","longitude":"10.50000000","name":"Cecino"},{"id":"1272989","latitude":"46.15000000","longitude":"9.76666700","name":"Cedrasco"},{"id":"1273035","latitude":"45.75000000","longitude":"8.30000000","name":"Cellio"},{"id":"1273051","latitude":"45.78333300","longitude":"9.81666700","name":"Cene"},{"id":"1273076","latitude":"45.80000000","longitude":"9.53333300","name":"Cepino"},{"id":"1273108","latitude":"46.15000000","longitude":"9.50000000","name":"Cercino"},{"id":"1273131","latitude":"45.86666700","longitude":"9.98333300","name":"Cerete"},{"id":"1273135","latitude":"45.20000000","longitude":"8.70000000","name":"Cergnago"},{"id":"1273141","latitude":"45.63333300","longitude":"9.08333300","name":"Ceriano"},{"id":"1273142","latitude":"45.63333300","longitude":"9.08333300","name":"Ceriano Laghetto"},{"id":"1273152","latitude":"45.70000000","longitude":"9.08333300","name":"Cermenate"},{"id":"1273156","latitude":"45.83333300","longitude":"9.06666700","name":"Cernobbio"},{"id":"1273157","latitude":"45.51666700","longitude":"9.31666700","name":"Cernusco"},{"id":"1273158","latitude":"45.51666700","longitude":"9.31666700","name":"Cernusco sul Naviglio"},{"id":"1273189","latitude":"45.60000000","longitude":"8.95000000","name":"Cerro"},{"id":"1273191","latitude":"45.90000000","longitude":"8.60000000","name":"Cerro Lago Maggiore"},{"id":"1273192","latitude":"45.60000000","longitude":"8.95000000","name":"Cerro Maggiore"},{"id":"1273200","latitude":"45.25000000","longitude":"9.15000000","name":"Certosa di Pavia"},{"id":"1273211","latitude":"46.00000000","longitude":"10.31666700","name":"Cervedo"},{"id":"1273213","latitude":"46.00000000","longitude":"10.31666700","name":"Cerveno"},{"id":"1273215","latitude":"45.05000000","longitude":"9.01666700","name":"Cervesina"},{"id":"1273235","latitude":"45.63333300","longitude":"9.13333300","name":"Cesano"},{"id":"1273236","latitude":"45.63333300","longitude":"9.13333300","name":"Cesano Maderno"},{"id":"1273238","latitude":"45.83333300","longitude":"8.36666700","name":"Cesara"},{"id":"1273274","latitude":"46.18333300","longitude":"9.61666700","name":"Cevo"},{"id":"1273310","latitude":"46.08333300","longitude":"8.11666700","name":"Cheggio"},{"id":"1273339","latitude":"44.96666700","longitude":"9.30000000","name":"Chiapeto"},{"id":"1273356","latitude":"46.31666700","longitude":"9.78333300","name":"Chiareggio"},{"id":"1273357","latitude":"45.53333300","longitude":"9.93333300","name":"Chiari"},{"id":"1273373","latitude":"46.31666700","longitude":"9.40000000","name":"Chiavenna"},{"id":"1273382","latitude":"46.06666700","longitude":"8.28333300","name":"Chiesa"},{"id":"1273390","latitude":"46.26666700","longitude":"9.85000000","name":"Chiesa di Valmalenco"},{"id":"1273393","latitude":"46.26666700","longitude":"9.85000000","name":"Chiesa in Valmalenco"},{"id":"1273425","latitude":"46.33333300","longitude":"8.38333300","name":"Chioso"},{"id":"1273439","latitude":"46.16666700","longitude":"9.98333300","name":"Chiuro"},{"id":"1273498","latitude":"46.00000000","longitude":"8.48333300","name":"Cicogna"},{"id":"1273508","latitude":"45.36666700","longitude":"10.10000000","name":"Cignano"},{"id":"1273510","latitude":"45.26666700","longitude":"9.98333300","name":"Cignone"},{"id":"1273511","latitude":"45.30000000","longitude":"10.18333300","name":"Cigole"},{"id":"1273515","latitude":"46.01666700","longitude":"9.08333300","name":"Cima"},{"id":"1273533","latitude":"45.55000000","longitude":"9.21666700","name":"Cinisello Balsamo"},{"id":"1273534","latitude":"45.55000000","longitude":"9.21666700","name":"Cinisello"},{"id":"1273562","latitude":"45.70000000","longitude":"9.00000000","name":"Cirimido"},{"id":"1273568","latitude":"45.73333300","longitude":"9.48333300","name":"Cisano Bergamasco"},{"id":"1273570","latitude":"45.73333300","longitude":"9.48333300","name":"Cisano"},{"id":"1273572","latitude":"45.58333300","longitude":"9.60000000","name":"Ciserano"},{"id":"1273575","latitude":"45.65000000","longitude":"8.96666700","name":"Cislago"},{"id":"1273576","latitude":"45.45000000","longitude":"8.98333300","name":"Cisliano"},{"id":"1273607","latitude":"45.90000000","longitude":"8.66666700","name":"Cittiglio"},{"id":"1273615","latitude":"45.55000000","longitude":"9.83333300","name":"Cividate al Piano"},{"id":"1273616","latitude":"45.95000000","longitude":"10.28333300","name":"Cividate Camuno"},{"id":"1273617","latitude":"45.95000000","longitude":"10.28333300","name":"Cividate"},{"id":"1273658","latitude":"45.46666700","longitude":"9.93333300","name":"Cizzago"},{"id":"1273659","latitude":"46.00000000","longitude":"9.08333300","name":"Claino"},{"id":"1273660","latitude":"45.75000000","longitude":"9.60000000","name":"Clanezzo"},{"id":"1273684","latitude":"45.66666700","longitude":"10.01666700","name":"Clusane"},{"id":"1273685","latitude":"45.66666700","longitude":"10.01666700","name":"Clusane sul Lago"},{"id":"1273686","latitude":"45.88333300","longitude":"9.95000000","name":"Clusone"},{"id":"1273687","latitude":"46.25000000","longitude":"8.23333300","name":"Coat\u00e9"},{"id":"1273691","latitude":"45.56666700","longitude":"9.96666700","name":"Coccaglio"},{"id":"1273704","latitude":"45.86666700","longitude":"8.66666700","name":"Cocquio Trevisago"},{"id":"1273714","latitude":"44.96666700","longitude":"9.05000000","name":"Codevilla"},{"id":"1273728","latitude":"46.21666700","longitude":"8.25000000","name":"Coggia"},{"id":"1273744","latitude":"46.13333300","longitude":"8.40000000","name":"Coimo"},{"id":"1273767","latitude":"45.96666700","longitude":"10.06666700","name":"Colere"},{"id":"1273770","latitude":"46.13333300","longitude":"9.36666700","name":"Colico"},{"id":"1273932","latitude":"45.80000000","longitude":"10.33333300","name":"Collio"},{"id":"1273953","latitude":"45.58333300","longitude":"9.93333300","name":"Cologne"},{"id":"1273954","latitude":"45.58333300","longitude":"9.70000000","name":"Cologno al Serio"},{"id":"1273955","latitude":"45.53333300","longitude":"9.28333300","name":"Cologno"},{"id":"1273958","latitude":"45.53333300","longitude":"9.28333300","name":"Cologno Monzese"},{"id":"1273959","latitude":"45.58333300","longitude":"9.70000000","name":"Cologno sul Serio"},{"id":"1273963","latitude":"44.95000000","longitude":"9.10000000","name":"Colombara"},{"id":"1273967","latitude":"45.63333300","longitude":"9.98333300","name":"Colombaro"},{"id":"1273973","latitude":"46.18333300","longitude":"8.16666700","name":"Colonia di Confine Camona"},{"id":"1273982","latitude":"46.03333300","longitude":"8.25000000","name":"Coloria"},{"id":"1273995","latitude":"45.36666700","longitude":"9.33333300","name":"Colturano"},{"id":"1273998","latitude":"46.38333300","longitude":"9.31666700","name":"Colvedro"},{"id":"1274000","latitude":"45.76666700","longitude":"8.66666700","name":"Comabbio"},{"id":"1274004","latitude":"45.43333300","longitude":"9.45000000","name":"Comazzo"},{"id":"1274011","latitude":"45.83333300","longitude":"8.75000000","name":"Comerio"},{"id":"1274013","latitude":"45.46666700","longitude":"9.95000000","name":"Comezzano"},{"id":"1274022","latitude":"45.78333300","longitude":"9.08333300","name":"Como"},{"id":"1274034","latitude":"45.60000000","longitude":"9.65000000","name":"Comun Nuovo"},{"id":"1274053","latitude":"45.58333300","longitude":"9.33333300","name":"Concorezzo"},{"id":"1274054","latitude":"45.58333300","longitude":"9.33333300","name":"Concorrezzo"},{"id":"1274121","latitude":"45.20000000","longitude":"9.31666700","name":"Copiano"},{"id":"1274127","latitude":"45.06666700","longitude":"8.96666700","name":"Corana"},{"id":"1274135","latitude":"45.46666700","longitude":"8.91666700","name":"Corbetta"},{"id":"1274161","latitude":"45.75000000","longitude":"8.68333300","name":"Corgeno"},{"id":"1274181","latitude":"45.53333300","longitude":"9.16666700","name":"Cormano"},{"id":"1274185","latitude":"45.88333300","longitude":"10.16666700","name":"Corna"},{"id":"1274188","latitude":"45.85000000","longitude":"9.73333300","name":"Cornalba"},{"id":"1274189","latitude":"45.03333300","longitude":"8.90000000","name":"Cornale"},{"id":"1274192","latitude":"45.50000000","longitude":"9.01666700","name":"Cornaredo"},{"id":"1274193","latitude":"45.65000000","longitude":"9.46666700","name":"Cornate"},{"id":"1274194","latitude":"45.65000000","longitude":"9.46666700","name":"Cornate d'Adda"},{"id":"1274242","latitude":"45.43333300","longitude":"9.11666700","name":"Corsico"},{"id":"1274244","latitude":"46.03333300","longitude":"8.56666700","name":"Cortaccio"},{"id":"1274256","latitude":"46.26666700","longitude":"8.26666700","name":"Corte Cerino"},{"id":"1274258","latitude":"45.80000000","longitude":"9.43333300","name":"Corte"},{"id":"1274260","latitude":"45.26666700","longitude":"10.00000000","name":"Corte dei Cortesi"},{"id":"1274262","latitude":"45.63333300","longitude":"10.01666700","name":"Corte Franca"},{"id":"1274266","latitude":"45.16666700","longitude":"9.36666700","name":"Corteleona"},{"id":"1274272","latitude":"45.16666700","longitude":"9.36666700","name":"Corteolona"},{"id":"1274281","latitude":"45.41666700","longitude":"10.10000000","name":"Corticelle Pieve"},{"id":"1274285","latitude":"46.16666700","longitude":"8.51666700","name":"Cortignasco"},{"id":"1274288","latitude":"46.31666700","longitude":"9.41666700","name":"Cortinaccia"},{"id":"1274339","latitude":"45.88333300","longitude":"9.60000000","name":"Costa di Bassano"},{"id":"1274340","latitude":"45.66666700","longitude":"9.78333300","name":"Costa di Mezzate"},{"id":"1274341","latitude":"45.66666700","longitude":"9.78333300","name":"Costa di Monticelli"},{"id":"1274360","latitude":"45.80000000","longitude":"9.50000000","name":"Costa Valle Imagna"},{"id":"1274362","latitude":"45.85000000","longitude":"10.10000000","name":"Costa Volpino"},{"id":"1274374","latitude":"46.30000000","longitude":"8.26666700","name":"Cotogno"},{"id":"1274385","latitude":"45.48333300","longitude":"9.76666700","name":"Covo"},{"id":"1274394","latitude":"46.13333300","longitude":"8.48333300","name":"Craveggia"},{"id":"1274395","latitude":"46.23333300","longitude":"8.31666700","name":"Cravegna"},{"id":"1274402","latitude":"45.30000000","longitude":"9.65000000","name":"Credera"},{"id":"1274404","latitude":"45.36666700","longitude":"9.68333300","name":"Crema"},{"id":"1274405","latitude":"45.93333300","longitude":"9.46666700","name":"Cremeno"},{"id":"1274412","latitude":"45.51666700","longitude":"9.25000000","name":"Crescenzago"},{"id":"1274413","latitude":"46.15000000","longitude":"9.41666700","name":"Cresciasca"},{"id":"1274418","latitude":"45.35000000","longitude":"9.56666700","name":"Crespiatica"},{"id":"1274433","latitude":"46.10000000","longitude":"8.53333300","name":"Cr\u00e8ves"},{"id":"1274434","latitude":"46.15000000","longitude":"8.30000000","name":"Crevola"},{"id":"1274435","latitude":"46.15000000","longitude":"8.30000000","name":"Crevola d'Ossola"},{"id":"1274470","latitude":"46.21666700","longitude":"8.31666700","name":"Crodo"},{"id":"1274474","latitude":"45.73333300","longitude":"10.48333300","name":"Crone"},{"id":"1274490","latitude":"46.26666700","longitude":"8.30000000","name":"Croveo"},{"id":"1274493","latitude":"45.73333300","longitude":"8.75000000","name":"Crugnola"},{"id":"1274494","latitude":"45.88333300","longitude":"8.41666700","name":"Crusinallo"},{"id":"1274497","latitude":"44.96666700","longitude":"9.26666700","name":"Cuccagna"},{"id":"1274514","latitude":"45.36666700","longitude":"9.33333300","name":"Culturano"},{"id":"1274519","latitude":"45.35000000","longitude":"9.83333300","name":"Cumignano sul Naviglio"},{"id":"1274536","latitude":"45.68333300","longitude":"9.61666700","name":"Curdomo"},{"id":"1274537","latitude":"45.70000000","longitude":"10.06666700","name":"Cure"},{"id":"1274539","latitude":"46.06666700","longitude":"8.80000000","name":"Curiglia"},{"id":"1274543","latitude":"45.68333300","longitude":"9.61666700","name":"Curno"},{"id":"1274548","latitude":"45.55000000","longitude":"9.18333300","name":"Cusano Milanino"},{"id":"1274557","latitude":"45.98333300","longitude":"9.60000000","name":"Cusio"},{"id":"1274565","latitude":"46.00000000","longitude":"8.36666700","name":"Cuzzago"},{"id":"1274566","latitude":"46.05000000","longitude":"8.28333300","name":"Cuzzego"},{"id":"1274567","latitude":"45.56666700","longitude":"8.86666700","name":"Dairago"},{"id":"1274569","latitude":"45.65000000","longitude":"9.60000000","name":"Dalmine"},{"id":"1274575","latitude":"45.88333300","longitude":"10.18333300","name":"Darfo"},{"id":"1274583","latitude":"46.15000000","longitude":"9.60000000","name":"Dazio"},{"id":"1274604","latitude":"46.13333300","longitude":"9.45000000","name":"Delebio"},{"id":"1274609","latitude":"45.41666700","longitude":"10.06666700","name":"Dello"},{"id":"1274618","latitude":"46.06666700","longitude":"9.30000000","name":"Dervio"},{"id":"1274620","latitude":"46.15000000","longitude":"9.61666700","name":"Desco"},{"id":"1274622","latitude":"45.76666700","longitude":"9.78333300","name":"Desenzano al Serio"},{"id":"1274623","latitude":"45.46666700","longitude":"10.53333300","name":"Desenzano del Garda"},{"id":"1274624","latitude":"45.46666700","longitude":"10.53333300","name":"Desenzano"},{"id":"1274625","latitude":"45.46666700","longitude":"10.53333300","name":"Desenzano sul Lago"},{"id":"1274628","latitude":"45.61666700","longitude":"9.21666700","name":"Desio"},{"id":"1274633","latitude":"45.98333300","longitude":"10.08333300","name":"Dezzo"},{"id":"1274634","latitude":"45.98333300","longitude":"10.08333300","name":"Dezzo di Scalve"},{"id":"1274665","latitude":"45.93333300","longitude":"9.10000000","name":"Dizzasco"},{"id":"1274703","latitude":"46.15000000","longitude":"9.31666700","name":"Domaso"},{"id":"1274713","latitude":"46.11666700","longitude":"8.28333300","name":"Domodossola"},{"id":"1274720","latitude":"46.01666700","longitude":"8.65000000","name":"Donego"},{"id":"1274721","latitude":"46.11666700","longitude":"9.28333300","name":"Dongo"},{"id":"1274740","latitude":"45.91666700","longitude":"10.05000000","name":"Dorga"},{"id":"1274747","latitude":"46.10000000","longitude":"9.31666700","name":"Dorio"},{"id":"1274748","latitude":"45.15000000","longitude":"8.95000000","name":"Dorno"},{"id":"1274757","latitude":"45.95000000","longitude":"10.10000000","name":"Dosso"},{"id":"1274763","latitude":"45.36666700","longitude":"9.53333300","name":"Dovera"},{"id":"1274785","latitude":"45.50000000","longitude":"10.46666700","name":"Drugolo"},{"id":"1274786","latitude":"46.13333300","longitude":"8.43333300","name":"Druogno"},{"id":"1274790","latitude":"46.15000000","longitude":"9.45000000","name":"Dubino"},{"id":"1274793","latitude":"46.03333300","longitude":"8.78333300","name":"Due Cossani"},{"id":"1274801","latitude":"46.01666700","longitude":"8.78333300","name":"Dumenza"},{"id":"1274837","latitude":"45.80000000","longitude":"9.98333300","name":"Endine"},{"id":"1274838","latitude":"45.80000000","longitude":"9.98333300","name":"Endine Gaiano"},{"id":"1274855","latitude":"45.80000000","longitude":"9.25000000","name":"Erba"},{"id":"1274879","latitude":"45.91666700","longitude":"10.25000000","name":"Esine"},{"id":"1274880","latitude":"45.98333300","longitude":"9.33333300","name":"Esino Lario"},{"id":"1274881","latitude":"45.78333300","longitude":"10.01666700","name":"Esmate"},{"id":"1274908","latitude":"46.15000000","longitude":"9.90000000","name":"Faedo"},{"id":"1274909","latitude":"46.15000000","longitude":"9.90000000","name":"Faedo Valtellino"},{"id":"1274925","latitude":"45.66666700","longitude":"8.86666700","name":"Fagnano"},{"id":"1274926","latitude":"45.66666700","longitude":"8.86666700","name":"Fagnano Olona"},{"id":"1274966","latitude":"46.06666700","longitude":"8.58333300","name":"Falmenta"},{"id":"1274989","latitude":"45.55000000","longitude":"9.51666700","name":"Fara Gera d'Adda"},{"id":"1274999","latitude":"45.36666700","longitude":"9.96666700","name":"Farfengo"},{"id":"1275099","latitude":"46.05000000","longitude":"9.55000000","name":"Fenile"},{"id":"1275114","latitude":"45.61666700","longitude":"8.75000000","name":"Ferno"},{"id":"1275133","latitude":"45.11666700","longitude":"8.86666700","name":"Ferrera Erbognone"},{"id":"1275142","latitude":"45.90000000","longitude":"9.91666700","name":"Festi Rasini"},{"id":"1275179","latitude":"46.13333300","longitude":"9.86666700","name":"Fienili di Campeglio"},{"id":"1275186","latitude":"45.23333300","longitude":"10.31666700","name":"Fiesse"},{"id":"1275212","latitude":"45.16666700","longitude":"9.31666700","name":"Filighera"},{"id":"1275228","latitude":"45.75000000","longitude":"9.05000000","name":"Fino"},{"id":"1275229","latitude":"45.75000000","longitude":"9.05000000","name":"Fino Mornasco"},{"id":"1275238","latitude":"45.86666700","longitude":"9.91666700","name":"Fiorine"},{"id":"1275259","latitude":"46.01666700","longitude":"9.95000000","name":"Fiumenero"},{"id":"1275283","latitude":"45.48333300","longitude":"10.18333300","name":"Fleri"},{"id":"1275285","latitude":"45.48333300","longitude":"10.18333300","name":"Flero"},{"id":"1275301","latitude":"45.88333300","longitude":"8.16666700","name":"Fobello"},{"id":"1275348","latitude":"46.01666700","longitude":"10.20000000","name":"Fondi"},{"id":"1275355","latitude":"46.20000000","longitude":"8.51666700","name":"Fonmonfracchio"},{"id":"1275362","latitude":"46.20000000","longitude":"8.23333300","name":"Fontana"},{"id":"1275378","latitude":"45.45000000","longitude":"9.80000000","name":"Fontanella"},{"id":"1275407","latitude":"46.11666700","longitude":"8.20000000","name":"Fonti"},{"id":"1275412","latitude":"46.13333300","longitude":"9.93333300","name":"Foppa"},{"id":"1275415","latitude":"46.05000000","longitude":"9.75000000","name":"Foppolo"},{"id":"1275436","latitude":"46.20000000","longitude":"8.41666700","name":"Forgnone"},{"id":"1275445","latitude":"46.36666700","longitude":"8.43333300","name":"Formazza"},{"id":"1275470","latitude":"45.50000000","longitude":"10.16666700","name":"Fornacia"},{"id":"1275474","latitude":"45.50000000","longitude":"10.16666700","name":"Fornaci"},{"id":"1275483","latitude":"45.01666700","longitude":"9.38333300","name":"Fornello"},{"id":"1275498","latitude":"45.93333300","longitude":"8.28333300","name":"Forno di Omegna"},{"id":"1275502","latitude":"45.93333300","longitude":"8.28333300","name":"Forno"},{"id":"1275508","latitude":"45.50000000","longitude":"9.68333300","name":"Fornovo di San Giovanni"},{"id":"1275511","latitude":"45.50000000","longitude":"9.68333300","name":"Fornovo San Giovanni"},{"id":"1275567","latitude":"46.35000000","longitude":"8.41666700","name":"Fracchie"},{"id":"1275568","latitude":"46.03333300","longitude":"9.65000000","name":"Fraccia"},{"id":"1275613","latitude":"46.20000000","longitude":"9.48333300","name":"Frasnedo"},{"id":"1275681","latitude":"46.41666700","longitude":"8.40000000","name":"Frua di Sopra"},{"id":"1275682","latitude":"46.40000000","longitude":"8.40000000","name":"Frua"},{"id":"1275712","latitude":"46.15000000","longitude":"9.73333300","name":"Fusine"},{"id":"1275721","latitude":"44.95000000","longitude":"9.18333300","name":"Gabbione"},{"id":"1275737","latitude":"45.40000000","longitude":"9.03333300","name":"Gaggiano"},{"id":"1275784","latitude":"45.81666700","longitude":"9.38333300","name":"Galbiate"},{"id":"1275791","latitude":"45.66666700","longitude":"8.78333300","name":"Gallarate"},{"id":"1275814","latitude":"45.43333300","longitude":"9.83333300","name":"Gallignano"},{"id":"1275820","latitude":"46.35000000","longitude":"9.35000000","name":"Gallivaggio"},{"id":"1275840","latitude":"45.25000000","longitude":"10.30000000","name":"Gambara"},{"id":"1275853","latitude":"45.25000000","longitude":"8.85000000","name":"Gambol\u00f2"},{"id":"1275858","latitude":"45.81666700","longitude":"9.90000000","name":"Gandino"},{"id":"1275861","latitude":"45.90000000","longitude":"8.81666700","name":"Ganna"},{"id":"1275866","latitude":"45.56666700","longitude":"9.06666700","name":"Garbagnate Milanese"},{"id":"1275872","latitude":"45.68333300","longitude":"10.18333300","name":"Gardone Val Trompia"},{"id":"1275883","latitude":"45.20000000","longitude":"8.91666700","name":"Garlasco"},{"id":"1275891","latitude":"46.13333300","longitude":"9.25000000","name":"Garzeno"},{"id":"1275907","latitude":"45.58333300","longitude":"10.43333300","name":"Gavardo"},{"id":"1275919","latitude":"45.83333300","longitude":"8.71666700","name":"Gavirate"},{"id":"1275926","latitude":"45.76666700","longitude":"8.81666700","name":"Gazzada"},{"id":"1275927","latitude":"45.80000000","longitude":"9.83333300","name":"Gazzaniga"},{"id":"1275946","latitude":"45.88333300","longitude":"8.66666700","name":"Gemonio"},{"id":"1275952","latitude":"45.33333300","longitude":"9.88333300","name":"Genivolta"},{"id":"1275967","latitude":"45.16666700","longitude":"9.35000000","name":"Genzone"},{"id":"1275973","latitude":"46.16666700","longitude":"9.36666700","name":"Gera"},{"id":"1275974","latitude":"46.16666700","longitude":"9.36666700","name":"Gera Lario"},{"id":"1275980","latitude":"45.20000000","longitude":"9.35000000","name":"Gerenzago"},{"id":"1275988","latitude":"46.05000000","longitude":"9.53333300","name":"Gerola Alta"},{"id":"1275989","latitude":"46.05000000","longitude":"9.53333300","name":"Gerola"},{"id":"1275990","latitude":"45.03333300","longitude":"8.90000000","name":"Gerola Nuova"},{"id":"1275991","latitude":"45.85000000","longitude":"9.56666700","name":"Gerosa"},{"id":"1275993","latitude":"45.38333300","longitude":"9.41666700","name":"Gessate"},{"id":"1276002","latitude":"45.40000000","longitude":"10.26666700","name":"Ghedi"},{"id":"1276007","latitude":"45.71666700","longitude":"9.58333300","name":"Ghiaie"},{"id":"1276010","latitude":"45.96666700","longitude":"8.61666700","name":"Ghiffa"},{"id":"1276013","latitude":"46.23333300","longitude":"8.21666700","name":"Ghiosso"},{"id":"1276016","latitude":"45.91666700","longitude":"8.83333300","name":"Ghirla"},{"id":"1276018","latitude":"45.58333300","longitude":"9.75000000","name":"Ghisalba"},{"id":"1276077","latitude":"45.86666700","longitude":"8.50000000","name":"Gignese"},{"id":"1276147","latitude":"45.28333300","longitude":"9.13333300","name":"Giussago"},{"id":"1276149","latitude":"45.70000000","longitude":"9.23333300","name":"Giussano"},{"id":"1276185","latitude":"46.30000000","longitude":"8.26666700","name":"Goglio"},{"id":"1276189","latitude":"45.71666700","longitude":"8.65000000","name":"Golasecca"},{"id":"1276209","latitude":"46.28333300","longitude":"9.35000000","name":"Gordona"},{"id":"1276219","latitude":"45.53333300","longitude":"9.40000000","name":"Gorgonzola"},{"id":"1276229","latitude":"45.66666700","longitude":"8.88333300","name":"Gorla Maggiore"},{"id":"1276230","latitude":"45.70000000","longitude":"9.71666700","name":"Gorle"},{"id":"1276232","latitude":"45.86666700","longitude":"9.83333300","name":"Gorno"},{"id":"1276242","latitude":"45.28333300","longitude":"10.26666700","name":"Gottolengo"},{"id":"1276245","latitude":"45.75000000","longitude":"8.43333300","name":"Gozzano"},{"id":"1276246","latitude":"46.01666700","longitude":"8.23333300","name":"Gozzi"},{"id":"1276275","latitude":"45.76666700","longitude":"9.05000000","name":"Grandate"},{"id":"1276315","latitude":"45.81666700","longitude":"10.11666700","name":"Gratacasolo"},{"id":"1276323","latitude":"45.85000000","longitude":"8.20000000","name":"Gravagliana"},{"id":"1276326","latitude":"46.15000000","longitude":"9.30000000","name":"Gravedona"},{"id":"1276329","latitude":"45.91666700","longitude":"8.43333300","name":"Gravellona"},{"id":"1276331","latitude":"45.91666700","longitude":"8.43333300","name":"Gravellona Toce"},{"id":"1276348","latitude":"45.63333300","longitude":"10.03333300","name":"Gresine"},{"id":"1276361","latitude":"45.98333300","longitude":"9.21666700","name":"Griante"},{"id":"1276396","latitude":"45.73333300","longitude":"9.51666700","name":"Gromlongo"},{"id":"1276397","latitude":"45.96666700","longitude":"9.93333300","name":"Gromo"},{"id":"1276403","latitude":"45.18333300","longitude":"9.00000000","name":"Gropello Cairoli"},{"id":"1276404","latitude":"45.18333300","longitude":"9.00000000","name":"Gropello"},{"id":"1276410","latitude":"46.43333300","longitude":"9.36666700","name":"Groppera"},{"id":"1276451","latitude":"46.38333300","longitude":"8.41666700","name":"Grovella"},{"id":"1276459","latitude":"45.63333300","longitude":"9.86666700","name":"Grumello del Monte"},{"id":"1276460","latitude":"45.66666700","longitude":"9.63333300","name":"Grumello del Piano"},{"id":"1276463","latitude":"45.61666700","longitude":"9.98333300","name":"Grumi"},{"id":"1276465","latitude":"45.88333300","longitude":"9.65000000","name":"Grumo"},{"id":"1276479","latitude":"46.48333300","longitude":"9.45000000","name":"Gualdo"},{"id":"1276519","latitude":"45.38333300","longitude":"9.10000000","name":"Gudo Gambaredo"},{"id":"1276522","latitude":"46.33333300","longitude":"9.36666700","name":"Guglielmo"},{"id":"1276533","latitude":"45.58333300","longitude":"10.15000000","name":"Gussago"},{"id":"1276563","latitude":"45.73333300","longitude":"10.48333300","name":"Idro"},{"id":"1276574","latitude":"46.01666700","longitude":"10.20000000","name":"I Fondi"},{"id":"1276575","latitude":"46.10000000","longitude":"9.98333300","name":"I Forni"},{"id":"1276622","latitude":"46.10000000","longitude":"9.98333300","name":"Il Forno"},{"id":"1276672","latitude":"45.80000000","longitude":"9.25000000","name":"Incino"},{"id":"1276677","latitude":"45.85000000","longitude":"8.83333300","name":"Induno Olona"},{"id":"1276688","latitude":"45.93333300","longitude":"8.56666700","name":"Intra"},{"id":"1276689","latitude":"45.95000000","longitude":"9.45000000","name":"Introbio"},{"id":"1276691","latitude":"45.73333300","longitude":"9.23333300","name":"Inverigo"},{"id":"1276692","latitude":"45.18333300","longitude":"9.38333300","name":"Inverno"},{"id":"1276695","latitude":"45.75000000","longitude":"8.48333300","name":"Invorio Inferiore"},{"id":"1276696","latitude":"45.53333300","longitude":"9.48333300","name":"Inzago"},{"id":"1276697","latitude":"45.70000000","longitude":"10.18333300","name":"Inzino"},{"id":"1276741","latitude":"46.20000000","longitude":"8.20000000","name":"Iselle"},{"id":"1276742","latitude":"45.65000000","longitude":"10.05000000","name":"Iseo"},{"id":"1276753","latitude":"45.96666700","longitude":"9.16666700","name":"Isola Comacina"},{"id":"1276771","latitude":"46.43333300","longitude":"9.31666700","name":"Isola"},{"id":"1276780","latitude":"45.03333300","longitude":"8.85000000","name":"Isola Sant'Antonio"},{"id":"1276781","latitude":"46.43333300","longitude":"9.31666700","name":"Isolate"},{"id":"1276782","latitude":"46.43333300","longitude":"9.31666700","name":"Isolato"},{"id":"1276787","latitude":"45.30000000","longitude":"10.31666700","name":"Isorella"},{"id":"1276789","latitude":"45.81666700","longitude":"8.61666700","name":"Ispra"},{"id":"1276812","latitude":"45.35000000","longitude":"9.75000000","name":"Izano"},{"id":"1276834","latitude":"46.45000000","longitude":"8.45000000","name":"Konigin"},{"id":"1276876","latitude":"46.08333300","longitude":"8.46666700","name":"La Cascina"},{"id":"1276887","latitude":"45.31666700","longitude":"9.13333300","name":"Lacchiarella"},{"id":"1276906","latitude":"46.16666700","longitude":"8.50000000","name":"La Colla"},{"id":"1276916","latitude":"46.08333300","longitude":"9.81666700","name":"La Costa"},{"id":"1276941","latitude":"46.18333300","longitude":"9.23333300","name":"La Foppa"},{"id":"1276946","latitude":"46.40000000","longitude":"8.40000000","name":"La Frua"},{"id":"1276963","latitude":"45.88333300","longitude":"9.13333300","name":"Laglio Brienno"},{"id":"1276964","latitude":"45.88333300","longitude":"9.13333300","name":"Laglio"},{"id":"1276980","latitude":"45.56666700","longitude":"9.03333300","name":"Lainate"},{"id":"1276993","latitude":"45.65000000","longitude":"9.61666700","name":"Lallio"},{"id":"1277018","latitude":"46.11666700","longitude":"9.48333300","name":"La Masonaccia"},{"id":"1277022","latitude":"45.48333300","longitude":"9.25000000","name":"Lambrate"},{"id":"1277051","latitude":"45.31666700","longitude":"9.25000000","name":"Landriano"},{"id":"1277064","latitude":"45.98333300","longitude":"9.03333300","name":"Lanzo d'Intelvi"},{"id":"1277065","latitude":"45.98333300","longitude":"9.03333300","name":"Lanzo"},{"id":"1277090","latitude":"46.16666700","longitude":"10.03333300","name":"La Pila"},{"id":"1277116","latitude":"45.21666700","longitude":"9.23333300","name":"Lardirago"},{"id":"1277118","latitude":"46.03333300","longitude":"8.06666700","name":"Lareccio"},{"id":"1277230","latitude":"45.95000000","longitude":"8.86666700","name":"Lavena"},{"id":"1277231","latitude":"45.96666700","longitude":"8.85000000","name":"Lavena Ponte Tresa"},{"id":"1277233","latitude":"45.91666700","longitude":"8.61666700","name":"Laveno"},{"id":"1277234","latitude":"45.91666700","longitude":"8.61666700","name":"Laveno Mombello"},{"id":"1277235","latitude":"45.91666700","longitude":"8.61666700","name":"Laveno-Mombello"},{"id":"1277236","latitude":"45.73333300","longitude":"10.43333300","name":"Lavenone"},{"id":"1277250","latitude":"45.88333300","longitude":"9.53333300","name":"Lavina"},{"id":"1277256","latitude":"45.75000000","longitude":"10.23333300","name":"Lavone"},{"id":"1277270","latitude":"46.23333300","longitude":"8.15000000","name":"Le Balmelle"},{"id":"1277272","latitude":"46.08333300","longitude":"8.61666700","name":"Le Biuse"},{"id":"1277292","latitude":"45.85000000","longitude":"9.38333300","name":"Lecco"},{"id":"1277302","latitude":"45.80000000","longitude":"9.88333300","name":"Leffe"},{"id":"1277312","latitude":"45.60000000","longitude":"8.90000000","name":"Legnano"},{"id":"1277346","latitude":"45.93333300","longitude":"9.66666700","name":"Lenna"},{"id":"1277347","latitude":"45.96666700","longitude":"9.18333300","name":"Lenno"},{"id":"1277349","latitude":"45.36666700","longitude":"10.21666700","name":"Leno"},{"id":"1277352","latitude":"45.68333300","longitude":"9.11666700","name":"Lentate"},{"id":"1277353","latitude":"45.68333300","longitude":"9.11666700","name":"Lentate sul Seveso"},{"id":"1277388","latitude":"45.83333300","longitude":"8.56666700","name":"Lesa"},{"id":"1277450","latitude":"45.93333300","longitude":"9.18333300","name":"Lezzeno"},{"id":"1277489","latitude":"45.95000000","longitude":"9.30000000","name":"Lierna"},{"id":"1277506","latitude":"45.60000000","longitude":"9.11666700","name":"Limbiate"},{"id":"1277520","latitude":"45.45000000","longitude":"9.26666700","name":"Linate al Lambro"},{"id":"1277521","latitude":"45.45000000","longitude":"9.26666700","name":"Linate"},{"id":"1277539","latitude":"45.48333300","longitude":"9.41666700","name":"Liscate"},{"id":"1277546","latitude":"45.61666700","longitude":"9.23333300","name":"Lissone"},{"id":"1277554","latitude":"45.73333300","longitude":"10.33333300","name":"Livemmo"},{"id":"1277560","latitude":"46.16666700","longitude":"9.30000000","name":"Livo"},{"id":"1277571","latitude":"46.03333300","longitude":"10.01666700","name":"Lizzola Alta"},{"id":"1277572","latitude":"46.03333300","longitude":"10.00000000","name":"Lizzola Bassa"},{"id":"1277573","latitude":"46.03333300","longitude":"10.01666700","name":"Lizzola"},{"id":"1277578","latitude":"45.70000000","longitude":"9.55000000","name":"Locate Bergamasco"},{"id":"1277579","latitude":"45.35000000","longitude":"9.21666700","name":"Locate di Triulzi"},{"id":"1277580","latitude":"45.35000000","longitude":"9.21666700","name":"Locate Triulzi"},{"id":"1277581","latitude":"45.68333300","longitude":"8.93333300","name":"Locate Varesino"},{"id":"1277589","latitude":"45.31666700","longitude":"9.50000000","name":"Lodi"},{"id":"1277591","latitude":"45.30000000","longitude":"9.40000000","name":"Lodi Vecchio"},{"id":"1277596","latitude":"45.48333300","longitude":"10.05000000","name":"Lograto"},{"id":"1277601","latitude":"45.66666700","longitude":"9.36666700","name":"Lomagna"},{"id":"1277602","latitude":"45.70000000","longitude":"9.03333300","name":"Lomazzo"},{"id":"1277606","latitude":"45.11666700","longitude":"8.78333300","name":"Lomello"},{"id":"1277608","latitude":"45.70000000","longitude":"8.86666700","name":"Lonate Ceppino"},{"id":"1277610","latitude":"45.45000000","longitude":"10.48333300","name":"Lonato"},{"id":"1277683","latitude":"46.05000000","longitude":"10.23333300","name":"Loveno"},{"id":"1277684","latitude":"45.81666700","longitude":"10.06666700","name":"Lovere"},{"id":"1277715","latitude":"45.78333300","longitude":"9.03333300","name":"Lucino"},{"id":"1277744","latitude":"46.00000000","longitude":"8.73333300","name":"Luino"},{"id":"1277758","latitude":"45.03333300","longitude":"9.06666700","name":"Lungavilla"},{"id":"1277781","latitude":"45.76666700","longitude":"9.11666700","name":"Lurago d'Erba"},{"id":"1277782","latitude":"45.71666700","longitude":"8.98333300","name":"Lurago Marinone"},{"id":"1277784","latitude":"45.76666700","longitude":"9.01666700","name":"Lurate Caccivio"},{"id":"1277785","latitude":"45.76666700","longitude":"9.01666700","name":"Lurate"},{"id":"1277806","latitude":"45.71666700","longitude":"9.86666700","name":"Luzzana"},{"id":"1277814","latitude":"46.03333300","longitude":"8.73333300","name":"Maccagno Inferiore"},{"id":"1277815","latitude":"46.03333300","longitude":"8.73333300","name":"Maccagno"},{"id":"1277816","latitude":"46.03333300","longitude":"8.73333300","name":"Maccagno Superiore"},{"id":"1277858","latitude":"46.43333300","longitude":"9.35000000","name":"Madesimo"},{"id":"1277861","latitude":"45.33333300","longitude":"9.71666700","name":"Madignano"},{"id":"1277870","latitude":"45.86666700","longitude":"9.66666700","name":"Madonna della Costa"},{"id":"1277901","latitude":"46.15000000","longitude":"10.15000000","name":"Madonna"},{"id":"1277922","latitude":"45.46666700","longitude":"8.88333300","name":"Magenta"},{"id":"1277923","latitude":"45.91666700","longitude":"9.45000000","name":"Maggio"},{"id":"1277958","latitude":"45.73333300","longitude":"10.18333300","name":"Magno"},{"id":"1277982","latitude":"45.46666700","longitude":"9.20000000","name":"Mailand"},{"id":"1277990","latitude":"45.35000000","longitude":"9.06666700","name":"Mairano"},{"id":"1278015","latitude":"46.13333300","longitude":"8.50000000","name":"Malesco"},{"id":"1278055","latitude":"45.85000000","longitude":"9.36666700","name":"Malgrate"},{"id":"1278057","latitude":"46.35000000","longitude":"9.48333300","name":"Malinone"},{"id":"1278067","latitude":"45.80000000","longitude":"8.88333300","name":"Malnate"},{"id":"1278103","latitude":"45.90000000","longitude":"9.31666700","name":"Mandello del Lario"},{"id":"1278104","latitude":"45.90000000","longitude":"9.31666700","name":"Mandello"},{"id":"1278116","latitude":"45.35000000","longitude":"10.13333300","name":"Manerbio"},{"id":"1278124","latitude":"45.61666700","longitude":"9.11666700","name":"Manicomio Mombello"},{"id":"1278145","latitude":"45.70000000","longitude":"9.53333300","name":"Mapello"},{"id":"1278175","latitude":"45.48333300","longitude":"8.86666700","name":"Marcallo con Casone"},{"id":"1278186","latitude":"45.70000000","longitude":"10.21666700","name":"Marcheno"},{"id":"1278227","latitude":"45.70000000","longitude":"9.18333300","name":"Mariano Comense"},{"id":"1278231","latitude":"45.70000000","longitude":"9.18333300","name":"Mariano"},{"id":"1278237","latitude":"45.35000000","longitude":"9.31666700","name":"Marignano"},{"id":"1278331","latitude":"45.63333300","longitude":"8.90000000","name":"Marnate"},{"id":"1278334","latitude":"45.73333300","longitude":"10.08333300","name":"Marone"},{"id":"1278371","latitude":"45.56666700","longitude":"9.76666700","name":"Martinengo"},{"id":"1278395","latitude":"45.93333300","longitude":"8.85000000","name":"Marzio"},{"id":"1278414","latitude":"46.13333300","longitude":"8.33333300","name":"Masera"},{"id":"1278422","latitude":"46.16666700","longitude":"9.40000000","name":"Masina"},{"id":"1278423","latitude":"46.16666700","longitude":"9.63333300","name":"Masino"},{"id":"1278426","latitude":"45.85000000","longitude":"9.05000000","name":"Maslianico"},{"id":"1278428","latitude":"45.83333300","longitude":"8.80000000","name":"Masnago"},{"id":"1278549","latitude":"46.15000000","longitude":"10.13333300","name":"Mavigna"},{"id":"1278560","latitude":"46.06666700","longitude":"8.55000000","name":"Mazzarocco"},{"id":"1278579","latitude":"45.66666700","longitude":"9.15000000","name":"Meda"},{"id":"1278590","latitude":"45.46666700","longitude":"9.20000000","name":"Mediolanum"},{"id":"1278591","latitude":"45.66666700","longitude":"9.48333300","name":"Medolago"},{"id":"1278592","latitude":"45.31666700","longitude":"10.50000000","name":"Medole"},{"id":"1278599","latitude":"45.98333300","longitude":"8.30000000","name":"Megolo di Mezzo"},{"id":"1278601","latitude":"45.78333300","longitude":"8.53333300","name":"Meina"},{"id":"1278608","latitude":"45.23333300","longitude":"9.61666700","name":"Melegnanello"},{"id":"1278609","latitude":"45.35000000","longitude":"9.31666700","name":"Melegnano"},{"id":"1278610","latitude":"46.20000000","longitude":"9.68333300","name":"Mele"},{"id":"1278638","latitude":"46.15000000","longitude":"9.55000000","name":"Mello"},{"id":"1278643","latitude":"45.50000000","longitude":"9.41666700","name":"Melzo"},{"id":"1278644","latitude":"46.01666700","longitude":"9.23333300","name":"Menaggio"},{"id":"1278664","latitude":"45.70000000","longitude":"9.41666700","name":"Merate"},{"id":"1278665","latitude":"45.75000000","longitude":"8.66666700","name":"Mercallo di Sassi"},{"id":"1278666","latitude":"45.75000000","longitude":"8.66666700","name":"Mercallo"},{"id":"1278695","latitude":"45.96666700","longitude":"8.43333300","name":"Mergozzo"},{"id":"1278711","latitude":"46.30000000","longitude":"9.38333300","name":"Mese"},{"id":"1278731","latitude":"45.06666700","longitude":"8.85000000","name":"Mezzana Bigli"},{"id":"1278736","latitude":"45.08333300","longitude":"9.03333300","name":"Mezzana Rabattone"},{"id":"1278739","latitude":"45.11666700","longitude":"9.20000000","name":"Mezzanino"},{"id":"1278744","latitude":"45.13333300","longitude":"9.15000000","name":"Mezzano Siccomario"},{"id":"1278746","latitude":"46.06666700","longitude":"8.55000000","name":"Mezzarocco"},{"id":"1278759","latitude":"46.01666700","longitude":"9.66666700","name":"Mezzoldo"},{"id":"1278768","latitude":"45.96666700","longitude":"8.51666700","name":"Miazzina di Dentro"},{"id":"1278769","latitude":"45.96666700","longitude":"8.51666700","name":"Miazzina di Fuori"},{"id":"1278770","latitude":"45.96666700","longitude":"8.51666700","name":"Miazzina di Qu\u00e0"},{"id":"1278771","latitude":"45.96666700","longitude":"8.51666700","name":"Miazzina"},{"id":"1278776","latitude":"44.98333300","longitude":"9.26666700","name":"Michelazza"},{"id":"1278789","latitude":"45.98333300","longitude":"8.38333300","name":"Migiandone"},{"id":"1278815","latitude":"45.46666700","longitude":"9.20000000","name":"Milan"},{"id":"1278817","latitude":"45.46666700","longitude":"9.20000000","name":"Milano"},{"id":"1278869","latitude":"45.26666700","longitude":"9.91666700","name":"Mirabello Ciria"},{"id":"1278875","latitude":"45.16666700","longitude":"9.43333300","name":"Miradolo"},{"id":"1278876","latitude":"45.16666700","longitude":"9.43333300","name":"Miradolo Terme"},{"id":"1278894","latitude":"45.46666700","longitude":"9.61666700","name":"Misano di Gera d'Adda"},{"id":"1278903","latitude":"45.65000000","longitude":"9.08333300","name":"Misinto"},{"id":"1278906","latitude":"45.71666700","longitude":"9.33333300","name":"Missaglia"},{"id":"1278945","latitude":"45.93333300","longitude":"9.48333300","name":"Moggio"},{"id":"1278997","latitude":"45.01666700","longitude":"8.88333300","name":"Molino Alzano"},{"id":"1279031","latitude":"46.03333300","longitude":"9.16666700","name":"Molino"},{"id":"1279035","latitude":"46.05000000","longitude":"9.25000000","name":"Molino Nuovo"},{"id":"1279054","latitude":"45.76666700","longitude":"9.30000000","name":"Molteno"},{"id":"1279059","latitude":"45.61666700","longitude":"9.11666700","name":"Mombello Manicomio"},{"id":"1279065","latitude":"46.00000000","longitude":"9.75000000","name":"Monaci"},{"id":"1279070","latitude":"45.76666700","longitude":"9.93333300","name":"Monasterolo del Castello"},{"id":"1279121","latitude":"45.51666700","longitude":"10.53333300","name":"Moniga"},{"id":"1279169","latitude":"44.96666700","longitude":"9.36666700","name":"Montalbo"},{"id":"1279187","latitude":"44.98333300","longitude":"9.20000000","name":"Montalto"},{"id":"1279188","latitude":"44.98333300","longitude":"9.20000000","name":"Montalto Pavese"},{"id":"1279197","latitude":"45.33333300","longitude":"9.46666700","name":"Montanaso Lombardo"},{"id":"1279227","latitude":"45.00000000","longitude":"9.10000000","name":"Montebello della Battaglia"},{"id":"1279232","latitude":"45.00000000","longitude":"9.10000000","name":"Montebello"},{"id":"1279301","latitude":"45.61666700","longitude":"10.55000000","name":"Montecucco"},{"id":"1279385","latitude":"45.18333300","longitude":"9.38333300","name":"Monteleone"},{"id":"1279418","latitude":"45.76666700","longitude":"9.45000000","name":"Monte Marenzo"},{"id":"1279433","latitude":"45.50000000","longitude":"10.50000000","name":"Monte"},{"id":"1279481","latitude":"46.08333300","longitude":"8.78333300","name":"Monterecchio"},{"id":"1279551","latitude":"46.48333300","longitude":"9.33333300","name":"Montespluga"},{"id":"1279571","latitude":"46.06666700","longitude":"8.83333300","name":"Monteviasco"},{"id":"1279591","latitude":"45.25000000","longitude":"9.65000000","name":"Monticelli"},{"id":"1279598","latitude":"45.41666700","longitude":"10.38333300","name":"Montichiari"},{"id":"1279601","latitude":"46.10000000","longitude":"8.53333300","name":"Monti Creves"},{"id":"1279603","latitude":"46.05000000","longitude":"9.18333300","name":"Monti di Grandola"},{"id":"1279605","latitude":"46.08333300","longitude":"8.76666700","name":"Monti di Pino"},{"id":"1279611","latitude":"45.03333300","longitude":"9.30000000","name":"Montii Beccaria"},{"id":"1279615","latitude":"45.55000000","longitude":"10.55000000","name":"Montinelle"},{"id":"1279620","latitude":"46.08333300","longitude":"9.13333300","name":"Monti Rus di Tavaino"},{"id":"1279624","latitude":"45.28333300","longitude":"9.70000000","name":"Montodine"},{"id":"1279651","latitude":"45.03333300","longitude":"9.31666700","name":"Mont\u00f9 Beccaria"},{"id":"1279652","latitude":"45.05000000","longitude":"9.26666700","name":"Montu de' Gabbi"},{"id":"1279654","latitude":"45.58333300","longitude":"9.26666700","name":"Monza"},{"id":"1279671","latitude":"46.43333300","longitude":"8.40000000","name":"Morasco"},{"id":"1279672","latitude":"46.13333300","longitude":"9.56666700","name":"Morbegno"},{"id":"1279673","latitude":"46.13333300","longitude":"9.26666700","name":"Morbio"},{"id":"1279704","latitude":"45.35000000","longitude":"8.95000000","name":"Morimondo"},{"id":"1279710","latitude":"45.75000000","longitude":"8.75000000","name":"Mornago"},{"id":"1279732","latitude":"45.25000000","longitude":"8.73333300","name":"Mortara"},{"id":"1279736","latitude":"45.86666700","longitude":"9.46666700","name":"Morterone"},{"id":"1279744","latitude":"45.28333300","longitude":"9.68333300","name":"Moscazzano"},{"id":"1279751","latitude":"45.28333300","longitude":"9.68333300","name":"Moscuzzano"},{"id":"1279752","latitude":"45.53333300","longitude":"10.41666700","name":"Mosina"},{"id":"1279758","latitude":"46.16666700","longitude":"9.85000000","name":"Mossini"},{"id":"1279761","latitude":"45.33333300","longitude":"10.00000000","name":"Motella"},{"id":"1279777","latitude":"46.41666700","longitude":"9.35000000","name":"Motta"},{"id":"1279784","latitude":"45.28333300","longitude":"8.98333300","name":"Motta Visconti"},{"id":"1279791","latitude":"45.48333300","longitude":"9.68333300","name":"Mozzanica"},{"id":"1279792","latitude":"45.68333300","longitude":"8.95000000","name":"Mozzate"},{"id":"1279794","latitude":"46.21666700","longitude":"8.30000000","name":"Mozzio"},{"id":"1279804","latitude":"45.58333300","longitude":"9.21666700","name":"Muggi\u00f2"},{"id":"1279820","latitude":"46.41666700","longitude":"9.41666700","name":"Mulecetto"},{"id":"1279827","latitude":"45.71666700","longitude":"10.33333300","name":"Mura"},{"id":"1279832","latitude":"46.08333300","longitude":"8.26666700","name":"Murata"},{"id":"1279866","latitude":"46.06666700","longitude":"8.75000000","name":"Musignano"},{"id":"1279870","latitude":"46.16666700","longitude":"9.40000000","name":"Musina"},{"id":"1279871","latitude":"45.83333300","longitude":"9.56666700","name":"Musita"},{"id":"1279873","latitude":"45.50000000","longitude":"9.13333300","name":"Musocco"},{"id":"1279878","latitude":"46.11666700","longitude":"9.26666700","name":"Musso"},{"id":"1279887","latitude":"46.03333300","longitude":"9.20000000","name":"Naggio"},{"id":"1279911","latitude":"45.90000000","longitude":"9.93333300","name":"Nasolino"},{"id":"1279919","latitude":"45.58333300","longitude":"10.28333300","name":"Nave"},{"id":"1279940","latitude":"45.75000000","longitude":"9.75000000","name":"Nembro"},{"id":"1279955","latitude":"45.55000000","longitude":"8.96666700","name":"Nerviano"},{"id":"1279966","latitude":"46.18333300","longitude":"8.38333300","name":"Nezza"},{"id":"1279984","latitude":"46.16666700","longitude":"10.01666700","name":"Nigola"},{"id":"1280039","latitude":"46.00000000","longitude":"10.05000000","name":"Nona"},{"id":"1280052","latitude":"45.86666700","longitude":"9.88333300","name":"Nossa"},{"id":"1280058","latitude":"45.60000000","longitude":"9.66666700","name":"Nouva"},{"id":"1280065","latitude":"45.58333300","longitude":"9.20000000","name":"Nova Milanese"},{"id":"1280071","latitude":"46.25000000","longitude":"9.45000000","name":"Novate Mezzola"},{"id":"1280072","latitude":"45.53333300","longitude":"9.13333300","name":"Novate Milanese"},{"id":"1280073","latitude":"46.25000000","longitude":"9.45000000","name":"Novate"},{"id":"1280089","latitude":"45.70000000","longitude":"10.38333300","name":"Nozza"},{"id":"1280118","latitude":"45.53333300","longitude":"10.38333300","name":"Nuvolento"},{"id":"1280120","latitude":"45.40000000","longitude":"9.03333300","name":"Oaggiano"},{"id":"1280136","latitude":"45.65000000","longitude":"10.38333300","name":"Odolo"},{"id":"1280139","latitude":"45.36666700","longitude":"9.73333300","name":"Offanengo"},{"id":"1280143","latitude":"45.38333300","longitude":"10.10000000","name":"Offlaga"},{"id":"1280145","latitude":"45.48333300","longitude":"9.18333300","name":"Oggiaro"},{"id":"1280146","latitude":"45.78333300","longitude":"9.33333300","name":"Oggiono"},{"id":"1280151","latitude":"45.90000000","longitude":"9.93333300","name":"Ogna"},{"id":"1280156","latitude":"46.18333300","longitude":"8.31666700","name":"Oira"},{"id":"1280163","latitude":"45.61666700","longitude":"9.38333300","name":"Oldaniga"},{"id":"1280164","latitude":"45.88333300","longitude":"9.55000000","name":"Olda"},{"id":"1280169","latitude":"45.21666700","longitude":"8.71666700","name":"Olevano di Lomellina"},{"id":"1280174","latitude":"46.15000000","longitude":"8.58333300","name":"Olgia"},{"id":"1280175","latitude":"46.11666700","longitude":"9.31666700","name":"Olgiasca"},{"id":"1280177","latitude":"45.73333300","longitude":"9.40000000","name":"Olgiate Calco"},{"id":"1280178","latitude":"45.80000000","longitude":"8.96666700","name":"Olgiate Comasco"},{"id":"1280179","latitude":"45.73333300","longitude":"9.40000000","name":"Olgiate Molgora"},{"id":"1280180","latitude":"45.80000000","longitude":"8.96666700","name":"Olgiate"},{"id":"1280181","latitude":"45.63333300","longitude":"8.88333300","name":"Olgiate Olona"},{"id":"1280182","latitude":"45.80000000","longitude":"9.40000000","name":"Olginate"},{"id":"1280195","latitude":"45.93333300","longitude":"9.28333300","name":"Oliveto Lario"},{"id":"1280209","latitude":"45.23333300","longitude":"10.01666700","name":"Olmeneta"},{"id":"1280212","latitude":"45.96666700","longitude":"9.65000000","name":"Olmo al Brembo"},{"id":"1280213","latitude":"45.96666700","longitude":"9.65000000","name":"Olmo"},{"id":"1280215","latitude":"45.90000000","longitude":"9.76666700","name":"Oltre il Colle"},{"id":"1280216","latitude":"45.90000000","longitude":"9.93333300","name":"Oltressenda Alta"},{"id":"1280217","latitude":"45.75000000","longitude":"8.98333300","name":"Oltrona di San Mamette"},{"id":"1280220","latitude":"45.88333300","longitude":"8.40000000","name":"Omegna"},{"id":"1280230","latitude":"45.86666700","longitude":"9.81666700","name":"Oneta"},{"id":"1280236","latitude":"45.91666700","longitude":"9.28333300","name":"Onno"},{"id":"1280238","latitude":"45.48333300","longitude":"10.16666700","name":"Onzato"},{"id":"1280245","latitude":"45.36666700","longitude":"9.20000000","name":"Opera"},{"id":"1280254","latitude":"46.10000000","longitude":"8.58333300","name":"Orasso"},{"id":"1280269","latitude":"45.80000000","longitude":"9.81666700","name":"Orezzo"},{"id":"1280275","latitude":"46.01666700","longitude":"9.03333300","name":"Oria"},{"id":"1280278","latitude":"45.60000000","longitude":"9.01666700","name":"Origgio"},{"id":"1280280","latitude":"45.66666700","longitude":"9.68333300","name":"Orio al Serio"},{"id":"1280286","latitude":"45.03333300","longitude":"9.01666700","name":"Oriolo"},{"id":"1280293","latitude":"45.60000000","longitude":"9.41666700","name":"Ornago"},{"id":"1280297","latitude":"45.96666700","longitude":"8.40000000","name":"Ornavasso"},{"id":"1280299","latitude":"45.98333300","longitude":"9.56666700","name":"Ornica"},{"id":"1280311","latitude":"45.76666700","longitude":"9.16666700","name":"Orsenigo"},{"id":"1280320","latitude":"45.80000000","longitude":"8.41666700","name":"Orta"},{"id":"1280321","latitude":"45.80000000","longitude":"8.41666700","name":"Orta San Giulio"},{"id":"1280347","latitude":"45.40000000","longitude":"9.91666700","name":"Orzinuovi"},{"id":"1280348","latitude":"45.41666700","longitude":"9.95000000","name":"Orzivecchi"},{"id":"1280362","latitude":"45.78333300","longitude":"8.65000000","name":"Osmate Lentate"},{"id":"1280363","latitude":"45.78333300","longitude":"8.65000000","name":"Osmate"},{"id":"1280364","latitude":"45.66666700","longitude":"9.38333300","name":"Osnago"},{"id":"1280383","latitude":"45.53333300","longitude":"9.15000000","name":"Ospitaletto di Cormono"},{"id":"1280385","latitude":"45.53333300","longitude":"9.15000000","name":"Ospitaletto"},{"id":"1280388","latitude":"45.23333300","longitude":"9.53333300","name":"Ossago"},{"id":"1280393","latitude":"45.50000000","longitude":"8.90000000","name":"Ossona"},{"id":"1280395","latitude":"46.00000000","longitude":"9.08333300","name":"Osteno"},{"id":"1280414","latitude":"45.21666700","longitude":"10.25000000","name":"Ostiano"},{"id":"1280430","latitude":"45.15000000","longitude":"8.83333300","name":"Ottobiano"},{"id":"1280452","latitude":"45.36666700","longitude":"8.91666700","name":"Ozzero"},{"id":"1280464","latitude":"45.51666700","longitude":"10.48333300","name":"Padenghe"},{"id":"1280465","latitude":"45.51666700","longitude":"10.48333300","name":"Padenghe sul Garda"},{"id":"1280470","latitude":"45.66666700","longitude":"9.43333300","name":"Paderno d'Adda"},{"id":"1280471","latitude":"45.55000000","longitude":"9.16666700","name":"Paderno Dugnano"},{"id":"1280472","latitude":"45.58333300","longitude":"10.06666700","name":"Paderno Franciacorta"},{"id":"1280523","latitude":"46.05000000","longitude":"9.40000000","name":"Pagnona"},{"id":"1280527","latitude":"46.18333300","longitude":"9.90000000","name":"Paini"},{"id":"1280565","latitude":"45.60000000","longitude":"9.88333300","name":"Palazzolo"},{"id":"1280611","latitude":"45.91666700","longitude":"8.55000000","name":"Pallanza"},{"id":"1280612","latitude":"46.05000000","longitude":"8.25000000","name":"Pallanzeno"},{"id":"1280615","latitude":"45.60000000","longitude":"9.88333300","name":"Pallazzolo sull'Oglio"},{"id":"1280645","latitude":"45.58333300","longitude":"9.83333300","name":"Palosco"},{"id":"1280666","latitude":"45.06666700","longitude":"9.05000000","name":"Pancarana"},{"id":"1280669","latitude":"45.40000000","longitude":"9.55000000","name":"Pandino"},{"id":"1280696","latitude":"45.43333300","longitude":"9.35000000","name":"Pantigliate"},{"id":"1280717","latitude":"45.16666700","longitude":"9.16666700","name":"Papia"},{"id":"1280722","latitude":"45.55000000","longitude":"8.95000000","name":"Parabiago"},{"id":"1280732","latitude":"45.23333300","longitude":"8.96666700","name":"Parasacco"},{"id":"1280733","latitude":"45.65000000","longitude":"9.95000000","name":"Paratico"},{"id":"1280758","latitude":"46.10000000","longitude":"8.33333300","name":"Parpinasca"},{"id":"1280759","latitude":"46.10000000","longitude":"8.33333300","name":"Parpinasco"},{"id":"1280762","latitude":"45.55000000","longitude":"9.83333300","name":"Parre"},{"id":"1280775","latitude":"45.75000000","longitude":"8.50000000","name":"Paruzzaro"},{"id":"1280776","latitude":"45.73333300","longitude":"10.03333300","name":"Parzanica"},{"id":"1280785","latitude":"45.81666700","longitude":"9.28333300","name":"Pasiano"},{"id":"1280803","latitude":"45.60000000","longitude":"10.05000000","name":"Passirano"},{"id":"1280814","latitude":"46.31666700","longitude":"8.38333300","name":"Passo"},{"id":"1280851","latitude":"45.41666700","longitude":"9.40000000","name":"Paullo"},{"id":"1280858","latitude":"45.16666700","longitude":"9.16666700","name":"Pavia"},{"id":"1280865","latitude":"45.30000000","longitude":"10.20000000","name":"Pavone del Mella"},{"id":"1280866","latitude":"45.30000000","longitude":"10.20000000","name":"Pavone"},{"id":"1280890","latitude":"45.93333300","longitude":"8.41666700","name":"Pedemonte"},{"id":"1280891","latitude":"45.36666700","longitude":"10.01666700","name":"Pedergnaga Oriana"},{"id":"1280892","latitude":"45.58333300","longitude":"10.00000000","name":"Pedergnano"},{"id":"1280895","latitude":"46.08333300","longitude":"9.55000000","name":"Pedesina"},{"id":"1280901","latitude":"45.86666700","longitude":"9.55000000","name":"Peghera"},{"id":"1280912","latitude":"45.80000000","longitude":"8.38333300","name":"Pella"},{"id":"1280923","latitude":"45.98333300","longitude":"9.06666700","name":"Pellio d'Intelvi Inferiore"},{"id":"1280924","latitude":"45.98333300","longitude":"9.05000000","name":"Pellio d'Intelvi Superiore"},{"id":"1280925","latitude":"45.98333300","longitude":"9.06666700","name":"Pellio Inferiore"},{"id":"1280926","latitude":"45.98333300","longitude":"9.05000000","name":"Pellio Superiore"},{"id":"1280983","latitude":"45.78333300","longitude":"9.95000000","name":"Perlisa"},{"id":"1281028","latitude":"45.43333300","longitude":"9.33333300","name":"Peschiera"},{"id":"1281060","latitude":"45.95000000","longitude":"8.01666700","name":"Pestarena"},{"id":"1281161","latitude":"46.41666700","longitude":"9.33333300","name":"Pianazzo"},{"id":"1281162","latitude":"45.91666700","longitude":"10.20000000","name":"Pian Borno"},{"id":"1281165","latitude":"45.85000000","longitude":"10.16666700","name":"Pian Camuno"},{"id":"1281166","latitude":"45.90000000","longitude":"9.61666700","name":"Pianca"},{"id":"1281169","latitude":"46.01666700","longitude":"8.63333300","name":"Pian Cavallo"},{"id":"1281172","latitude":"45.91666700","longitude":"10.21666700","name":"Piancogno"},{"id":"1281174","latitude":"45.85000000","longitude":"10.16666700","name":"Pian d'Artogne"},{"id":"1281182","latitude":"45.91666700","longitude":"10.20000000","name":"Pian di Borno"},{"id":"1281202","latitude":"44.95000000","longitude":"9.06666700","name":"Piane"},{"id":"1281209","latitude":"46.35000000","longitude":"9.43333300","name":"Piangesca"},{"id":"1281220","latitude":"45.90000000","longitude":"9.38333300","name":"Piani Resinelli"},{"id":"1281227","latitude":"45.90000000","longitude":"9.38333300","name":"Piano dei Resinelli"},{"id":"1281242","latitude":"45.78333300","longitude":"10.25000000","name":"Piano"},{"id":"1281248","latitude":"46.03333300","longitude":"9.16666700","name":"Piano Porlezza"},{"id":"1281250","latitude":"45.90000000","longitude":"9.38333300","name":"Piano Resinelli"},{"id":"1281263","latitude":"46.13333300","longitude":"9.43333300","name":"Piantedo"},{"id":"1281273","latitude":"46.15000000","longitude":"9.91666700","name":"Piateda"},{"id":"1281284","latitude":"45.95000000","longitude":"9.66666700","name":"Piazza Brembana"},{"id":"1281289","latitude":"45.58333300","longitude":"10.13333300","name":"Piazza"},{"id":"1281292","latitude":"45.98333300","longitude":"9.66666700","name":"Piazzatorre"},{"id":"1281294","latitude":"46.21666700","longitude":"8.35000000","name":"Piazzeno"},{"id":"1281299","latitude":"45.83333300","longitude":"9.66666700","name":"Piazzo Basso"},{"id":"1281310","latitude":"45.55000000","longitude":"10.50000000","name":"Picedo"},{"id":"1281326","latitude":"46.28333300","longitude":"8.35000000","name":"Piedilago"},{"id":"1281339","latitude":"46.01666700","longitude":"8.26666700","name":"Piedimulera"},{"id":"1281365","latitude":"45.01666700","longitude":"9.21666700","name":"Pietra de' Giorgi"},{"id":"1281366","latitude":"45.01666700","longitude":"9.21666700","name":"Pietra dei Giorgi"},{"id":"1281410","latitude":"46.25000000","longitude":"9.36666700","name":"Pietro"},{"id":"1281411","latitude":"45.13333300","longitude":"8.95000000","name":"Pieve Albignola"},{"id":"1281441","latitude":"45.65000000","longitude":"10.23333300","name":"Pieve"},{"id":"1281444","latitude":"45.11666700","longitude":"9.43333300","name":"Pieve Porto Morone"},{"id":"1281459","latitude":"46.00000000","longitude":"8.26666700","name":"Pieve Vergonte"},{"id":"1281474","latitude":"45.96666700","longitude":"9.11666700","name":"Pigra"},{"id":"1281501","latitude":"46.10000000","longitude":"8.73333300","name":"Pino Lago Maggiore"},{"id":"1281511","latitude":"45.50000000","longitude":"9.33333300","name":"Pioltello"},{"id":"1281547","latitude":"45.80000000","longitude":"10.10000000","name":"Piscogne"},