[{"id":"1267547","latitude":"65.60000000","longitude":"-22.50000000","name":"Eyri"},{"id":"1267555","latitude":"65.36666700","longitude":"-22.91666700","name":"Flatey"},{"id":"1267570","latitude":"65.45000000","longitude":"-21.83333300","name":"Garpsdalur"},{"id":"1267595","latitude":"65.56666700","longitude":"-22.41666700","name":"Gufudalur"},{"id":"1267719","latitude":"65.55000000","longitude":"-22.15000000","name":"Kinnarsta\u00f0ir"},{"id":"1267720","latitude":"65.55000000","longitude":"-22.15000000","name":"Kinnarsta\u00f0ur"},{"id":"1267725","latitude":"65.58333300","longitude":"-22.88333300","name":"Kirkjub\u00f3l"},{"id":"1267839","latitude":"65.45000000","longitude":"-22.20000000","name":"Reykh\u00f3ar"},{"id":"1267840","latitude":"65.45000000","longitude":"-22.20000000","name":"Reykh\u00f3lar"},{"id":"1267891","latitude":"65.51666700","longitude":"-22.75000000","name":"Sk\u00e1lmarnesm\u00fali"},{"id":"1267919","latitude":"65.48333300","longitude":"-22.36666700","name":"Sta\u00f0ur"},{"id":"1267986","latitude":"65.61666700","longitude":"-22.71666700","name":"Vattannes"},{"id":"1267987","latitude":"65.61666700","longitude":"-22.71666700","name":"Vattarnes"},{"id":"1267991","latitude":"65.45000000","longitude":"-21.93333300","name":"Verzlunarsta\u00f0ur"}]