[{"id":"1293301","latitude":"35.70000000","longitude":"136.10000000","name":"Ageno"},{"id":"1293335","latitude":"36.08333330","longitude":"136.03333330","name":"Aikawa"},{"id":"1293470","latitude":"35.68333330","longitude":"136.10000000","name":"Akasaki"},{"id":"1293510","latitude":"35.83333330","longitude":"136.56666670","name":"Akifu"},{"id":"1293591","latitude":"36.25000000","longitude":"136.13333330","name":"Amo"},{"id":"1293636","latitude":"36.25000000","longitude":"136.13333330","name":"Anto"},{"id":"1293792","latitude":"35.90000000","longitude":"136.66666670","name":"Asahi"},{"id":"1293892","latitude":"35.71666670","longitude":"136.10000000","name":"Aso"},{"id":"1293895","latitude":"36.00000000","longitude":"136.20000000","name":"Asozu"},{"id":"1293963","latitude":"36.21666670","longitude":"136.20000000","name":"Awara"},{"id":"1293970","latitude":"35.91666670","longitude":"136.23333330","name":"Awatabe"},{"id":"1293981","latitude":"36.08333330","longitude":"136.03333330","name":"Ayukawa"},{"id":"1293984","latitude":"36.08333330","longitude":"136.03333330","name":"Ayukawacho"},{"id":"1294002","latitude":"35.71666670","longitude":"136.10000000","name":"Azo"},{"id":"1294107","latitude":"36.03333330","longitude":"136.06666670","name":"Bessho"},{"id":"1294231","latitude":"35.41666670","longitude":"135.65000000","name":"Chihaya"},{"id":"1294352","latitude":"35.88333330","longitude":"136.60000000","name":"Churyu"},{"id":"1294353","latitude":"35.88333330","longitude":"136.60000000","name":"Churyukozan"},{"id":"1294467","latitude":"35.86666670","longitude":"136.36666670","name":"Doai"},{"id":"1294556","latitude":"36.11666670","longitude":"136.21666670","name":"Edome-kami"},{"id":"1294557","latitude":"36.13333330","longitude":"136.21666670","name":"Edome-naka"},{"id":"1294558","latitude":"36.13333330","longitude":"136.21666670","name":"Edome-shimo"},{"id":"1294559","latitude":"36.13333330","longitude":"136.21666670","name":"Edome-shita"},{"id":"1294633","latitude":"35.70000000","longitude":"136.08333330","name":"Era"},{"id":"1294857","latitude":"36.06666670","longitude":"136.21666670","name":"Fukui"},{"id":"1294921","latitude":"35.66666670","longitude":"136.08333330","name":"Fukuura"},{"id":"1295144","latitude":"35.66666670","longitude":"136.03333330","name":"Futamura"},{"id":"1295208","latitude":"36.03333330","longitude":"136.01666670","name":"Gamo"},{"id":"1295276","latitude":"36.06666670","longitude":"136.21666670","name":"Gohommaru"},{"id":"1295354","latitude":"36.03333330","longitude":"136.01666670","name":"Gumisaki"},{"id":"1295355","latitude":"36.03333330","longitude":"136.01666670","name":"Gumizaki"},{"id":"1295362","latitude":"36.03333330","longitude":"136.01666670","name":"Gunzaki"},{"id":"1295465","latitude":"36.03333330","longitude":"136.53333330","name":"Haisenji"},{"id":"1295537","latitude":"36.25000000","longitude":"136.15000000","name":"Hamaji"},{"id":"1295540","latitude":"36.13333330","longitude":"136.06666670","name":"Hamaju"},{"id":"1295886","latitude":"35.61666670","longitude":"135.90000000","name":"Hayase"},{"id":"1295898","latitude":"35.61666670","longitude":"135.90000000","name":"Hayse"},{"id":"1295934","latitude":"36.03333330","longitude":"136.53333330","name":"Heisenji"},{"id":"1296033","latitude":"35.90000000","longitude":"136.16666670","name":"Higashi-hon-machi"},{"id":"1296080","latitude":"35.90000000","longitude":"136.16666670","name":"Higashi-motomachi"},{"id":"1296155","latitude":"36.18333330","longitude":"136.30000000","name":"Higashiyama"},{"id":"1296199","latitude":"35.60000000","longitude":"136.10000000","name":"Hikida"},{"id":"1296208","latitude":"35.60000000","longitude":"136.10000000","name":"Hikita"},{"id":"1296489","latitude":"36.06666670","longitude":"136.21666670","name":"Hoeicho"},{"id":"1296490","latitude":"36.06666670","longitude":"136.21666670","name":"Hoei-kamicho"},{"id":"1296491","latitude":"36.06666670","longitude":"136.21666670","name":"Hoei-kamimachi"},{"id":"1296492","latitude":"36.06666670","longitude":"136.21666670","name":"Hoekami-machi"},{"id":"1296552","latitude":"35.48333330","longitude":"135.61666670","name":"Hongo"},{"id":"1296732","latitude":"36.06666670","longitude":"136.21666670","name":"Hukui"},{"id":"1296806","latitude":"36.06666670","longitude":"136.41666670","name":"Ichiarakawa"},{"id":"1297129","latitude":"35.76666670","longitude":"136.20000000","name":"Imajo"},{"id":"1297206","latitude":"35.88333330","longitude":"136.35000000","name":"Inari"},{"id":"1297314","latitude":"35.71666670","longitude":"136.03333330","name":"Irogahama"},{"id":"1297315","latitude":"35.71666670","longitude":"136.03333330","name":"Irohama"},{"id":"1297555","latitude":"35.98333330","longitude":"136.08333330","name":"Ito"},{"id":"1297573","latitude":"35.70000000","longitude":"136.08333330","name":"Itsubata"},{"id":"1297575","latitude":"35.70000000","longitude":"136.08333330","name":"Itsuhata"},{"id":"1297589","latitude":"35.70000000","longitude":"136.08333330","name":"Ituhata"},{"id":"1297704","latitude":"35.68333330","longitude":"136.26666670","name":"Iwaya"},{"id":"1297822","latitude":"35.68333330","longitude":"136.03333330","name":"Jogo"},{"id":"1297824","latitude":"35.68333330","longitude":"136.03333330","name":"Jogu"},{"id":"1298161","latitude":"35.83333330","longitude":"136.58333330","name":"Kami-akyu"},{"id":"1298243","latitude":"35.98333330","longitude":"136.08333330","name":"Kami-itofu"},{"id":"1298244","latitude":"35.98333330","longitude":"136.08333330","name":"Kami-ito"},{"id":"1298529","latitude":"35.90000000","longitude":"136.53333330","name":"Kami-wakago"},{"id":"1298530","latitude":"35.90000000","longitude":"136.53333330","name":"Kami-wakogo"},{"id":"1298669","latitude":"36.21666670","longitude":"136.23333330","name":"Kanazu"},{"id":"1298991","latitude":"35.53333330","longitude":"135.71666670","name":"Kataumi"},{"id":"1299014","latitude":"35.53333330","longitude":"135.71666670","name":"Katsumi"},{"id":"1299033","latitude":"35.53333330","longitude":"135.71666670","name":"Katsuumi"},{"id":"1299039","latitude":"36.05000000","longitude":"136.50000000","name":"Katsuyama"},{"id":"1299094","latitude":"35.60000000","longitude":"135.95000000","name":"Kawaharaichi"},{"id":"1299107","latitude":"35.90000000","longitude":"136.66666670","name":"Kawai"},{"id":"1299170","latitude":"35.60000000","longitude":"135.95000000","name":"Kawaraichi"},{"id":"1299493","latitude":"36.26666670","longitude":"136.23333330","name":"Kitagata-higashi"},{"id":"1299494","latitude":"36.26666670","longitude":"136.20000000","name":"Kitagata"},{"id":"1299501","latitude":"36.25000000","longitude":"136.21666670","name":"Kitagata-nishi"},{"id":"1299589","latitude":"36.10000000","longitude":"136.55000000","name":"Kitarokurishi"},{"id":"1299590","latitude":"36.10000000","longitude":"136.55000000","name":"Kitarokuroshi"},{"id":"1299908","latitude":"35.93333330","longitude":"135.98333330","name":"Ko-konogi"},{"id":"1299931","latitude":"35.93333330","longitude":"135.98333330","name":"Ko-kunugi"},{"id":"1299996","latitude":"35.88333330","longitude":"136.00000000","name":"Komenoura"},{"id":"1300048","latitude":"35.93333330","longitude":"135.98333330","name":"Konogi"},{"id":"1300051","latitude":"35.81666670","longitude":"136.06666670","name":"Kono"},{"id":"1300067","latitude":"36.06666670","longitude":"136.03333330","name":"Ko-nyu"},{"id":"1300181","latitude":"36.01666670","longitude":"136.35000000","name":"Kowa-shimizu"},{"id":"1300183","latitude":"36.01666670","longitude":"136.35000000","name":"Kowashozu"},{"id":"1300315","latitude":"35.60000000","longitude":"135.91666670","name":"Kugushi"},{"id":"1300345","latitude":"35.60000000","longitude":"135.91666670","name":"Kukushi"},{"id":"1300353","latitude":"35.43333330","longitude":"135.90000000","name":"Kumagawa"},{"id":"1300359","latitude":"35.43333330","longitude":"135.90000000","name":"Kumakawa"},{"id":"1300395","latitude":"36.03333330","longitude":"136.01666670","name":"Kumizaki"},{"id":"1300446","latitude":"35.48333330","longitude":"135.90000000","name":"Kurami"},{"id":"1300659","latitude":"35.68333330","longitude":"136.03333330","name":"Kutsu"},{"id":"1300663","latitude":"35.68333330","longitude":"136.03333330","name":"Kutu"},{"id":"1300898","latitude":"36.08333330","longitude":"136.20000000","name":"Makinoshima-cho"},{"id":"1300899","latitude":"36.08333330","longitude":"136.20000000","name":"Makinoshima"},{"id":"1300905","latitude":"36.08333330","longitude":"136.20000000","name":"Makishima"},{"id":"1300956","latitude":"35.66666670","longitude":"136.08333330","name":"Mariyama"},{"id":"1300972","latitude":"36.15000000","longitude":"136.26666670","name":"Maruoka"},{"id":"1300980","latitude":"36.06666670","longitude":"136.25000000","name":"Maruyamacho"},{"id":"1300981","latitude":"35.66666670","longitude":"136.08333330","name":"Maruyama"},{"id":"1301098","latitude":"36.08333330","longitude":"136.30000000","name":"Matsuoka"},{"id":"1301111","latitude":"35.65000000","longitude":"136.06666670","name":"Matsushima"},{"id":"1301194","latitude":"36.13333330","longitude":"136.06666670","name":"Mera"},{"id":"1301270","latitude":"35.55000000","longitude":"135.91666670","name":"Mikata"},{"id":"1301297","latitude":"36.21666670","longitude":"136.15000000","name":"Mikuni"},{"id":"1301894","latitude":"36.10000000","longitude":"136.21666670","name":"Morita"},{"id":"1301951","latitude":"35.75000000","longitude":"136.10000000","name":"Moto-hida"},{"id":"1301983","latitude":"35.75000000","longitude":"136.10000000","name":"Mototaguita"},{"id":"1302160","latitude":"35.58333330","longitude":"136.08333330","name":"Myojincho"},{"id":"1302323","latitude":"35.66666670","longitude":"136.03333330","name":"Nago"},{"id":"1302392","latitude":"36.20000000","longitude":"136.26666670","name":"Nakagawa"},{"id":"1302432","latitude":"35.45000000","longitude":"135.71666670","name":"Nakai"},{"id":"1302440","latitude":"35.86666670","longitude":"136.50000000","name":"Nakajima"},{"id":"1302458","latitude":"36.20000000","longitude":"136.26666670","name":"Nakakawa"},{"id":"1302588","latitude":"35.86666670","longitude":"136.50000000","name":"Nakashima"},{"id":"1302617","latitude":"35.88333330","longitude":"136.60000000","name":"Nakatatsukozan"},{"id":"1302618","latitude":"35.88333330","longitude":"136.60000000","name":"Nakatatsu"},{"id":"1302632","latitude":"35.85000000","longitude":"136.10000000","name":"Nakatsubara"},{"id":"1302635","latitude":"35.85000000","longitude":"136.10000000","name":"Nakatsuharacho"},{"id":"1302636","latitude":"35.85000000","longitude":"136.10000000","name":"Nakatsuhara"},{"id":"1302733","latitude":"36.25000000","longitude":"136.21666670","name":"Namimatsu"},{"id":"1302861","latitude":"35.68333330","longitude":"136.03333330","name":"Nawama"},{"id":"1303150","latitude":"35.96666670","longitude":"136.60000000","name":"Nishi-kadohara"},{"id":"1303151","latitude":"35.96666670","longitude":"136.60000000","name":"Nishi-kadowara"},{"id":"1303201","latitude":"35.51666670","longitude":"135.63333330","name":"Nishimuba"},{"id":"1303204","latitude":"35.51666670","longitude":"135.63333330","name":"Nishimura"},{"id":"1303317","latitude":"35.50000000","longitude":"135.75000000","name":"Nishizu"},{"id":"1303324","latitude":"35.50000000","longitude":"135.75000000","name":"Nisizu"},{"id":"1303408","latitude":"36.16666670","longitude":"136.28333330","name":"Nohne"},{"id":"1303440","latitude":"35.68333330","longitude":"136.03333330","name":"Noma"},{"id":"1303462","latitude":"36.16666670","longitude":"136.28333330","name":"None"},{"id":"1303604","latitude":"36.06666670","longitude":"136.03333330","name":"Nyu"},{"id":"1303624","latitude":"35.50000000","longitude":"135.75000000","name":"Obama"},{"id":"1303704","latitude":"35.95000000","longitude":"136.23333330","name":"Ochii"},{"id":"1303734","latitude":"35.95000000","longitude":"136.05000000","name":"Oda"},{"id":"1303819","latitude":"35.60000000","longitude":"135.85000000","name":"Ogawa"},{"id":"1303900","latitude":"35.51666670","longitude":"135.51666670","name":"Oguroi"},{"id":"1303901","latitude":"35.51666670","longitude":"135.51666670","name":"Ogurui"},{"id":"1303909","latitude":"35.50000000","longitude":"135.75000000","name":"Ohama"},{"id":"1303947","latitude":"35.73333330","longitude":"136.10000000","name":"O-hida"},{"id":"1304268","latitude":"36.06666670","longitude":"136.21666670","name":"Omachi"},{"id":"1304440","latitude":"35.98333330","longitude":"136.48333330","name":"Ono"},{"id":"1304481","latitude":"35.48333330","longitude":"135.78333330","name":"Onyu"},{"id":"1304482","latitude":"36.06666670","longitude":"136.03333330","name":"O-nyu"},{"id":"1304511","latitude":"35.95000000","longitude":"136.35000000","name":"Oritate"},{"id":"1304630","latitude":"35.75000000","longitude":"136.10000000","name":"Otaguita"},{"id":"1304654","latitude":"35.78333330","longitude":"136.10000000","name":"Otani"},{"id":"1304670","latitude":"35.95000000","longitude":"136.05000000","name":"Ota"},{"id":"1304697","latitude":"36.06666670","longitude":"136.21666670","name":"Otemachi"},{"id":"1304702","latitude":"36.06666670","longitude":"136.21666670","name":"Ote"},{"id":"1304771","latitude":"35.61666670","longitude":"135.98333330","name":"Otta"},{"id":"1305031","latitude":"35.95000000","longitude":"136.18333330","name":"Sabae"},{"id":"1305044","latitude":"35.61666670","longitude":"135.98333330","name":"Sada"},{"id":"1305442","latitude":"35.61666670","longitude":"135.98333330","name":"Sata"},{"id":"1305638","latitude":"35.80000000","longitude":"136.30000000","name":"Seto"},{"id":"1305770","latitude":"36.05000000","longitude":"136.35000000","name":"Shihi"},{"id":"1305781","latitude":"36.05000000","longitude":"136.35000000","name":"Shii"},{"id":"1305896","latitude":"36.06666670","longitude":"136.40000000","name":"Shimizu"},{"id":"1305929","latitude":"35.83333330","longitude":"136.56666670","name":"Shimo-akyu"},{"id":"1306212","latitude":"35.95000000","longitude":"136.25000000","name":"Shimo-tonokuchi"},{"id":"1306636","latitude":"35.86666670","longitude":"136.36666670","name":"Shizuhara"},{"id":"1306714","latitude":"36.01666670","longitude":"136.31666670","name":"Shukununo"},{"id":"1306879","latitude":"35.65000000","longitude":"135.96666670","name":"Sougahama"},{"id":"1306910","latitude":"35.65000000","longitude":"135.96666670","name":"Sugahama"},{"id":"1306965","latitude":"35.73333330","longitude":"136.10000000","name":"Suitsu"},{"id":"1306968","latitude":"35.73333330","longitude":"136.10000000","name":"Suizu"},{"id":"1307176","latitude":"35.53333330","longitude":"135.83333330","name":"Tagarasu"},{"id":"1307186","latitude":"35.53333330","longitude":"135.83333330","name":"Tagorasu"},{"id":"1307237","latitude":"35.53333330","longitude":"135.83333330","name":"Tajima"},{"id":"1307298","latitude":"35.48333330","longitude":"135.55000000","name":"Takahama"},{"id":"1307382","latitude":"35.53333330","longitude":"135.83333330","name":"Takarasu"},{"id":"1307479","latitude":"35.90000000","longitude":"136.16666670","name":"Takebo"},{"id":"1307480","latitude":"35.90000000","longitude":"136.16666670","name":"Takebu"},{"id":"1307489","latitude":"35.90000000","longitude":"136.16666670","name":"Takefu"},{"id":"1307499","latitude":"35.90000000","longitude":"136.16666670","name":"Takehu"},{"id":"1307613","latitude":"35.96666670","longitude":"135.96666670","name":"Tamagawa"},{"id":"1307733","latitude":"35.71666670","longitude":"136.03333330","name":"Tanoura"},{"id":"1307811","latitude":"35.75000000","longitude":"136.03333330","name":"Tateishi"},{"id":"1307924","latitude":"35.71666670","longitude":"136.03333330","name":"Tenoura"},{"id":"1307977","latitude":"35.71666670","longitude":"136.03333330","name":"Te"},{"id":"1308043","latitude":"35.55000000","longitude":"135.90000000","name":"Toeihoma"},{"id":"1308074","latitude":"36.01666670","longitude":"136.26666670","name":"Togo"},{"id":"1308099","latitude":"36.23333330","longitude":"136.11666670","name":"Tojimbo"},{"id":"1308316","latitude":"35.60000000","longitude":"136.15000000","name":"Tone"},{"id":"1308351","latitude":"35.55000000","longitude":"135.90000000","name":"Torihama"},{"id":"1308692","latitude":"35.65000000","longitude":"136.06666670","name":"Tsuruga"},{"id":"1308773","latitude":"35.65000000","longitude":"136.06666670","name":"Turuga"},{"id":"1308991","latitude":"35.95000000","longitude":"135.98333330","name":"Umeura"},{"id":"1309081","latitude":"35.73333330","longitude":"136.03333330","name":"Urasoko"},{"id":"1309099","latitude":"35.73333330","longitude":"136.03333330","name":"Urazoko"},{"id":"1309143","latitude":"36.25000000","longitude":"136.28333330","name":"Ushinoya"},{"id":"1309280","latitude":"35.48333330","longitude":"135.58333330","name":"Wada"},{"id":"1309367","latitude":"35.90000000","longitude":"136.53333330","name":"Wakogo"},{"id":"1309559","latitude":"35.93333330","longitude":"136.53333330","name":"Yamada"},{"id":"1309641","latitude":"36.05000000","longitude":"136.20000000","name":"Yamanokucho"},{"id":"1309642","latitude":"36.05000000","longitude":"136.20000000","name":"Yamanoku"},{"id":"1309643","latitude":"36.05000000","longitude":"136.20000000","name":"Yamanookucho"},{"id":"1309653","latitude":"36.05000000","longitude":"136.20000000","name":"Yamaoku"},{"id":"1309654","latitude":"35.88333330","longitude":"135.66666670","name":"Yamasaki"},{"id":"1309699","latitude":"35.88333330","longitude":"135.66666670","name":"Yamazaki"},{"id":"1309857","latitude":"35.70000000","longitude":"136.08333330","name":"Yeryo"},{"id":"1309921","latitude":"35.73333330","longitude":"136.10000000","name":"Yokohama"},{"id":"1310030","latitude":"35.98333330","longitude":"136.16666670","name":"Yoshie"},{"id":"1310194","latitude":"35.78333330","longitude":"136.20000000","name":"Yuno-mura"},{"id":"1310195","latitude":"35.78333330","longitude":"136.20000000","name":"Yunoo"}]