[{"id":"1293299","latitude":"35.78333330","longitude":"137.70000000","name":"Agematsu"},{"id":"1293324","latitude":"36.35000000","longitude":"138.00000000","name":"Aida"},{"id":"1293367","latitude":"36.35000000","longitude":"138.00000000","name":"Aita"},{"id":"1293383","latitude":"35.51666670","longitude":"137.88333330","name":"Ajima"},{"id":"1293410","latitude":"35.73333330","longitude":"137.93333330","name":"Akaho"},{"id":"1293419","latitude":"36.98333330","longitude":"138.51666670","name":"Akaishi"},{"id":"1293433","latitude":"36.18333330","longitude":"137.80000000","name":"Akamatsu"},{"id":"1293441","latitude":"36.35000000","longitude":"137.93333330","name":"Akanashi"},{"id":"1293478","latitude":"36.98333330","longitude":"138.51666670","name":"Akashi"},{"id":"1293481","latitude":"36.35000000","longitude":"137.93333330","name":"Akashina"},{"id":"1293503","latitude":"36.35000000","longitude":"137.93333330","name":"Akeshina"},{"id":"1293649","latitude":"36.60000000","longitude":"137.88333330","name":"Aogu"},{"id":"1293657","latitude":"36.36666670","longitude":"138.13333330","name":"Aoki"},{"id":"1293659","latitude":"36.35000000","longitude":"137.88333330","name":"Aoki-gemi"},{"id":"1293660","latitude":"36.61666670","longitude":"138.18333330","name":"Aokijima"},{"id":"1293661","latitude":"36.61666670","longitude":"138.18333330","name":"Aokijimamachi-Aokijima"},{"id":"1293662","latitude":"36.35000000","longitude":"137.88333330","name":"Aoki-kemi"},{"id":"1293663","latitude":"36.60000000","longitude":"137.88333330","name":"Aoku"},{"id":"1293677","latitude":"36.60000000","longitude":"137.88333330","name":"Aotomo"},{"id":"1293726","latitude":"35.55000000","longitude":"137.63333330","name":"Araragi"},{"id":"1293822","latitude":"36.26666670","longitude":"137.98333330","name":"Asama"},{"id":"1293852","latitude":"36.26666670","longitude":"138.31666670","name":"Ashida"},{"id":"1293862","latitude":"35.51666670","longitude":"137.88333330","name":"Ashima"},{"id":"1293874","latitude":"36.26666670","longitude":"138.31666670","name":"Ashita"},{"id":"1293937","latitude":"35.96666670","longitude":"138.66666670","name":"Atsusayama"},{"id":"1293960","latitude":"35.35000000","longitude":"137.80000000","name":"Awano"},{"id":"1294017","latitude":"36.13333330","longitude":"137.71666670","name":"Azumi"},{"id":"1294018","latitude":"36.25000000","longitude":"137.91666670","name":"Azusabashi"},{"id":"1294019","latitude":"36.25000000","longitude":"137.91666670","name":"Azusaboshi"},{"id":"1294022","latitude":"35.96666670","longitude":"138.66666670","name":"Azusayama"},{"id":"1294028","latitude":"36.96666670","longitude":"138.45000000","name":"Baba"},{"id":"1294049","latitude":"36.96666670","longitude":"138.45000000","name":"Bamba"},{"id":"1294052","latitude":"36.23333330","longitude":"138.43333330","name":"Bammachi"},{"id":"1294110","latitude":"36.35000000","longitude":"138.15000000","name":"Bessho"},{"id":"1294242","latitude":"36.45000000","longitude":"138.16666670","name":"Chikaraishi"},{"id":"1294258","latitude":"36.75000000","longitude":"137.90000000","name":"Chikuni"},{"id":"1294281","latitude":"35.98333330","longitude":"138.15000000","name":"Chino"},{"id":"1294354","latitude":"36.73333330","longitude":"138.08333330","name":"Chusha"},{"id":"1294386","latitude":"36.10000000","longitude":"137.96666670","name":"Daimon"},{"id":"1294399","latitude":"36.50000000","longitude":"137.86666670","name":"Daishinden"},{"id":"1294495","latitude":"36.08333330","longitude":"138.48333330","name":"Domura"},{"id":"1294504","latitude":"36.76666670","longitude":"137.90000000","name":"Dorosaki"},{"id":"1294505","latitude":"36.76666670","longitude":"137.90000000","name":"Dorozaki"},{"id":"1294809","latitude":"36.23333330","longitude":"137.96666670","name":"Fukase"},{"id":"1294812","latitude":"36.23333330","longitude":"137.96666670","name":"Fukashi"},{"id":"1294914","latitude":"35.85000000","longitude":"137.70000000","name":"Fukushima"},{"id":"1295257","latitude":"36.13333330","longitude":"137.93333330","name":"Gobara"},{"id":"1295275","latitude":"36.13333330","longitude":"137.93333330","name":"Gohara"},{"id":"1295638","latitude":"36.05000000","longitude":"138.05000000","name":"Hanaoka"},{"id":"1295710","latitude":"35.96666670","longitude":"138.55000000","name":"Hara"},{"id":"1295833","latitude":"36.13333330","longitude":"138.46666670","name":"Hata"},{"id":"1296017","latitude":"36.53333330","longitude":"138.33333330","name":"Higashi-gumi"},{"id":"1296043","latitude":"36.55000000","longitude":"138.21666670","name":"Higashi-jo"},{"id":"1296044","latitude":"36.55000000","longitude":"138.21666670","name":"Higashi-jo-mura"},{"id":"1296114","latitude":"36.98333330","longitude":"138.48333330","name":"Higashi-otaki"},{"id":"1296148","latitude":"36.63333330","longitude":"138.18333330","name":"Higashitsuruga"},{"id":"1296149","latitude":"36.63333330","longitude":"138.18333330","name":"Higashi-tsurugamachi"},{"id":"1296313","latitude":"36.05000000","longitude":"138.05000000","name":"Hirano"},{"id":"1296319","latitude":"35.26666670","longitude":"137.85000000","name":"Hiraoka"},{"id":"1296325","latitude":"35.98333330","longitude":"137.83333330","name":"Hirasawa"},{"id":"1296337","latitude":"35.31666670","longitude":"137.63333330","name":"Hiratani"},{"id":"1296350","latitude":"35.31666670","longitude":"137.63333330","name":"Hiraya"},{"id":"1296376","latitude":"36.13333330","longitude":"137.93333330","name":"Hirooka-Gobara"},{"id":"1296404","latitude":"35.45000000","longitude":"137.71666670","name":"Hirugami"},{"id":"1296408","latitude":"35.45000000","longitude":"137.71666670","name":"Hirukami"},{"id":"1296437","latitude":"36.25000000","longitude":"137.90000000","name":"Hitoichiba"},{"id":"1296441","latitude":"36.25000000","longitude":"137.90000000","name":"Hitoichi"},{"id":"1296513","latitude":"36.73333330","longitude":"138.08333330","name":"Hokosha"},{"id":"1296688","latitude":"36.58333330","longitude":"138.26666670","name":"Hoshina"},{"id":"1296712","latitude":"36.33333330","longitude":"137.88333330","name":"Hotaka"},{"id":"1296811","latitude":"35.55000000","longitude":"137.90000000","name":"Ichiba"},{"id":"1296892","latitude":"35.73333330","longitude":"138.08333330","name":"Ichinose"},{"id":"1296957","latitude":"35.51666670","longitude":"137.83333330","name":"Iida"},{"id":"1296963","latitude":"35.30000000","longitude":"137.88333330","name":"Iijima"},{"id":"1296984","latitude":"36.85000000","longitude":"138.36666670","name":"Iiyama"},{"id":"1297017","latitude":"36.41666670","longitude":"137.88333330","name":"Ikeda"},{"id":"1297041","latitude":"35.71666670","longitude":"137.71666670","name":"Ikenoshiri"},{"id":"1297194","latitude":"35.83333330","longitude":"137.95000000","name":"Ina"},{"id":"1297208","latitude":"36.53333330","longitude":"138.11666670","name":"Inariyama"},{"id":"1297217","latitude":"35.50000000","longitude":"137.85000000","name":"Inayawata"},{"id":"1297385","latitude":"36.80000000","longitude":"137.91666670","name":"Ishihara"},{"id":"1297444","latitude":"36.80000000","longitude":"137.91666670","name":"Ishiwara"},{"id":"1297504","latitude":"35.96666670","longitude":"138.48333330","name":"Itabashi"},{"id":"1297512","latitude":"35.96666670","longitude":"138.48333330","name":"Itahashi"},{"id":"1297655","latitude":"36.26666670","longitude":"138.46666670","name":"Iwamurada"},{"id":"1297658","latitude":"36.26666670","longitude":"138.46666670","name":"Iwamurata"},{"id":"1297713","latitude":"36.85000000","longitude":"138.36666670","name":"Iyama"},{"id":"1297918","latitude":"35.38333330","longitude":"137.96666670","name":"Kadomachi"},{"id":"1297920","latitude":"35.38333330","longitude":"137.96666670","name":"Kadomura"},{"id":"1297929","latitude":"36.76666670","longitude":"138.31666670","name":"Kaesa"},{"id":"1298032","latitude":"36.60000000","longitude":"138.03333330","name":"Kakajo"},{"id":"1298040","latitude":"35.80000000","longitude":"137.68333330","name":"Kakehashi"},{"id":"1298046","latitude":"36.30000000","longitude":"138.13333330","name":"Kakevu"},{"id":"1298049","latitude":"36.30000000","longitude":"138.13333330","name":"Kakeyu"},{"id":"1298167","latitude":"35.60000000","longitude":"137.91666670","name":"Kami-arai"},{"id":"1298214","latitude":"36.26666670","longitude":"138.15000000","name":"Kami-honiri"},{"id":"1298232","latitude":"36.41666670","longitude":"137.93333330","name":"Kami-ikusaka"},{"id":"1298235","latitude":"36.75000000","longitude":"138.31666670","name":"Kamiimai"},{"id":"1298277","latitude":"36.25000000","longitude":"137.63333330","name":"Kamikochi"},{"id":"1298279","latitude":"36.25000000","longitude":"137.63333330","name":"Kamikochi-onsen"},{"id":"1298310","latitude":"35.38333330","longitude":"137.96666670","name":"Kamimachi"},{"id":"1298364","latitude":"36.21666670","longitude":"137.90000000","name":"Kami-nii"},{"id":"1298437","latitude":"35.50000000","longitude":"137.68333330","name":"Kami-seinaiji"},{"id":"1298452","latitude":"36.41666670","longitude":"138.21666670","name":"Kami-shiojiri"},{"id":"1298465","latitude":"36.03333330","longitude":"138.13333330","name":"Kamisuwa"},{"id":"1298472","latitude":"36.28333330","longitude":"138.23333330","name":"Kami-takeshi"},{"id":"1298624","latitude":"36.35000000","longitude":"138.01666670","name":"Kanai"},{"id":"1298904","latitude":"36.80000000","longitude":"138.20000000","name":"Kashiwabara"},{"id":"1298912","latitude":"36.80000000","longitude":"138.20000000","name":"Kashiwahara"},{"id":"1298936","latitude":"36.21666670","longitude":"138.35000000","name":"Kasuga"},{"id":"1298955","latitude":"35.61666670","longitude":"137.88333330","name":"Katagiri"},{"id":"1299258","latitude":"35.45000000","longitude":"137.88333330","name":"Kazabari"},{"id":"1299259","latitude":"35.45000000","longitude":"137.88333330","name":"Kazahari"},{"id":"1299265","latitude":"36.35000000","longitude":"138.35000000","name":"Kazawa"},{"id":"1299267","latitude":"35.45000000","longitude":"137.88333330","name":"Kazebari"},{"id":"1299365","latitude":"36.85000000","longitude":"138.38333330","name":"Kijima"},{"id":"1299398","latitude":"36.68333330","longitude":"138.00000000","name":"Kinasa"},{"id":"1299418","latitude":"35.90000000","longitude":"137.98333330","name":"Kinoshita"},{"id":"1299437","latitude":"36.80000000","longitude":"138.61666670","name":"Kiriake"},{"id":"1299471","latitude":"35.85000000","longitude":"137.70000000","name":"Kiso-fukushima"},{"id":"1299551","latitude":"36.01666670","longitude":"138.08333330","name":"Kita-majino"},{"id":"1299556","latitude":"36.01666670","longitude":"138.08333330","name":"Kita-mashino"},{"id":"1299565","latitude":"36.80000000","longitude":"138.31666670","name":"Kita-nagae"},{"id":"1299585","latitude":"36.05000000","longitude":"137.96666670","name":"Kita-ono"},{"id":"1299586","latitude":"36.23333330","longitude":"137.88333330","name":"Kita-otsuma"},{"id":"1299587","latitude":"36.23333330","longitude":"137.88333330","name":"Kita-ozuma"},{"id":"1299726","latitude":"36.70000000","longitude":"138.31666670","name":"Kobuse"},{"id":"1299870","latitude":"36.38333330","longitude":"138.20000000","name":"Koizumi"},{"id":"1299938","latitude":"35.43333330","longitude":"137.73333330","name":"Komaba"},{"id":"1299950","latitude":"36.23333330","longitude":"138.56666670","name":"Komagome"},{"id":"1299964","latitude":"35.43333330","longitude":"137.73333330","name":"Komamba"},{"id":"1300007","latitude":"36.23333330","longitude":"137.91666670","name":"Komiya"},{"id":"1300018","latitude":"36.31666670","longitude":"138.43333330","name":"Komoro"},{"id":"1300066","latitude":"35.58333330","longitude":"137.90000000","name":"Konuma"},{"id":"1300187","latitude":"36.23333330","longitude":"137.96666670","name":"Koyaganagi-machi"},{"id":"1300202","latitude":"36.63333330","longitude":"138.30000000","name":"Koyama"},{"id":"1300207","latitude":"36.23333330","longitude":"137.96666670","name":"Koyanagicho"},{"id":"1300473","latitude":"36.63333330","longitude":"138.20000000","name":"Kurida"},{"id":"1300489","latitude":"36.63333330","longitude":"138.20000000","name":"Kurita"},{"id":"1300502","latitude":"35.81666670","longitude":"137.65000000","name":"Kuroda"},{"id":"1300524","latitude":"36.76666670","longitude":"137.90000000","name":"Kurokawa"},{"id":"1300553","latitude":"35.85000000","longitude":"137.63333330","name":"Kurosawa"},{"id":"1300657","latitude":"36.35000000","longitude":"138.60000000","name":"Kutsukake"},{"id":"1300675","latitude":"36.96666670","longitude":"138.45000000","name":"Kuwanagawa"},{"id":"1300731","latitude":"36.36666670","longitude":"138.63333330","name":"Kyu-karuisawa"},{"id":"1300732","latitude":"36.36666670","longitude":"138.63333330","name":"Kyu-karuizawa"},{"id":"1300762","latitude":"35.25000000","longitude":"137.75000000","name":"Machi"},{"id":"1300932","latitude":"36.63333330","longitude":"138.23333330","name":"Mamejima"},{"id":"1300936","latitude":"36.08333330","longitude":"138.48333330","name":"Managashi"},{"id":"1300955","latitude":"36.31666670","longitude":"138.26666670","name":"Mariko"},{"id":"1300968","latitude":"36.31666670","longitude":"138.26666670","name":"Maruko"},{"id":"1300999","latitude":"36.01666670","longitude":"138.08333330","name":"Mashino"},{"id":"1301087","latitude":"36.23333330","longitude":"137.96666670","name":"Matsumoto"},{"id":"1301114","latitude":"35.90000000","longitude":"137.98333330","name":"Matsushima"},{"id":"1301115","latitude":"36.56666670","longitude":"138.20000000","name":"Matsushiro"},{"id":"1301137","latitude":"36.23333330","longitude":"137.96666670","name":"Matumoto"},{"id":"1301223","latitude":"35.91666670","longitude":"138.10000000","name":"Midogaito"},{"id":"1301225","latitude":"35.91666670","longitude":"138.10000000","name":"Midokaito"},{"id":"1301226","latitude":"35.60000000","longitude":"137.61666670","name":"Midono"},{"id":"1301344","latitude":"36.63333330","longitude":"138.20000000","name":"Minami-ichi"},{"id":"1301366","latitude":"36.00000000","longitude":"138.10000000","name":"Minami-majino"},{"id":"1301367","latitude":"36.00000000","longitude":"138.10000000","name":"Minami-mashino"},{"id":"1301373","latitude":"36.78333330","longitude":"138.30000000","name":"Minami-nagae"},{"id":"1301381","latitude":"36.76666670","longitude":"137.90000000","name":"Minami Otari"},{"id":"1301382","latitude":"36.21666670","longitude":"137.88333330","name":"Minami-otsuma"},{"id":"1301383","latitude":"36.21666670","longitude":"137.88333330","name":"Minami-ozuma"},{"id":"1301518","latitude":"35.93333330","longitude":"138.21666670","name":"Misayamagodo"},{"id":"1301519","latitude":"35.93333330","longitude":"138.21666670","name":"Misayama-kodo"},{"id":"1301522","latitude":"35.93333330","longitude":"138.21666670","name":"Mishayamagodo"},{"id":"1301603","latitude":"35.26666670","longitude":"137.85000000","name":"Mitsushima"},{"id":"1301611","latitude":"35.81666670","longitude":"137.40000000","name":"Miura"},{"id":"1301613","latitude":"36.66666670","longitude":"138.20000000","name":"Miwa"},{"id":"1301626","latitude":"35.76666670","longitude":"137.95000000","name":"Miyada"},{"id":"1301655","latitude":"35.98333330","longitude":"137.98333330","name":"Miyaki"},{"id":"1301685","latitude":"35.88333330","longitude":"137.76666670","name":"Miyanokoshi"},{"id":"1301719","latitude":"35.76666670","longitude":"137.95000000","name":"Miyata"},{"id":"1301812","latitude":"36.26666670","longitude":"138.36666670","name":"Mochitsuki"},{"id":"1301813","latitude":"36.26666670","longitude":"138.36666670","name":"Mochitzuki"},{"id":"1301814","latitude":"36.26666670","longitude":"138.36666670","name":"Mochizuki"},{"id":"1301815","latitude":"36.26666670","longitude":"138.33333330","name":"Modai"},{"id":"1301849","latitude":"35.71666670","longitude":"137.71666670","name":"Momoyama"},{"id":"1301931","latitude":"36.26666670","longitude":"138.33333330","name":"Motae"},{"id":"1301932","latitude":"36.26666670","longitude":"138.33333330","name":"Motai"},{"id":"1302006","latitude":"36.26666670","longitude":"138.36666670","name":"Motsutsuki"},{"id":"1302068","latitude":"36.16666670","longitude":"137.96666670","name":"Muraimachi"},{"id":"1302069","latitude":"36.16666670","longitude":"137.96666670","name":"Murai"},{"id":"1302094","latitude":"36.75000000","longitude":"138.23333330","name":"Murei"},{"id":"1302095","latitude":"36.75000000","longitude":"138.23333330","name":"Mure"},{"id":"1302188","latitude":"36.20000000","longitude":"138.21666670","name":"Nada"},{"id":"1302201","latitude":"36.80000000","longitude":"138.31666670","name":"Nagae"},{"id":"1302227","latitude":"36.26666670","longitude":"138.26666670","name":"Nagakubofuru"},{"id":"1302228","latitude":"36.25000000","longitude":"138.26666670","name":"Nagakuboshin"},{"id":"1302239","latitude":"36.65000000","longitude":"138.18333330","name":"Nagano"},{"id":"1302277","latitude":"36.35000000","longitude":"138.28333330","name":"Nagase"},{"id":"1302310","latitude":"36.13333330","longitude":"137.71666670","name":"Nagawado"},{"id":"1302397","latitude":"36.23333330","longitude":"138.48333330","name":"Nakagome"},{"id":"1302398","latitude":"36.23333330","longitude":"138.48333330","name":"Nakagomi"},{"id":"1302410","latitude":"36.51666670","longitude":"138.08333330","name":"Nakahara"},{"id":"1302417","latitude":"36.18333330","longitude":"137.85000000","name":"Naka-hata"},{"id":"1302449","latitude":"36.60000000","longitude":"138.03333330","name":"Nakajo"},{"id":"1302470","latitude":"36.83333330","longitude":"138.40000000","name":"Nakamachi"},{"id":"1302499","latitude":"35.48333330","longitude":"137.78333330","name":"Nakamura"},{"id":"1302524","latitude":"36.45000000","longitude":"138.20000000","name":"Nakanojo"},{"id":"1302534","latitude":"36.75000000","longitude":"138.36666670","name":"Nakano"},{"id":"1302580","latitude":"35.98333330","longitude":"138.21666670","name":"Nakasawa"},{"id":"1302603","latitude":"35.98333330","longitude":"138.21666670","name":"Nakassawa"},{"id":"1302651","latitude":"36.80000000","longitude":"137.91666670","name":"Nakawara"},{"id":"1302677","latitude":"35.98333330","longitude":"138.21666670","name":"Nakazawa"},{"id":"1302727","latitude":"35.36666670","longitude":"137.68333330","name":"Namiai"},{"id":"1302749","latitude":"36.96666670","longitude":"138.46666670","name":"Nanagamaki"},{"id":"1302871","latitude":"35.25000000","longitude":"137.58333330","name":"Neba"},{"id":"1302872","latitude":"35.25000000","longitude":"137.58333330","name":"Nebane"},{"id":"1302908","latitude":"35.76666670","longitude":"137.70000000","name":"Nezame"},{"id":"1302985","latitude":"36.21666670","longitude":"137.90000000","name":"Niimura"},{"id":"1302992","latitude":"35.25000000","longitude":"137.75000000","name":"Niino"},{"id":"1303067","latitude":"36.60000000","longitude":"138.33333330","name":"Nirei"},{"id":"1303068","latitude":"36.60000000","longitude":"138.33333330","name":"Nire"},{"id":"1303080","latitude":"36.65000000","longitude":"138.18333330","name":"Nishi-ato-machi"},{"id":"1303114","latitude":"36.65000000","longitude":"138.18333330","name":"Nishigocho"},{"id":"1303149","latitude":"36.40000000","longitude":"138.01666670","name":"Nishijo"},{"id":"1303189","latitude":"36.83333330","longitude":"138.40000000","name":"Nishimachi"},{"id":"1303275","latitude":"35.83333330","longitude":"138.06666670","name":"Nishi-takato"},{"id":"1303299","latitude":"36.65000000","longitude":"138.21666670","name":"Nishi-wada"},{"id":"1303363","latitude":"35.71666670","longitude":"137.71666670","name":"Noboritama"},{"id":"1303422","latitude":"35.66666670","longitude":"137.63333330","name":"Nojiri"},{"id":"1303480","latitude":"36.85000000","longitude":"138.38333330","name":"Nosakada"},{"id":"1303484","latitude":"36.21666670","longitude":"138.46666670","name":"Nosawa"},{"id":"1303512","latitude":"35.76666670","longitude":"137.70000000","name":"Nozame"},{"id":"1303515","latitude":"36.21666670","longitude":"138.46666670","name":"Nozawa"},{"id":"1303612","latitude":"36.88333330","longitude":"137.88333330","name":"Oami"},{"id":"1303692","latitude":"36.70000000","longitude":"138.31666670","name":"Obuse"},{"id":"1303877","latitude":"36.06666670","longitude":"138.05000000","name":"Oguchi"},{"id":"1303952","latitude":"36.33333330","longitude":"138.35000000","name":"Ohinata"},{"id":"1304020","latitude":"36.33333330","longitude":"138.55000000","name":"Oiwake"},{"id":"1304104","latitude":"35.55000000","longitude":"138.05000000","name":"Okawara"},{"id":"1304109","latitude":"36.05000000","longitude":"138.05000000","name":"Okaya"},{"id":"1304272","latitude":"36.50000000","longitude":"137.86666670","name":"Omachi"},{"id":"1304311","latitude":"36.45000000","longitude":"138.05000000","name":"Omi"},{"id":"1304451","latitude":"36.03333330","longitude":"137.96666670","name":"Ono"},{"id":"1304469","latitude":"35.80000000","longitude":"137.55000000","name":"Ontake"},{"id":"1304476","latitude":"35.58333330","longitude":"137.90000000","name":"Onuma"},{"id":"1304588","latitude":"36.50000000","longitude":"137.86666670","name":"O-shinden"},{"id":"1304644","latitude":"35.80000000","longitude":"137.55000000","name":"Otaki"},{"id":"1304761","latitude":"36.23333330","longitude":"137.88333330","name":"Otsuma"},{"id":"1304837","latitude":"36.36666670","longitude":"138.30000000","name":"Oya"},{"id":"1305023","latitude":"36.18333330","longitude":"137.78333330","name":"Ryujima"},{"id":"1305028","latitude":"36.18333330","longitude":"137.78333330","name":"Ryushima"},{"id":"1305124","latitude":"36.63333330","longitude":"138.31666670","name":"Sakada"},{"id":"1305151","latitude":"36.46666670","longitude":"138.18333330","name":"Sakai"},{"id":"1305161","latitude":"36.46666670","longitude":"138.18333330","name":"Sakaki"},{"id":"1305195","latitude":"36.63333330","longitude":"138.31666670","name":"Sakata"},{"id":"1305255","latitude":"36.21666670","longitude":"138.48333330","name":"Saku"},{"id":"1305293","latitude":"36.45000000","longitude":"138.33333330","name":"Sanada"},{"id":"1305388","latitude":"36.21666670","longitude":"137.95000000","name":"Sasabe"},{"id":"1305389","latitude":"36.60000000","longitude":"138.10000000","name":"Sasadaira"},{"id":"1305401","latitude":"36.60000000","longitude":"138.10000000","name":"Sasahira"},{"id":"1305472","latitude":"36.16666670","longitude":"137.65000000","name":"Sawado"},{"id":"1305477","latitude":"36.16666670","longitude":"137.65000000","name":"Sawando"},{"id":"1305481","latitude":"36.16666670","longitude":"137.65000000","name":"Sawanodo"},{"id":"1305482","latitude":"36.16666670","longitude":"137.65000000","name":"Sawanoto"},{"id":"1305497","latitude":"36.08333330","longitude":"137.91666670","name":"Seba"},{"id":"1305830","latitude":"36.98333330","longitude":"138.58333330","name":"Shikumi"},{"id":"1305852","latitude":"36.18333330","longitude":"137.78333330","name":"Shimajima"},{"id":"1305912","latitude":"36.38333330","longitude":"138.30000000","name":"Shimmachi"},{"id":"1305949","latitude":"35.73333330","longitude":"137.96666670","name":"Shimodaira"},{"id":"1305963","latitude":"35.85000000","longitude":"137.63333330","name":"Shimodono"},{"id":"1305976","latitude":"36.31666670","longitude":"138.41666670","name":"Shimogawara"},{"id":"1305990","latitude":"36.18333330","longitude":"137.85000000","name":"Shimo-hata"},{"id":"1306043","latitude":"36.31666670","longitude":"138.41666670","name":"Shimokawahara"},{"id":"1306045","latitude":"36.31666670","longitude":"138.41666670","name":"Shimo-kawara"},{"id":"1306114","latitude":"36.21666670","longitude":"137.91666670","name":"Shimo-nii"},{"id":"1306121","latitude":"36.36666670","longitude":"138.21666670","name":"Shimonogo"},{"id":"1306142","latitude":"36.16666670","longitude":"137.86666670","name":"Shimo-oike"},{"id":"1306167","latitude":"35.48333330","longitude":"137.70000000","name":"Shimo-seinaiji"},{"id":"1306184","latitude":"36.06666670","longitude":"138.08333330","name":"Shimo-suwa"},{"id":"1306196","latitude":"36.28333330","longitude":"138.23333330","name":"Shimo-takeshi"},{"id":"1306213","latitude":"35.85000000","longitude":"137.63333330","name":"Shimotono"},{"id":"1306276","latitude":"36.48333330","longitude":"138.25000000","name":"Shinden"},{"id":"1306310","latitude":"36.35000000","longitude":"138.63333330","name":"Shin-karuisawa"},{"id":"1306311","latitude":"36.35000000","longitude":"138.63333330","name":"Shin-karuizawa"},{"id":"1306335","latitude":"35.25000000","longitude":"137.75000000","name":"Shinno"},{"id":"1306343","latitude":"36.58333330","longitude":"138.15000000","name":"Shinonoi"},{"id":"1306359","latitude":"36.08333330","longitude":"137.91666670","name":"Shin-seba"},{"id":"1306414","latitude":"36.10000000","longitude":"137.96666670","name":"Shiojiri"},{"id":"1306426","latitude":"36.26666670","longitude":"138.41666670","name":"Shionada"},{"id":"1306432","latitude":"36.55000000","longitude":"138.11666670","name":"Shiosaki"},{"id":"1306451","latitude":"36.55000000","longitude":"138.11666670","name":"Shiozaki"},{"id":"1306644","latitude":"36.83333330","longitude":"138.35000000","name":"Shizuma"},{"id":"1306687","latitude":"36.23333330","longitude":"137.96666670","name":"Shonai"},{"id":"1306765","latitude":"36.38333330","longitude":"138.30000000","name":"Simmachi"},{"id":"1306784","latitude":"36.10000000","longitude":"137.96666670","name":"Sioziri"},{"id":"1306951","latitude":"36.26666670","longitude":"138.15000000","name":"Suguri"},{"id":"1306952","latitude":"35.70000000","longitude":"137.70000000","name":"Suhara"},{"id":"1307055","latitude":"36.65000000","longitude":"138.31666670","name":"Susaka"},{"id":"1307091","latitude":"36.03333330","longitude":"138.13333330","name":"Suwa"},{"id":"1307095","latitude":"36.65000000","longitude":"138.31666670","name":"Suzaka"},{"id":"1307219","latitude":"36.43333330","longitude":"138.00000000","name":"Taira"},{"id":"1307285","latitude":"36.61666670","longitude":"137.98333330","name":"Takafu"},{"id":"1307318","latitude":"36.66666670","longitude":"138.35000000","name":"Takai"},{"id":"1307356","latitude":"36.15000000","longitude":"138.48333330","name":"Takanomachi"},{"id":"1307396","latitude":"36.83333330","longitude":"138.15000000","name":"Takasawa"},{"id":"1307426","latitude":"36.66666670","longitude":"138.35000000","name":"Taka"},{"id":"1307448","latitude":"35.83333330","longitude":"138.06666670","name":"Takato"},{"id":"1307451","latitude":"36.55000000","longitude":"137.95000000","name":"Takatoya"},{"id":"1307477","latitude":"36.83333330","longitude":"138.15000000","name":"Takazawa"},{"id":"1307518","latitude":"36.28333330","longitude":"138.23333330","name":"Takeshi"},{"id":"1307548","latitude":"35.81666670","longitude":"137.45000000","name":"Takigoe"},{"id":"1307550","latitude":"35.81666670","longitude":"137.45000000","name":"Takigoshi"},{"id":"1307670","latitude":"36.35000000","longitude":"138.33333330","name":"Tanaka"},{"id":"1307715","latitude":"36.20000000","longitude":"138.50000000","name":"Tanoguchi"},{"id":"1307722","latitude":"36.20000000","longitude":"138.50000000","name":"Tanokuchi"},{"id":"1307857","latitude":"35.98333330","longitude":"138.00000000","name":"Tatsuno"},{"id":"1308048","latitude":"36.73333330","longitude":"138.08333330","name":"Togakushi"},{"id":"1308054","latitude":"36.91666670","longitude":"138.38333330","name":"Togari"},{"id":"1308079","latitude":"36.48333330","longitude":"138.15000000","name":"Toguramachi"},{"id":"1308080","latitude":"36.48333330","longitude":"138.15000000","name":"Togura"},{"id":"1308089","latitude":"36.11666670","longitude":"138.10000000","name":"Toihashi"},{"id":"1308131","latitude":"36.40000000","longitude":"138.26666670","name":"Tokiere"},{"id":"1308132","latitude":"36.40000000","longitude":"138.26666670","name":"Tokiiri"},{"id":"1308135","latitude":"35.45000000","longitude":"137.83333330","name":"Tokimata"},{"id":"1308152","latitude":"35.81666670","longitude":"137.65000000","name":"Tokiwa"},{"id":"1308176","latitude":"36.68333330","longitude":"138.21666670","name":"Tokuma"},{"id":"1308183","latitude":"36.48333330","longitude":"138.15000000","name":"Tokura"},{"id":"1308245","latitude":"36.91666670","longitude":"138.31666670","name":"Tomikura"},{"id":"1308288","latitude":"36.23333330","longitude":"138.43333330","name":"Tomomachi"},{"id":"1308289","latitude":"36.23333330","longitude":"138.43333330","name":"Tomono"},{"id":"1308347","latitude":"36.21666670","longitude":"138.46666670","name":"Toridecho"},{"id":"1308348","latitude":"36.21666670","longitude":"138.46666670","name":"Toridemachi"},{"id":"1308431","latitude":"36.11666670","longitude":"138.10000000","name":"Toyobashi"},{"id":"1308445","latitude":"36.11666670","longitude":"138.10000000","name":"Toyohashi"},{"id":"1308464","latitude":"36.71666670","longitude":"138.26666670","name":"Toyono"},{"id":"1308472","latitude":"36.91666670","longitude":"138.45000000","name":"Toyosato"},{"id":"1308476","latitude":"36.30000000","longitude":"137.90000000","name":"Toyoshina"},{"id":"1308539","latitude":"36.08333330","longitude":"138.48333330","name":"Tsuchimura"},{"id":"1308600","latitude":"36.21666670","longitude":"137.98333330","name":"Tsukama"},{"id":"1308853","latitude":"36.40000000","longitude":"138.26666670","name":"Ueda"},{"id":"1308863","latitude":"35.38333330","longitude":"137.96666670","name":"Uemachi"},{"id":"1308994","latitude":"36.00000000","longitude":"138.50000000","name":"Uminokuchi"},{"id":"1309020","latitude":"36.00000000","longitude":"138.50000000","name":"Unnokuchi"},{"id":"1309159","latitude":"36.20000000","longitude":"138.48333330","name":"Usuda"},{"id":"1309261","latitude":"35.30000000","longitude":"137.81666670","name":"Wachino"},{"id":"1309272","latitude":"36.20000000","longitude":"137.91666670","name":"Wadamachi"},{"id":"1309288","latitude":"35.31666670","longitude":"137.93333330","name":"Wada"},{"id":"1309331","latitude":"36.13333330","longitude":"137.71666670","name":"Wakawado"},{"id":"1309428","latitude":"36.61666670","longitude":"138.25000000","name":"Watauchi"},{"id":"1309443","latitude":"35.93333330","longitude":"137.78333330","name":"Yabuhara"},{"id":"1309485","latitude":"35.93333330","longitude":"137.78333330","name":"Yagohara"},{"id":"1309511","latitude":"36.26666670","longitude":"138.40000000","name":"Yahata"},{"id":"1309659","latitude":"36.53333330","longitude":"137.85000000","name":"Yamasaki"},{"id":"1309738","latitude":"36.05000000","longitude":"138.46666670","name":"Yanaike"},{"id":"1309782","latitude":"36.53333330","longitude":"138.13333330","name":"Yashiro"},{"id":"1309783","latitude":"36.53333330","longitude":"138.13333330","name":"Yasiro"},{"id":"1309848","latitude":"35.50000000","longitude":"137.85000000","name":"Yawata"},{"id":"1309931","latitude":"36.75000000","longitude":"138.41666670","name":"Yokokura"},{"id":"1310002","latitude":"36.05000000","longitude":"137.68333330","name":"Yoriaido"},{"id":"1310025","latitude":"36.66666670","longitude":"138.21666670","name":"Yoshida"},{"id":"1310098","latitude":"36.70000000","longitude":"137.86666670","name":"Yotsuya"},{"id":"1310109","latitude":"36.66666670","longitude":"138.41666670","name":"Yuba"},{"id":"1310117","latitude":"36.73333330","longitude":"138.41666670","name":"Yudanaka"},{"id":"1310127","latitude":"36.03333330","longitude":"138.23333330","name":"Yugawa"},{"id":"1310144","latitude":"36.03333330","longitude":"138.23333330","name":"Yukawa"},{"id":"1310227","latitude":"36.73333330","longitude":"138.41666670","name":"Yutanaka"}]