[{"id":"1293313","latitude":"33.51666670","longitude":"134.16666670","name":"Agura"},{"id":"1293451","latitude":"33.53333330","longitude":"133.71666670","name":"Akaoka"},{"id":"1293508","latitude":"33.50000000","longitude":"133.90000000","name":"Aki"},{"id":"1293511","latitude":"33.50000000","longitude":"133.90000000","name":"Akii"},{"id":"1293542","latitude":"33.51666670","longitude":"134.16666670","name":"Akura"},{"id":"1293559","latitude":"32.80000000","longitude":"132.65000000","name":"Amaji"},{"id":"1293574","latitude":"32.80000000","longitude":"132.65000000","name":"Amazi"},{"id":"1293707","latitude":"33.48333330","longitude":"133.45000000","name":"Arakawa"},{"id":"1293773","latitude":"32.96666670","longitude":"132.83333330","name":"Arioka"},{"id":"1294170","latitude":"33.55000000","longitude":"133.56666670","name":"Botsutsumi"},{"id":"1294172","latitude":"33.55000000","longitude":"133.56666670","name":"Bozu Tsumi"},{"id":"1294325","latitude":"33.48333330","longitude":"133.13333330","name":"Choja"},{"id":"1294423","latitude":"33.03333330","longitude":"132.88333330","name":"Deai"},{"id":"1294434","latitude":"33.58333330","longitude":"133.31666670","name":"Dekichi"},{"id":"1294435","latitude":"33.58333330","longitude":"133.31666670","name":"Dekiji"},{"id":"1294479","latitude":"33.51666670","longitude":"133.91666670","name":"Doi"},{"id":"1294483","latitude":"33.60000000","longitude":"133.78333330","name":"Doinotani"},{"id":"1294550","latitude":"33.65000000","longitude":"133.33333330","name":"Edagawa"},{"id":"1294685","latitude":"33.45000000","longitude":"133.20000000","name":"Fudaba"},{"id":"1294730","latitude":"33.15000000","longitude":"132.83333330","name":"Fujinokawa"},{"id":"1294948","latitude":"32.91666670","longitude":"132.83333330","name":"Funagatoge"},{"id":"1294989","latitude":"33.41666670","longitude":"133.08333330","name":"Funato"},{"id":"1295004","latitude":"32.91666670","longitude":"132.83333330","name":"Funegatoge"},{"id":"1295155","latitude":"32.81666670","longitude":"132.70000000","name":"Futatsuishi"},{"id":"1295266","latitude":"33.73333330","longitude":"133.91666670","name":"Godo"},{"id":"1295297","latitude":"33.56666670","longitude":"133.63333330","name":"Gomen"},{"id":"1295313","latitude":"33.73333330","longitude":"133.91666670","name":"Goodo"},{"id":"1295669","latitude":"33.35000000","longitude":"134.06666670","name":"Hane"},{"id":"1295944","latitude":"32.95000000","longitude":"132.80000000","name":"Henai"},{"id":"1296025","latitude":"33.53333330","longitude":"133.56666670","name":"Higashi-harami"},{"id":"1296117","latitude":"33.58333330","longitude":"133.71666670","name":"Higashi-sako"},{"id":"1296130","latitude":"32.98333330","longitude":"132.76666670","name":"Higashi-suga"},{"id":"1296283","latitude":"33.63333330","longitude":"133.53333330","name":"Hiraishi"},{"id":"1296371","latitude":"32.83333330","longitude":"132.71666670","name":"Hiromi"},{"id":"1296385","latitude":"32.71666670","longitude":"132.55000000","name":"Hirose"},{"id":"1296521","latitude":"33.55000000","longitude":"133.55000000","name":"Hommachi"},{"id":"1296535","latitude":"33.55000000","longitude":"133.55000000","name":"Hon-cho"},{"id":"1296545","latitude":"33.21666670","longitude":"133.18333330","name":"Hondo"},{"id":"1296560","latitude":"33.21666670","longitude":"133.18333330","name":"Hongo"},{"id":"1296590","latitude":"33.55000000","longitude":"133.55000000","name":"Hon-machi"},{"id":"1296593","latitude":"32.81666670","longitude":"132.95000000","name":"Honnaro"},{"id":"1296801","latitude":"32.80000000","longitude":"132.96666670","name":"Iburi"},{"id":"1296885","latitude":"33.45000000","longitude":"133.33333330","name":"Ichinona"},{"id":"1296886","latitude":"33.45000000","longitude":"133.33333330","name":"Ichinono"},{"id":"1296891","latitude":"33.15000000","longitude":"133.13333330","name":"Ichinose"},{"id":"1296919","latitude":"33.46666670","longitude":"133.35000000","name":"Ietoshi"},{"id":"1296925","latitude":"32.80000000","longitude":"132.96666670","name":"Ifuri"},{"id":"1297024","latitude":"33.60000000","longitude":"133.18333330","name":"Ikegawa"},{"id":"1297230","latitude":"33.55000000","longitude":"133.43333330","name":"Inocho"},{"id":"1297234","latitude":"33.55000000","longitude":"133.43333330","name":"Ino"},{"id":"1297267","latitude":"33.48333330","longitude":"133.93333330","name":"Ioki"},{"id":"1297308","latitude":"33.01666670","longitude":"133.00000000","name":"Irino"},{"id":"1297318","latitude":"33.41666670","longitude":"134.21666670","name":"Irugi"},{"id":"1297319","latitude":"33.41666670","longitude":"134.21666670","name":"Iruki"},{"id":"1297327","latitude":"32.71666670","longitude":"133.01666670","name":"Isa"},{"id":"1297816","latitude":"33.70000000","longitude":"133.50000000","name":"Jizoji"},{"id":"1297928","latitude":"33.56666670","longitude":"133.18333330","name":"Kae"},{"id":"1297995","latitude":"32.75000000","longitude":"132.81666670","name":"Kainokawa"},{"id":"1298264","latitude":"33.03333330","longitude":"133.05000000","name":"Kamikawaguchi"},{"id":"1298349","latitude":"32.91666670","longitude":"132.86666670","name":"Kami-nagatani"},{"id":"1298370","latitude":"33.65000000","longitude":"133.78333330","name":"Kami-nojiri"},{"id":"1298371","latitude":"33.26666670","longitude":"133.23333330","name":"Kaminokae"},{"id":"1298744","latitude":"33.55000000","longitude":"134.30000000","name":"Kannoura"},{"id":"1298913","latitude":"32.76666670","longitude":"132.63333330","name":"Kashiwajima"},{"id":"1298957","latitude":"32.91666670","longitude":"132.70000000","name":"Katajima"},{"id":"1298958","latitude":"32.91666670","longitude":"132.70000000","name":"Katajma"},{"id":"1298983","latitude":"32.91666670","longitude":"132.70000000","name":"Katashima"},{"id":"1298986","latitude":"32.91666670","longitude":"132.70000000","name":"Katasima"},{"id":"1299085","latitude":"33.20000000","longitude":"133.08333330","name":"Kawaguchi"},{"id":"1299137","latitude":"33.78333330","longitude":"133.66666670","name":"Kawakuchi"},{"id":"1299194","latitude":"33.18333330","longitude":"132.78333330","name":"Kawasaki"},{"id":"1299434","latitude":"33.33333330","longitude":"134.10000000","name":"Kiragawa"},{"id":"1299435","latitude":"33.33333330","longitude":"134.10000000","name":"Kirakawa"},{"id":"1299735","latitude":"33.55000000","longitude":"133.55000000","name":"Kochi"},{"id":"1299824","latitude":"33.60000000","longitude":"133.46666670","name":"Kohama"},{"id":"1299965","latitude":"32.78333330","longitude":"132.70000000","name":"Komame"},{"id":"1300062","latitude":"33.55000000","longitude":"134.30000000","name":"Konoura"},{"id":"1300087","latitude":"32.75000000","longitude":"132.78333330","name":"Ko-saitsuno"},{"id":"1300088","latitude":"32.75000000","longitude":"132.78333330","name":"Ko-saizuno"},{"id":"1300148","latitude":"33.55000000","longitude":"133.55000000","name":"K\u00f4ti"},{"id":"1300245","latitude":"32.88333330","longitude":"132.73333330","name":"Kozukushi"},{"id":"1300259","latitude":"33.20000000","longitude":"133.13333330","name":"Kubokawa"},{"id":"1300272","latitude":"32.78333330","longitude":"132.98333330","name":"Kubotsu"},{"id":"1300273","latitude":"32.73333330","longitude":"132.55000000","name":"Kuboura"},{"id":"1300286","latitude":"33.08333330","longitude":"132.80000000","name":"Kuchiyanai"},{"id":"1300465","latitude":"33.33333330","longitude":"133.23333330","name":"Kure"},{"id":"1300536","latitude":"33.40000000","longitude":"134.10000000","name":"Kuromi"},{"id":"1300680","latitude":"33.65000000","longitude":"133.60000000","name":"Kuwanokawa"},{"id":"1300742","latitude":"33.48333330","longitude":"133.93333330","name":"Loki"},{"id":"1300800","latitude":"33.53333330","longitude":"133.66666670","name":"Maehama"},{"id":"1300815","latitude":"33.53333330","longitude":"133.66666670","name":"Maenohama"},{"id":"1300993","latitude":"32.93333330","longitude":"132.96666670","name":"Masaki"},{"id":"1301003","latitude":"32.78333330","longitude":"132.91666670","name":"Massaki"},{"id":"1301102","latitude":"32.73333330","longitude":"132.98333330","name":"Matsuo"},{"id":"1301108","latitude":"32.76666670","longitude":"132.76666670","name":"Matsusaki"},{"id":"1301128","latitude":"32.76666670","longitude":"132.76666670","name":"Matsuzaki"},{"id":"1301145","latitude":"32.93333330","longitude":"132.96666670","name":"Mazaki"},{"id":"1301305","latitude":"33.50000000","longitude":"133.56666670","name":"Mimase"},{"id":"1301349","latitude":"33.56666670","longitude":"133.55000000","name":"Minami-jinsenji"},{"id":"1301526","latitude":"33.75000000","longitude":"133.55000000","name":"Mishima"},{"id":"1301599","latitude":"33.28333330","longitude":"134.18333330","name":"Mitsu"},{"id":"1301829","latitude":"32.73333330","longitude":"132.55000000","name":"Mojima"},{"id":"1301887","latitude":"33.53333330","longitude":"133.13333330","name":"Mori"},{"id":"1301927","latitude":"32.73333330","longitude":"132.55000000","name":"Moshima"},{"id":"1301930","latitude":"33.50000000","longitude":"133.56666670","name":"Mosugata"},{"id":"1301999","latitude":"33.75000000","longitude":"133.58333330","name":"Motoyama"},{"id":"1302002","latitude":"33.66666670","longitude":"133.40000000","name":"Motoyasu"},{"id":"1302010","latitude":"33.50000000","longitude":"133.56666670","name":"Mozukata"},{"id":"1302114","latitude":"33.28333330","longitude":"134.15000000","name":"Muroto"},{"id":"1302118","latitude":"33.28333330","longitude":"134.15000000","name":"Murotsu"},{"id":"1302187","latitude":"33.03333330","longitude":"133.08333330","name":"Nada"},{"id":"1302269","latitude":"33.71666670","longitude":"133.30000000","name":"Nagasawa"},{"id":"1302275","latitude":"33.70000000","longitude":"133.85000000","name":"Nagase"},{"id":"1302339","latitude":"33.41666670","longitude":"134.01666670","name":"Nahari"},{"id":"1302435","latitude":"33.60000000","longitude":"133.66666670","name":"Nakai"},{"id":"1302444","latitude":"33.48333330","longitude":"133.43333330","name":"Nakajima"},{"id":"1302490","latitude":"32.98333330","longitude":"132.93333330","name":"Nakamuramachi"},{"id":"1302497","latitude":"32.98333330","longitude":"132.93333330","name":"Nakamura"},{"id":"1302514","latitude":"33.60000000","longitude":"133.78333330","name":"Naka-nishikawa"},{"id":"1302545","latitude":"33.55000000","longitude":"133.56666670","name":"Nakanoshima"},{"id":"1302591","latitude":"33.75000000","longitude":"133.55000000","name":"Nakashima"},{"id":"1302769","latitude":"33.60000000","longitude":"133.66666670","name":"Nankaibo"},{"id":"1302770","latitude":"33.60000000","longitude":"133.66666670","name":"Nankai"},{"id":"1302772","latitude":"33.60000000","longitude":"133.66666670","name":"Nankki"},{"id":"1302776","latitude":"33.55000000","longitude":"133.13333330","name":"Nanokawado"},{"id":"1302859","latitude":"33.50000000","longitude":"134.26666670","name":"Naune"},{"id":"1302865","latitude":"33.41666670","longitude":"134.01666670","name":"Nawari"},{"id":"1302971","latitude":"33.23333330","longitude":"133.16666670","name":"Niida"},{"id":"1303254","latitude":"33.58333330","longitude":"133.70000000","name":"Nishi-sako"},{"id":"1303271","latitude":"32.98333330","longitude":"132.76666670","name":"Nishi-suga"},{"id":"1303410","latitude":"33.55000000","longitude":"133.70000000","name":"Noichi"},{"id":"1303418","latitude":"33.65000000","longitude":"133.78333330","name":"Nojiri"},{"id":"1303463","latitude":"33.50000000","longitude":"134.26666670","name":"None"},{"id":"1303708","latitude":"33.53333330","longitude":"133.25000000","name":"Ochi"},{"id":"1303753","latitude":"33.70000000","longitude":"133.88333330","name":"Odochi"},{"id":"1303765","latitude":"33.61666670","longitude":"133.16666670","name":"Odo"},{"id":"1303822","latitude":"33.65000000","longitude":"133.80000000","name":"Ogawa"},{"id":"1303854","latitude":"32.81666670","longitude":"132.95000000","name":"Ogi"},{"id":"1303866","latitude":"33.36666670","longitude":"133.01666670","name":"Ogomi"},{"id":"1303914","latitude":"32.75000000","longitude":"132.96666670","name":"Ohama"},{"id":"1304123","latitude":"32.95000000","longitude":"132.80000000","name":"Okimae"},{"id":"1304163","latitude":"33.36666670","longitude":"133.01666670","name":"Okomi"},{"id":"1304207","latitude":"33.28333330","longitude":"133.15000000","name":"Oku-kureji"},{"id":"1304220","latitude":"32.98333330","longitude":"132.76666670","name":"Okunaro"},{"id":"1304447","latitude":"33.23333330","longitude":"132.85000000","name":"Ono"},{"id":"1304502","latitude":"33.25000000","longitude":"133.05000000","name":"Oreai"},{"id":"1304503","latitude":"33.25000000","longitude":"133.05000000","name":"Oriai"},{"id":"1304614","latitude":"33.75000000","longitude":"133.66666670","name":"Osugi"},{"id":"1304629","latitude":"33.78333330","longitude":"133.71666670","name":"Otaguchi"},{"id":"1304650","latitude":"33.78333330","longitude":"133.71666670","name":"Otakuchi"},{"id":"1304711","latitude":"33.70000000","longitude":"133.88333330","name":"Otochi"},{"id":"1304810","latitude":"33.61666670","longitude":"133.16666670","name":"Owatashi"},{"id":"1304848","latitude":"33.10000000","longitude":"132.95000000","name":"Oyo"},{"id":"1304853","latitude":"33.10000000","longitude":"132.95000000","name":"Oyu"},{"id":"1305014","latitude":"33.61666670","longitude":"133.65000000","name":"Ryoseki"},{"id":"1305058","latitude":"33.56666670","longitude":"133.53333330","name":"Sagamicho"},{"id":"1305060","latitude":"33.56666670","longitude":"133.53333330","name":"Sagami-machi"},{"id":"1305066","latitude":"33.08333330","longitude":"133.10000000","name":"Saga"},{"id":"1305117","latitude":"32.76666670","longitude":"132.75000000","name":"Saitsuno"},{"id":"1305119","latitude":"32.76666670","longitude":"132.75000000","name":"Saizuno"},{"id":"1305150","latitude":"32.81666670","longitude":"132.78333330","name":"Sakai"},{"id":"1305179","latitude":"33.03333330","longitude":"132.93333330","name":"Sakaore"},{"id":"1305180","latitude":"33.03333330","longitude":"132.93333330","name":"Sakaori"},{"id":"1305201","latitude":"33.50000000","longitude":"133.28333330","name":"Sakawa"},{"id":"1305206","latitude":"33.38333330","longitude":"134.21666670","name":"Sakihama"},{"id":"1305210","latitude":"33.38333330","longitude":"134.21666670","name":"Sakinohama"},{"id":"1305224","latitude":"33.58333330","longitude":"133.70000000","name":"Sako"},{"id":"1305270","latitude":"33.55000000","longitude":"133.55000000","name":"Sambashidori"},{"id":"1305309","latitude":"32.95000000","longitude":"132.96666670","name":"Sanezaki"},{"id":"1305456","latitude":"33.45000000","longitude":"133.20000000","name":"Satsuba"},{"id":"1305780","latitude":"33.31666670","longitude":"134.20000000","name":"Shiina"},{"id":"1305900","latitude":"32.76666670","longitude":"132.95000000","name":"Shimizu"},{"id":"1305954","latitude":"32.95000000","longitude":"132.98333330","name":"Shimoda"},{"id":"1305979","latitude":"32.88333330","longitude":"132.78333330","name":"Shimogiri"},{"id":"1306042","latitude":"32.78333330","longitude":"132.85000000","name":"Shimokawaguchi"},{"id":"1306079","latitude":"33.26666670","longitude":"133.16666670","name":"Shimo-kureji"},{"id":"1306110","latitude":"32.90000000","longitude":"132.86666670","name":"Shimo-nagatani"},{"id":"1306126","latitude":"33.65000000","longitude":"133.76666670","name":"Shimo-nojiri"},{"id":"1306127","latitude":"32.86666670","longitude":"132.95000000","name":"Shimonokae"},{"id":"1306272","latitude":"33.38333330","longitude":"133.01666670","name":"Shinden"},{"id":"1306316","latitude":"33.48333330","longitude":"133.45000000","name":"Shinkawa"},{"id":"1306513","latitude":"33.81666670","longitude":"133.46666670","name":"Shiratake"},{"id":"1306515","latitude":"33.81666670","longitude":"133.46666670","name":"Shirataki"},{"id":"1306597","latitude":"32.88333330","longitude":"132.78333330","name":"Shitagiri"},{"id":"1306626","latitude":"33.23333330","longitude":"133.25000000","name":"Shiwa"},{"id":"1306763","latitude":"32.76666670","longitude":"132.95000000","name":"Simizu"},{"id":"1306768","latitude":"32.78333330","longitude":"132.85000000","name":"Simo-Kawaguti"},{"id":"1306769","latitude":"32.86666670","longitude":"132.95000000","name":"Simo-no-kae"},{"id":"1306894","latitude":"33.23333330","longitude":"133.65000000","name":"Suda"},{"id":"1306981","latitude":"33.76666670","longitude":"133.63333330","name":"Suketo"},{"id":"1306990","latitude":"32.93333330","longitude":"132.73333330","name":"Sukumo"},{"id":"1307011","latitude":"33.53333330","longitude":"133.70000000","name":"Sumiyoshi"},{"id":"1307060","latitude":"33.36666670","longitude":"133.28333330","name":"Susaki"},{"id":"1307319","latitude":"33.61666670","longitude":"133.30000000","name":"Takaiwa"},{"id":"1307375","latitude":"33.48333330","longitude":"133.41666670","name":"Takaoka"},{"id":"1307467","latitude":"33.78333330","longitude":"133.35000000","name":"Takayabu"},{"id":"1307538","latitude":"33.56666670","longitude":"134.18333330","name":"Takeyashiki"},{"id":"1307685","latitude":"33.50000000","longitude":"133.56666670","name":"Tanesaki"},{"id":"1307688","latitude":"33.50000000","longitude":"133.56666670","name":"Tanezaki"},{"id":"1307725","latitude":"33.18333330","longitude":"132.96666670","name":"Tanono"},{"id":"1307728","latitude":"33.41666670","longitude":"134.01666670","name":"Tano"},{"id":"1307762","latitude":"33.46666670","longitude":"133.08333330","name":"Taroda"},{"id":"1307807","latitude":"33.56666670","longitude":"133.66666670","name":"Tateda"},{"id":"1307889","latitude":"33.51666670","longitude":"133.75000000","name":"Tei"},{"id":"1308021","latitude":"33.65000000","longitude":"133.88333330","name":"Tochimoto"},{"id":"1308022","latitude":"33.55000000","longitude":"133.90000000","name":"Tochinoki"},{"id":"1308066","latitude":"33.61666670","longitude":"133.83333330","name":"Toge"},{"id":"1308221","latitude":"32.83333330","longitude":"132.68333330","name":"Tomariura"},{"id":"1308560","latitude":"33.63333330","longitude":"134.01666670","name":"Tsuedani"},{"id":"1308561","latitude":"33.63333330","longitude":"134.01666670","name":"Tsuetain"},{"id":"1308562","latitude":"33.63333330","longitude":"134.01666670","name":"Tsuetani"},{"id":"1308567","latitude":"33.21666670","longitude":"132.93333330","name":"Tsuga"},{"id":"1308571","latitude":"33.76666670","longitude":"133.63333330","name":"Tsuge"},{"id":"1308673","latitude":"33.15000000","longitude":"132.78333330","name":"Tsunogawa"},{"id":"1308676","latitude":"33.15000000","longitude":"132.78333330","name":"Tsunokawa"},{"id":"1308689","latitude":"32.76666670","longitude":"133.01666670","name":"Tsuro"},{"id":"1308954","latitude":"33.28333330","longitude":"134.15000000","name":"Ukitsu"},{"id":"1308957","latitude":"33.28333330","longitude":"134.15000000","name":"Ukizu"},{"id":"1308972","latitude":"33.70000000","longitude":"133.68333330","name":"Umakoshi"},{"id":"1308974","latitude":"33.53333330","longitude":"133.81666670","name":"Umanoue"},{"id":"1308976","latitude":"33.70000000","longitude":"133.68333330","name":"Umase"},{"id":"1308979","latitude":"33.70000000","longitude":"133.68333330","name":"Umaze"},{"id":"1309126","latitude":"33.45000000","longitude":"133.45000000","name":"Usa"},{"id":"1309171","latitude":"32.91666670","longitude":"132.66666670","name":"Ususuki"},{"id":"1309301","latitude":"33.51666670","longitude":"133.81666670","name":"Waiiki"},{"id":"1309304","latitude":"33.51666670","longitude":"133.81666670","name":"Wajiki"},{"id":"1309557","latitude":"33.60000000","longitude":"133.68333330","name":"Yamadamachi"},{"id":"1309564","latitude":"33.60000000","longitude":"133.68333330","name":"Yamada"},{"id":"1309582","latitude":"33.58333330","longitude":"133.78333330","name":"Yamagawa"},{"id":"1309613","latitude":"33.58333330","longitude":"133.78333330","name":"Yamakawa"},{"id":"1309674","latitude":"33.56666670","longitude":"133.70000000","name":"Yamashita"},{"id":"1309747","latitude":"33.61666670","longitude":"134.10000000","name":"Yanase"},{"id":"1309752","latitude":"33.61666670","longitude":"134.10000000","name":"Yanaze"},{"id":"1309767","latitude":"33.61666670","longitude":"134.10000000","name":"Yanoze"},{"id":"1309788","latitude":"33.43333330","longitude":"133.98333330","name":"Yasuda"},{"id":"1309804","latitude":"33.53333330","longitude":"133.75000000","name":"Yasu"},{"id":"1310063","latitude":"33.31666670","longitude":"133.13333330","name":"Yoshino"},{"id":"1310091","latitude":"33.15000000","longitude":"133.21666670","name":"Yotsu-no-ura"},{"id":"1310092","latitude":"33.15000000","longitude":"133.21666670","name":"Yotsunoura"},{"id":"1310095","latitude":"33.15000000","longitude":"133.21666670","name":"Yotsuura"},{"id":"1310214","latitude":"33.41666670","longitude":"134.21666670","name":"Yurugi"},{"id":"1310223","latitude":"33.38333330","longitude":"132.91666670","name":"Yusuhara"},{"id":"1310253","latitude":"33.38333330","longitude":"132.91666670","name":"Yuzuhara"}]