[{"id":"137971","latitude":"39.71944440","longitude":"47.83722220","name":"\u00c6\u008fhm\u00c7\u009ddli"},{"id":"138006","latitude":"39.78555560","longitude":"47.69750000","name":"\u00c6\u008flin\u00c7\u009dz\u00c7\u009drli"},{"id":"138030","latitude":"39.58444440","longitude":"47.65666670","name":"\u00c6\u008fmirzeydli"},{"id":"138304","latitude":"39.71944440","longitude":"47.83722220","name":"Akhmedli"},{"id":"138309","latitude":"39.71944440","longitude":"47.83722220","name":"Akhmedly"},{"id":"138345","latitude":"39.77944440","longitude":"47.88027780","name":"Ala-Bekly"},{"id":"138397","latitude":"39.85000000","longitude":"47.48333330","name":"Aliabad"},{"id":"138510","latitude":"39.65000000","longitude":"47.78333330","name":"Altanskiy"},{"id":"138579","latitude":"39.58444440","longitude":"47.65666670","name":"Amirzeitli"},{"id":"138763","latitude":"39.68277780","longitude":"47.81583330","name":"Asag\u00c4\u00b1 C\u00c7\u009dm\u00c7\u009dnli"},{"id":"138800","latitude":"39.48000000","longitude":"47.13500000","name":"Asag\u00c4\u00b1 R\u00c7\u009df\u00c7\u009ddinli"},{"id":"138821","latitude":"39.70194440","longitude":"47.83444440","name":"As\u00c4\u00b1qal\u00c4\u00b1lar"},{"id":"138866","latitude":"39.48000000","longitude":"47.13500000","name":"Ashaga Rafadely"},{"id":"138908","latitude":"39.68277780","longitude":"47.81583330","name":"Ashagy Chemenli"},{"id":"138957","latitude":"39.48000000","longitude":"47.13500000","name":"Ashagy Rafadinli"},{"id":"138984","latitude":"39.70194440","longitude":"47.83444440","name":"Ashgalar"},{"id":"138986","latitude":"39.70194440","longitude":"47.83444440","name":"Ashkallar"},{"id":"138996","latitude":"39.70194440","longitude":"47.83444440","name":"Ashygalylar"},{"id":"139000","latitude":"39.81916670","longitude":"47.67944440","name":"Ashykhly Pervoye"},{"id":"139001","latitude":"39.85000000","longitude":"47.65500000","name":"Ashykhly Vtoroye"},{"id":"139554","latitude":"39.77555560","longitude":"47.61861110","name":"Beylagan"},{"id":"139555","latitude":"39.77555560","longitude":"47.61861110","name":"Beyl\u00c7\u009dqan"},{"id":"139687","latitude":"39.81916670","longitude":"47.67944440","name":"Birinci As\u00c4\u00b1ql\u00c4\u00b1"},{"id":"139690","latitude":"39.77666670","longitude":"47.87500000","name":"Birinci Imamverdili"},{"id":"139700","latitude":"39.63722220","longitude":"47.75277780","name":"Birinci Sahsev\u00c7\u009dn"},{"id":"139742","latitude":"39.80027780","longitude":"47.57611110","name":"Bolsulu"},{"id":"139858","latitude":"39.76250000","longitude":"47.82472220","name":"Buniatly"},{"id":"139859","latitude":"39.76250000","longitude":"47.82472220","name":"Buniyatly"},{"id":"139862","latitude":"39.76250000","longitude":"47.82472220","name":"Bunyadl\u00c4\u00b1"},{"id":"139864","latitude":"39.76250000","longitude":"47.82472220","name":"Bunyadly"},{"id":"140688","latitude":"39.76333330","longitude":"47.62666670","name":"Dilagarda"},{"id":"140780","latitude":"39.77277780","longitude":"47.75888890","name":"Dunyamal\u00c4\u00b1lar"},{"id":"140781","latitude":"39.77277780","longitude":"47.75888890","name":"Dunyamallar"},{"id":"140782","latitude":"39.77277780","longitude":"47.75888890","name":"Dun'yamalylar"},{"id":"141106","latitude":"39.86861110","longitude":"47.63361110","name":"Eyvazal\u00c4\u00b1lar"},{"id":"141107","latitude":"39.86861110","longitude":"47.63361110","name":"Eyvazallar"},{"id":"141108","latitude":"39.86861110","longitude":"47.63361110","name":"Eyvazalylar"},{"id":"141110","latitude":"39.86861110","longitude":"47.63361110","name":"Eyvazl\u00c4\u00b1lar"},{"id":"141221","latitude":"39.70194440","longitude":"47.83444440","name":"Gadzhi-Kharrar"},{"id":"141394","latitude":"39.75805560","longitude":"47.84972220","name":"G\u00ebdaklar"},{"id":"141593","latitude":"39.75805560","longitude":"47.84972220","name":"God\u00c7\u009dkl\u00c7\u009dr"},{"id":"142071","latitude":"39.85000000","longitude":"47.65500000","name":"Ikinci As\u00c4\u00b1ql\u00c4\u00b1"},{"id":"142074","latitude":"39.76666670","longitude":"47.90000000","name":"Ikinci Imamverdili"},{"id":"142083","latitude":"39.62972220","longitude":"47.70250000","name":"Ikinci Sahsev\u00c7\u009dn"},{"id":"142131","latitude":"39.77666670","longitude":"47.87500000","name":"Imamverdili"},{"id":"142132","latitude":"39.77666670","longitude":"47.87500000","name":"Imamverdili Pervoye"},{"id":"142133","latitude":"39.76666670","longitude":"47.90000000","name":"Imamverdili Vtoroye"},{"id":"142134","latitude":"39.76666670","longitude":"47.90000000","name":"Imam-Verdylyar"},{"id":"142145","latitude":"39.77666670","longitude":"47.87500000","name":"Imash-Verdylyar"},{"id":"142213","latitude":"39.70000000","longitude":"47.75000000","name":"Isg\u00c7\u009dnd\u00c7\u009drli"},{"id":"142220","latitude":"39.70000000","longitude":"47.75000000","name":"Iskenderli"},{"id":"142265","latitude":"39.77555560","longitude":"47.61861110","name":"Jdanov"},{"id":"142323","latitude":"39.69500000","longitude":"47.69000000","name":"Kagramanli"},{"id":"142325","latitude":"39.69500000","longitude":"47.69000000","name":"Kagramanly"},{"id":"142497","latitude":"39.66083330","longitude":"47.78333330","name":"Karadagly"},{"id":"142524","latitude":"39.66083330","longitude":"47.78333330","name":"Karadsely"},{"id":"142860","latitude":"39.85194440","longitude":"47.53250000","name":"K\u00c7\u009dbirli"},{"id":"142912","latitude":"39.85194440","longitude":"47.53250000","name":"Kebirli"},{"id":"143091","latitude":"39.80111110","longitude":"47.48944440","name":"Khachinstroy"},{"id":"143109","latitude":"39.71944440","longitude":"47.83722220","name":"Khaladzh"},{"id":"143635","latitude":"39.72500000","longitude":"47.64777780","name":"Komsomol"},{"id":"143968","latitude":"39.75805560","longitude":"47.84972220","name":"Kyudaklar"},{"id":"144145","latitude":"39.76666670","longitude":"47.61666670","name":"Lekino"},{"id":"144472","latitude":"39.76222220","longitude":"47.68055560","name":"Mayak"},{"id":"144671","latitude":"39.68555560","longitude":"47.64138890","name":"Milabad"},{"id":"144862","latitude":"39.69833330","longitude":"47.69416670","name":"Moshkara"},{"id":"145316","latitude":"39.68277780","longitude":"47.81583330","name":"Novoye Chemenly"},{"id":"145421","latitude":"39.88583330","longitude":"47.49611110","name":"Orankala"},{"id":"145425","latitude":"39.88583330","longitude":"47.49611110","name":"Or\u00c7\u009dnqala"},{"id":"145426","latitude":"39.63222220","longitude":"47.68666670","name":"Orconikidze"},{"id":"145439","latitude":"39.63222220","longitude":"47.68666670","name":"Ordzhonikidze"},{"id":"145628","latitude":"39.80000000","longitude":"47.63333330","name":"Peygambar"},{"id":"145883","latitude":"39.66083330","longitude":"47.78333330","name":"Qaradagl\u00c4\u00b1"},{"id":"145921","latitude":"39.77333330","longitude":"47.89583330","name":"Qaralar"},{"id":"146102","latitude":"39.69500000","longitude":"47.69000000","name":"Q\u00c7\u009dhr\u00c7\u009dmanl\u00c4\u00b1"},{"id":"146635","latitude":"39.78888890","longitude":"47.64277780","name":"S\u00c7\u009df\u00c7\u009dq"},{"id":"146688","latitude":"39.81472220","longitude":"47.77083330","name":"S\u00c7\u009drq"},{"id":"146836","latitude":"39.63722220","longitude":"47.75277780","name":"Shakhsevan Pervoye"},{"id":"146837","latitude":"39.63722220","longitude":"47.75277780","name":"Shakhsevan Pervyy"},{"id":"146839","latitude":"39.62972220","longitude":"47.70250000","name":"Shakhsevan"},{"id":"146842","latitude":"39.63333330","longitude":"47.71666670","name":"Shakhsevan Tret'ye"},{"id":"146843","latitude":"39.62972220","longitude":"47.70250000","name":"Shakhsevan Vtoroye"},{"id":"146844","latitude":"39.62972220","longitude":"47.70250000","name":"Shakhsevan Vtoroy"},{"id":"146845","latitude":"39.62972220","longitude":"47.70250000","name":"Shakhseven Vtoroye"},{"id":"146881","latitude":"39.81472220","longitude":"47.77083330","name":"Sharg"},{"id":"146910","latitude":"39.78888890","longitude":"47.64277780","name":"Shefek"},{"id":"147225","latitude":"39.81666670","longitude":"47.60000000","name":"Sovetl\u00c7\u009dr"},{"id":"147226","latitude":"39.81666670","longitude":"47.60000000","name":"Sovetlyar"},{"id":"147480","latitude":"39.86361110","longitude":"47.58916670","name":"Tatal\u00c4\u00b1lar"},{"id":"147481","latitude":"39.86361110","longitude":"47.58916670","name":"Tatalylar"},{"id":"147484","latitude":"39.86361110","longitude":"47.58916670","name":"Tatarlar"},{"id":"147517","latitude":"39.81555560","longitude":"47.58861110","name":"Tazakend"},{"id":"147559","latitude":"39.81555560","longitude":"47.58861110","name":"T\u00c7\u009dz\u00c7\u009dk\u00c7\u009dnd"},{"id":"147623","latitude":"39.86361110","longitude":"47.58916670","name":"Titilyar"},{"id":"148041","latitude":"40.01666670","longitude":"47.73333330","name":"Vibozallar"},{"id":"148071","latitude":"39.80111110","longitude":"47.48944440","name":"Xac\u00c4\u00b1nabad"},{"id":"148287","latitude":"39.68333330","longitude":"47.83333330","name":"Yeddybugukskiy"},{"id":"148393","latitude":"39.68555560","longitude":"47.64138890","name":"Yenimil'"},{"id":"148479","latitude":"39.67083330","longitude":"47.79250000","name":"Yukhary Chemenli"},{"id":"148565","latitude":"39.73361110","longitude":"47.65500000","name":"Yuxar\u00c4\u00b1 Aran"},{"id":"148575","latitude":"39.67083330","longitude":"47.79250000","name":"Yuxar\u00c4\u00b1 C\u00c7\u009dm\u00c7\u009dnli"},{"id":"148779","latitude":"39.77555560","longitude":"47.61861110","name":"Zhdanovsk"},{"id":"148780","latitude":"39.77555560","longitude":"47.61861110","name":"Zhdanov"}]