[{"id":"1314902","latitude":"13.60500000","longitude":"102.72444440","name":"Aranh Chas"},{"id":"1315679","latitude":"13.58916670","longitude":"102.67194440","name":"Kaub"},{"id":"1315846","latitude":"13.58916670","longitude":"102.67194440","name":"Khum Kaup"},{"id":"1316513","latitude":"13.62333330","longitude":"102.68250000","name":"Nimith"},{"id":"1316798","latitude":"13.60500000","longitude":"102.72444440","name":"Phum Aranh Chas"},{"id":"1317223","latitude":"13.60500000","longitude":"102.72444440","name":"Phum Dong Aranh"},{"id":"1319126","latitude":"13.60500000","longitude":"102.72444440","name":"Phumi Dong Aranhnh"},{"id":"1319127","latitude":"13.60500000","longitude":"102.72444440","name":"Phumi Dong Aranh"},{"id":"1320293","latitude":"13.58916670","longitude":"102.67194440","name":"Phumi Kob"},{"id":"1320294","latitude":"13.58444440","longitude":"102.74472220","name":"Phumi Kob Toch"},{"id":"1320380","latitude":"13.58916670","longitude":"102.67194440","name":"Phumi Kop"},{"id":"1320381","latitude":"13.58444440","longitude":"102.74472220","name":"Phumi Kop Toch"},{"id":"1320382","latitude":"13.58444440","longitude":"102.74472220","name":"Phumi Kop Tock"},{"id":"1321132","latitude":"13.59361110","longitude":"102.66250000","name":"Phumi Nakachhay"},{"id":"1321181","latitude":"13.62333330","longitude":"102.68250000","name":"Phumi Nimit"},{"id":"1321182","latitude":"13.62333330","longitude":"102.68250000","name":"Phumi Nimitt"},{"id":"1321991","latitude":"13.70472220","longitude":"102.73388890","name":"Phumi Preav"},{"id":"1322331","latitude":"13.67638890","longitude":"102.59611110","name":"Phumi Prey Kub"},{"id":"1322334","latitude":"13.67638890","longitude":"102.59611110","name":"Phumi Prey Kup"},{"id":"1324585","latitude":"13.64944440","longitude":"102.74333330","name":"Phumi Thma Sen"},{"id":"1325582","latitude":"13.58083330","longitude":"102.68777780","name":"Phumi Veang Luong"},{"id":"1326092","latitude":"13.58916670","longitude":"102.67194440","name":"Phum Kop"},{"id":"1326272","latitude":"13.59361110","longitude":"102.66250000","name":"Phum Nakachhayo"},{"id":"1326273","latitude":"13.59361110","longitude":"102.66250000","name":"Phum Nakachhay"},{"id":"1326490","latitude":"13.70472220","longitude":"102.73388890","name":"Phum Pread"},{"id":"1326499","latitude":"13.70472220","longitude":"102.73388890","name":"Phum Preao"},{"id":"1326505","latitude":"13.70472220","longitude":"102.73388890","name":"Phum Pr\u00e9av"},{"id":"1326605","latitude":"13.67638890","longitude":"102.59611110","name":"Phum Prey Kup"},{"id":"1326944","latitude":"13.60500000","longitude":"102.72444440","name":"Phum Sranh Chas"},{"id":"1327231","latitude":"13.64944440","longitude":"102.74333330","name":"Phum Thmar Sen"},{"id":"1327234","latitude":"13.64944440","longitude":"102.74333330","name":"Phum Thma Sen"},{"id":"1327534","latitude":"13.58083330","longitude":"102.68777780","name":"Phum Veang Luong"}]