[{"id":"1329413","latitude":"-12.31666670","longitude":"43.85000000","name":"Agniamouada"},{"id":"1329414","latitude":"-12.31666670","longitude":"43.85000000","name":"Agniamuada"},{"id":"1329427","latitude":"-12.30000000","longitude":"43.80000000","name":"Babani"},{"id":"1329447","latitude":"-12.33333330","longitude":"43.81666670","name":"Bandani"},{"id":"1329450","latitude":"-12.28972220","longitude":"43.75916670","name":"Bandaressalam"},{"id":"1329456","latitude":"-12.28388890","longitude":"43.75138890","name":"Bangoma"},{"id":"1329466","latitude":"-12.25944440","longitude":"43.69777780","name":"Bats\u00e9"},{"id":"1329479","latitude":"-12.33333330","longitude":"43.71666670","name":"Buanitonque"},{"id":"1329491","latitude":"-12.28583330","longitude":"43.63166670","name":"Chikoni"},{"id":"1329508","latitude":"-12.30000000","longitude":"43.65000000","name":"Damou"},{"id":"1329516","latitude":"-12.38333330","longitude":"43.75000000","name":"Demeani"},{"id":"1329517","latitude":"-12.38333330","longitude":"43.75000000","name":"Deneami"},{"id":"1329527","latitude":"-12.31666670","longitude":"43.78333330","name":"Djiandro"},{"id":"1329531","latitude":"-12.29750000","longitude":"43.77333330","name":"Djoiezi"},{"id":"1329533","latitude":"-12.28333330","longitude":"43.75000000","name":"Djoumadounia"},{"id":"1329536","latitude":"-12.29750000","longitude":"43.77333330","name":"Djoy\u00e9zi"},{"id":"1329542","latitude":"-12.25194440","longitude":"43.64222220","name":"Domoni"},{"id":"1329562","latitude":"-12.28000000","longitude":"43.74250000","name":"Fomboni"},{"id":"1329563","latitude":"-12.25000000","longitude":"43.65000000","name":"Fongapepo"},{"id":"1329567","latitude":"-12.28000000","longitude":"43.74250000","name":"Fumboni"},{"id":"1329568","latitude":"-12.25083330","longitude":"43.66916670","name":"Gnambo Yamaor\u00e9"},{"id":"1329570","latitude":"-12.30055560","longitude":"43.77805560","name":"Gnomb\u00e9ni"},{"id":"1329573","latitude":"-12.25000000","longitude":"43.68333330","name":"Guamarombu"},{"id":"1329574","latitude":"-12.25000000","longitude":"43.68333330","name":"Guamarumbo"},{"id":"1329579","latitude":"-12.33333330","longitude":"43.84250000","name":"Hagnamouada"},{"id":"1329580","latitude":"-12.37500000","longitude":"43.83083330","name":"Hagneng\u00e9l\u00e9"},{"id":"1329581","latitude":"-12.31666670","longitude":"43.85000000","name":"Hagniamada"},{"id":"1329587","latitude":"-12.37305560","longitude":"43.83833330","name":"Hamavouna"},{"id":"1329588","latitude":"-12.27444440","longitude":"43.63194440","name":"Hamba"},{"id":"1329594","latitude":"-12.43333330","longitude":"43.41666670","name":"Hantxinxi"},{"id":"1329595","latitude":"-12.43333330","longitude":"43.41666670","name":"Hantzinzi"},{"id":"1329598","latitude":"-12.43333330","longitude":"43.41666670","name":"Hatsinze"},{"id":"1329603","latitude":"-12.25083330","longitude":"43.67472220","name":"Hoani"},{"id":"1329606","latitude":"-12.35000000","longitude":"43.85000000","name":"Iconi"},{"id":"1329624","latitude":"-12.36416670","longitude":"43.86777780","name":"Itsamia"},{"id":"1329639","latitude":"-12.31666670","longitude":"43.78333330","name":"Jiandro"},{"id":"1329641","latitude":"-12.31666670","longitude":"43.78333330","name":"Jiroudain"},{"id":"1329645","latitude":"-12.34277780","longitude":"43.82000000","name":"Kangam"},{"id":"1329647","latitude":"-12.34277780","longitude":"43.82000000","name":"Kangani"},{"id":"1329653","latitude":"-12.34055560","longitude":"43.79916670","name":"Kirimani"},{"id":"1329654","latitude":"-12.26805560","longitude":"43.63416670","name":"Kobela"},{"id":"1329664","latitude":"-12.35000000","longitude":"43.85000000","name":"Koni"},{"id":"1329675","latitude":"-12.31666670","longitude":"43.81666670","name":"Labanda"},{"id":"1329684","latitude":"-12.32555560","longitude":"43.66333330","name":"Luala"},{"id":"1329694","latitude":"-12.35000000","longitude":"43.78333330","name":"Malhani"},{"id":"1329714","latitude":"-12.25944440","longitude":"43.69777780","name":"Mbats\u00e9"},{"id":"1329732","latitude":"-12.26388890","longitude":"43.62916670","name":"Mifoni"},{"id":"1329733","latitude":"-12.26388890","longitude":"43.62916670","name":"Mifoni Sangani"},{"id":"1329734","latitude":"-12.35833330","longitude":"43.76750000","name":"Mihoungouni"},{"id":"1329741","latitude":"-12.33972220","longitude":"43.66833330","name":"Mir\u00e9mani"},{"id":"1329744","latitude":"-12.32111110","longitude":"43.65972220","name":"Mir\u00e9r\u00e9ni"},{"id":"1329745","latitude":"-12.29666670","longitude":"43.63527780","name":"Miringoni"},{"id":"1329765","latitude":"-12.33138890","longitude":"43.81138890","name":"Mlabanda"},{"id":"1329768","latitude":"-12.27861110","longitude":"43.74583330","name":"Mnadzi Modja"},{"id":"1329772","latitude":"-12.36166670","longitude":"43.78083330","name":"Moihani"},{"id":"1329779","latitude":"-12.36166670","longitude":"43.78083330","name":"Mouahani"},{"id":"1329783","latitude":"-12.33972220","longitude":"43.83138890","name":"Mouhou"},{"id":"1329806","latitude":"-12.26111110","longitude":"43.70361110","name":"Mtakoudja"},{"id":"1329813","latitude":"-12.36694440","longitude":"43.79611110","name":"M'Tsumbia"},{"id":"1329815","latitude":"-12.29750000","longitude":"43.77333330","name":"Mudjiauesi"},{"id":"1329816","latitude":"-12.29750000","longitude":"43.77333330","name":"Mujiauesi"},{"id":"1329826","latitude":"-12.35083330","longitude":"43.75194440","name":"Ndr\u00e9m\u00e9ani"},{"id":"1329828","latitude":"-12.34277780","longitude":"43.68222220","name":"Ndrondroni"},{"id":"1329832","latitude":"-12.26166670","longitude":"43.67305560","name":"Ngamaroumbo"},{"id":"1329837","latitude":"-12.36138890","longitude":"43.71527780","name":"Niomachoi"},{"id":"1329838","latitude":"-12.36138890","longitude":"43.71527780","name":"Nioumachoi"},{"id":"1329839","latitude":"-12.36138890","longitude":"43.71527780","name":"Nioumachoua"},{"id":"1329847","latitude":"-12.36138890","longitude":"43.71527780","name":"Nioumgchoi"},{"id":"1329862","latitude":"-12.36138890","longitude":"43.71527780","name":"Numa Choa"},{"id":"1329864","latitude":"-12.33750000","longitude":"43.79750000","name":"Oanani"},{"id":"1329869","latitude":"-12.32555560","longitude":"43.66333330","name":"Ouala"},{"id":"1329870","latitude":"-12.32555560","longitude":"43.66333330","name":"Ouallah"},{"id":"1329871","latitude":"-12.33750000","longitude":"43.79750000","name":"Ouanani"},{"id":"1329914","latitude":"-12.36694440","longitude":"43.79611110","name":"Sambia"},{"id":"1329930","latitude":"-12.33416670","longitude":"43.78055560","name":"Siri"},{"id":"1329963","latitude":"-12.33750000","longitude":"43.79750000","name":"Wanani"},{"id":"1329967","latitude":"-12.33250000","longitude":"43.77750000","name":"Ziroudani"}]