[{"id":"1315128","latitude":"11.45000000","longitude":"104.93333330","name":"B\u00e2ttachi"},{"id":"1315227","latitude":"11.50000000","longitude":"104.93333330","name":"Chak Angre"},{"id":"1315228","latitude":"11.50000000","longitude":"104.93333330","name":"Chak Angr\u00ea Krom"},{"id":"1315260","latitude":"11.48333330","longitude":"104.96666670","name":"Champus Ka\u00eak"},{"id":"1315370","latitude":"11.48333330","longitude":"104.90000000","name":"Choeng-Ek"},{"id":"1315431","latitude":"11.75000000","longitude":"104.80000000","name":"Chum Bo Phluk"},{"id":"1315482","latitude":"11.78333330","longitude":"104.83333330","name":"Dang Kom"},{"id":"1315662","latitude":"11.46666670","longitude":"104.96666670","name":"Kas Krabey"},{"id":"1315833","latitude":"11.76666670","longitude":"104.83333330","name":"Khum Kampong Os"},{"id":"1315927","latitude":"11.73333330","longitude":"104.81666670","name":"Khum Prek Taten"},{"id":"1315928","latitude":"11.73333330","longitude":"104.81666670","name":"Khum Prek Tatin"},{"id":"1316161","latitude":"11.78333330","longitude":"104.81666670","name":"Kompong Luong"},{"id":"1316164","latitude":"11.76666670","longitude":"104.83333330","name":"Kompong Os"},{"id":"1316642","latitude":"11.76666670","longitude":"104.83333330","name":"Phnhealu"},{"id":"1317938","latitude":"11.46666670","longitude":"104.90000000","name":"Phumi Ba Ku"},{"id":"1317939","latitude":"11.46666670","longitude":"104.90000000","name":"Phumi Bakur"},{"id":"1318239","latitude":"11.50000000","longitude":"104.93333330","name":"Phumi Chak Angre Kraom"},{"id":"1318271","latitude":"11.75000000","longitude":"104.80000000","name":"Phumi Chambak Phloah"},{"id":"1318272","latitude":"11.75000000","longitude":"104.80000000","name":"Phumi Chambak Phluoh"},{"id":"1318348","latitude":"11.46666670","longitude":"104.96666670","name":"Phumi Champuh Kaek (2)"},{"id":"1318349","latitude":"11.48333330","longitude":"104.96666670","name":"Phumi Champuh Kaek"},{"id":"1318350","latitude":"11.48333330","longitude":"104.96666670","name":"Phumi Champuh K'ek (1)"},{"id":"1318351","latitude":"11.46666670","longitude":"104.96666670","name":"Phumi Champuh K'ek (2)"},{"id":"1318494","latitude":"11.48333330","longitude":"104.90000000","name":"Phumi Cheung Ek"},{"id":"1319062","latitude":"11.78333330","longitude":"104.83333330","name":"Phumi Dang Koum"},{"id":"1319098","latitude":"11.48333330","longitude":"104.95000000","name":"Phumi Dei Lo"},{"id":"1319751","latitude":"11.46666670","longitude":"104.98333330","name":"Phumi Kaoh Krabei"},{"id":"1319752","latitude":"11.46666670","longitude":"104.98333330","name":"Phumi Kaoh Krabe"},{"id":"1319901","latitude":"11.45000000","longitude":"105.00000000","name":"Phumi Kbal Kaoh"},{"id":"1320156","latitude":"11.46666670","longitude":"104.96666670","name":"Phumi Khpob Veng"},{"id":"1320166","latitude":"11.46666670","longitude":"104.96666670","name":"Phumi Khpop Veng"},{"id":"1320720","latitude":"11.45000000","longitude":"105.00000000","name":"Phumi Kraol Krabei"},{"id":"1320730","latitude":"11.46666670","longitude":"104.95000000","name":"Phumi Krapeu Ha"},{"id":"1321970","latitude":"11.51666670","longitude":"104.95000000","name":"Phumi Preah Ponlea"},{"id":"1322036","latitude":"11.45000000","longitude":"104.93333330","name":"Phumi Prek Ho"},{"id":"1322037","latitude":"11.45000000","longitude":"104.93333330","name":"Phumi Prek Hor"},{"id":"1322042","latitude":"11.45000000","longitude":"104.91666670","name":"Phumi Prek Kamp\u00c5\u201c\u00cc\u2020s"},{"id":"1322079","latitude":"11.46666670","longitude":"104.93333330","name":"Phumi Prek Long"},{"id":"1322107","latitude":"11.46666670","longitude":"104.90000000","name":"Phumi Prek Pranak"},{"id":"1322108","latitude":"11.48333330","longitude":"104.95000000","name":"Phumi Prek Pra"},{"id":"1322119","latitude":"11.46666670","longitude":"104.93333330","name":"Phumi Prek R\u00c5\u201cssei"},{"id":"1322125","latitude":"11.45000000","longitude":"104.91666670","name":"Phumi Prek Roteang"},{"id":"1322130","latitude":"11.46666670","longitude":"104.93333330","name":"Phumi Prek Russei"},{"id":"1322163","latitude":"11.50000000","longitude":"104.95000000","name":"Phumi Prek Ta Long"},{"id":"1322177","latitude":"11.46666670","longitude":"105.00000000","name":"Phumi Prek Thmei (1)"},{"id":"1322757","latitude":"11.50000000","longitude":"104.98333330","name":"Phumi Robaoh Angkanh"},{"id":"1322760","latitude":"11.50000000","longitude":"104.98333330","name":"Phumi Robas Angkanh"},{"id":"1322849","latitude":"11.48333330","longitude":"104.90000000","name":"Phumi Roluos (2)"},{"id":"1323775","latitude":"11.76666670","longitude":"104.83333330","name":"Phumi Srok Ponhea Loe"},{"id":"1324115","latitude":"11.45000000","longitude":"104.96666670","name":"Phumi T\u00c5\u201c\u00cc\u2020k Vil"},{"id":"1324580","latitude":"11.76666670","longitude":"104.80000000","name":"Phumi Thma Sa"},{"id":"1324610","latitude":"11.75000000","longitude":"104.80000000","name":"Phumi Thmei (5)"},{"id":"1324623","latitude":"11.78333330","longitude":"104.81666670","name":"Phumi Thmei"},{"id":"1325745","latitude":"11.46666670","longitude":"104.98333330","name":"Phum Kas Krabey"},{"id":"1326488","latitude":"11.51666670","longitude":"104.95000000","name":"Phum Pr\u00e9a Banl\u00e9a"},{"id":"1326489","latitude":"11.51666670","longitude":"104.95000000","name":"Phum Prea Bantea"},{"id":"1326560","latitude":"11.46666670","longitude":"105.00000000","name":"Phum Prek Thmey"},{"id":"1327229","latitude":"11.76666670","longitude":"104.80000000","name":"Phum Thmar Sar"},{"id":"1327245","latitude":"11.75000000","longitude":"104.80000000","name":"Phum Thmey"},{"id":"1327587","latitude":"11.76666670","longitude":"104.83333330","name":"Ponhea Lu"},{"id":"1327730","latitude":"11.45000000","longitude":"104.91666670","name":"Prek Kompus"},{"id":"1327746","latitude":"11.46666670","longitude":"104.90000000","name":"Prek P\u00e2nak"},{"id":"1327760","latitude":"11.46666670","longitude":"104.93333330","name":"Prek Russey"},{"id":"1327859","latitude":"11.46666670","longitude":"104.95000000","name":"Prey St\u00fang Chr\u00f4u"},{"id":"1328085","latitude":"11.48333330","longitude":"104.90000000","name":"Roluos"},{"id":"1328435","latitude":"11.76666670","longitude":"104.83333330","name":"Srok Ponhea L\u00c5\u201c"},{"id":"1328462","latitude":"11.48333330","longitude":"104.95000000","name":"Suor Kol"},{"id":"1328549","latitude":"11.48333330","longitude":"104.95000000","name":"Takhman"},{"id":"1328550","latitude":"11.48333330","longitude":"104.95000000","name":"Takhmau"},{"id":"1328551","latitude":"11.48333330","longitude":"104.95000000","name":"Ta Khmau"},{"id":"1328854","latitude":"11.46666670","longitude":"104.93333330","name":"Treal Chos"},{"id":"1328910","latitude":"11.50000000","longitude":"104.98333330","name":"Tuol Phkol"},{"id":"1329006","latitude":"11.50000000","longitude":"104.95000000","name":"Vat Prek Pra"}]