[{"id":"1314912","latitude":"13.78333330","longitude":"104.96666670","name":"Bahal"},{"id":"1314969","latitude":"13.78333330","longitude":"104.96666670","name":"Banhai"},{"id":"1314997","latitude":"14.01666670","longitude":"105.78333330","name":"Ban Kien Sang"},{"id":"1315065","latitude":"13.98333330","longitude":"105.83333330","name":"Ban Tahai"},{"id":"1315066","latitude":"14.03333330","longitude":"105.76666670","name":"Ban Tahassan"},{"id":"1315071","latitude":"14.06666670","longitude":"105.78333330","name":"Ban Tapau"},{"id":"1315110","latitude":"13.78333330","longitude":"104.96666670","name":"Barhal"},{"id":"1315294","latitude":"14.21666670","longitude":"104.93333330","name":"Ch\u00e9am-Khsan"},{"id":"1315295","latitude":"14.21666670","longitude":"104.93333330","name":"Cheam Ksan"},{"id":"1315296","latitude":"14.06666670","longitude":"104.60000000","name":"Cheam Til"},{"id":"1315307","latitude":"14.21666670","longitude":"104.93333330","name":"Cheom Ksan"},{"id":"1315308","latitude":"14.03333330","longitude":"104.61666670","name":"Cheom Soe"},{"id":"1315309","latitude":"14.03333330","longitude":"104.61666670","name":"Cheom Sre"},{"id":"1315310","latitude":"14.06666670","longitude":"104.60000000","name":"Cheom Til"},{"id":"1315311","latitude":"14.06666670","longitude":"104.60000000","name":"Cheom Tirr"},{"id":"1315313","latitude":"13.75000000","longitude":"105.40000000","name":"Chep"},{"id":"1315321","latitude":"13.75000000","longitude":"105.40000000","name":"Chh\u00eab K\u00e2ndal"},{"id":"1315322","latitude":"13.75000000","longitude":"105.40000000","name":"Chhep"},{"id":"1315323","latitude":"13.75000000","longitude":"105.40000000","name":"Chh\u00eap K\u00e2ndal"},{"id":"1315363","latitude":"14.21666670","longitude":"104.93333330","name":"Choam Khsan"},{"id":"1315364","latitude":"14.21666670","longitude":"104.93333330","name":"Choam Khsant"},{"id":"1315366","latitude":"14.21666670","longitude":"104.93333330","name":"Choam Ksam"},{"id":"1315367","latitude":"14.21666670","longitude":"104.93333330","name":"Choam Ksan"},{"id":"1315368","latitude":"14.21666670","longitude":"104.93333330","name":"Choam Ksant"},{"id":"1315369","latitude":"14.03333330","longitude":"104.61666670","name":"Choam Sre"},{"id":"1315372","latitude":"14.36666670","longitude":"104.88333330","name":"Choeteal Kong"},{"id":"1315375","latitude":"14.36666670","longitude":"104.88333330","name":"Choeuteal Kong"},{"id":"1315395","latitude":"13.63333330","longitude":"105.43333330","name":"Chrach"},{"id":"1315430","latitude":"13.71666670","longitude":"104.78333330","name":"Chuk"},{"id":"1315439","latitude":"14.13333330","longitude":"105.05000000","name":"Chunh"},{"id":"1315477","latitude":"13.90000000","longitude":"105.46666670","name":"Damphlet"},{"id":"1315540","latitude":"14.11666670","longitude":"105.35000000","name":"Kaban Damloei"},{"id":"1315541","latitude":"13.65000000","longitude":"104.71666670","name":"Kadak"},{"id":"1315544","latitude":"14.05000000","longitude":"105.30000000","name":"Ka Kek"},{"id":"1315545","latitude":"14.05000000","longitude":"105.30000000","name":"Kakh\u00c5\u201c\u00cc\u2020k"},{"id":"1315546","latitude":"14.05000000","longitude":"105.30000000","name":"Kakik"},{"id":"1315571","latitude":"13.81666670","longitude":"104.96666670","name":"Kampong Preng"},{"id":"1315611","latitude":"14.31666670","longitude":"104.65000000","name":"Kang Nang"},{"id":"1315691","latitude":"14.11666670","longitude":"105.35000000","name":"Kbal D\u00e2mrei"},{"id":"1315695","latitude":"14.11666670","longitude":"105.25000000","name":"Kbal Priel"},{"id":"1315699","latitude":"13.65000000","longitude":"104.71666670","name":"Kdak"},{"id":"1315700","latitude":"13.53333330","longitude":"105.46666670","name":"Kd\u00c5\u201cung"},{"id":"1315718","latitude":"14.10000000","longitude":"105.66666670","name":"Khamph\u00c5\u201c\u00cc\u2020t"},{"id":"1316038","latitude":"13.81666670","longitude":"104.96666670","name":"Kimpong Pranak"},{"id":"1316176","latitude":"13.58333330","longitude":"104.91666670","name":"Kompong Pranak"},{"id":"1316186","latitude":"13.81666670","longitude":"104.96666670","name":"Kompong Prena"},{"id":"1316187","latitude":"13.81666670","longitude":"104.96666670","name":"Kompong Preng"},{"id":"1316215","latitude":"14.08333330","longitude":"105.76666670","name":"Kompong Sralao"},{"id":"1316217","latitude":"14.08333330","longitude":"105.76666670","name":"Kompong Stalau"},{"id":"1316248","latitude":"14.08333330","longitude":"105.76666670","name":"Kompoung Sralao"},{"id":"1316257","latitude":"14.08333330","longitude":"104.60000000","name":"Kong Phang"},{"id":"1316277","latitude":"13.65000000","longitude":"105.25000000","name":"Kouk"},{"id":"1316284","latitude":"13.81666670","longitude":"104.68333330","name":"Koulen"},{"id":"1316288","latitude":"13.80000000","longitude":"104.71666670","name":"Krabao"},{"id":"1316299","latitude":"13.75000000","longitude":"105.26666670","name":"Kralet"},{"id":"1316300","latitude":"13.75000000","longitude":"105.26666670","name":"Kralot"},{"id":"1316390","latitude":"13.81666670","longitude":"104.68333330","name":"Kul\u00e9n"},{"id":"1316416","latitude":"13.75000000","longitude":"104.93333330","name":"Lomnion"},{"id":"1316438","latitude":"13.80000000","longitude":"105.26666670","name":"Malu Prei"},{"id":"1316450","latitude":"13.80000000","longitude":"105.26666670","name":"Melou Prei"},{"id":"1316451","latitude":"13.80000000","longitude":"105.26666670","name":"Melouprey"},{"id":"1316452","latitude":"13.80000000","longitude":"105.26666670","name":"Meluprei"},{"id":"1316453","latitude":"13.80000000","longitude":"105.26666670","name":"Melupre"},{"id":"1316454","latitude":"13.80000000","longitude":"105.26666670","name":"Melu Prey"},{"id":"1316462","latitude":"13.80000000","longitude":"105.26666670","name":"Mlu Prei"},{"id":"1316476","latitude":"13.80000000","longitude":"105.26666670","name":"Molou-Prei"},{"id":"1316477","latitude":"13.80000000","longitude":"105.26666670","name":"Molu-Prei"},{"id":"1316568","latitude":"13.78333330","longitude":"104.96666670","name":"Palhal"},{"id":"1316614","latitude":"13.51666670","longitude":"105.26666670","name":"Peuk"},{"id":"1316655","latitude":"13.81666670","longitude":"104.96666670","name":"Phnom Tbeng Meanchey"},{"id":"1316656","latitude":"13.81666670","longitude":"104.96666670","name":"Phnom Thbeng Meanchey"},{"id":"1316657","latitude":"13.81666670","longitude":"104.96666670","name":"Phnom Thbeng Neanchey"},{"id":"1316659","latitude":"13.78333330","longitude":"104.71666670","name":"Phnou"},{"id":"1316663","latitude":"13.81666670","longitude":"104.96666670","name":"Phnum Tb\u00eang M\u00e9anchey"},{"id":"1316669","latitude":"13.81666670","longitude":"104.96666670","name":"Phom Thbeng Meanchey"},{"id":"1317087","latitude":"14.21666670","longitude":"104.93333330","name":"Phum Choam Khsan"},{"id":"1317325","latitude":"14.01666670","longitude":"104.66666670","name":"Phumi Ancheang"},{"id":"1317454","latitude":"14.31666670","longitude":"104.65000000","name":"Phumi Angkrong"},{"id":"1317517","latitude":"14.01666670","longitude":"104.66666670","name":"Phumi Anhchang"},{"id":"1317526","latitude":"14.01666670","longitude":"104.66666670","name":"Phumi Anhcheang"},{"id":"1317749","latitude":"13.78333330","longitude":"104.96666670","name":"Phumi Bahal"},{"id":"1317831","latitude":"13.51666670","longitude":"105.26666670","name":"Phumi B\u00c5\u201c\u00cc\u2020ng"},{"id":"1318169","latitude":"14.25000000","longitude":"104.53333330","name":"Phumi Be"},{"id":"1318233","latitude":"14.16666670","longitude":"105.00000000","name":"Phumi Chaeh"},{"id":"1318428","latitude":"14.20000000","longitude":"104.60000000","name":"Phumi Char"},{"id":"1318469","latitude":"14.16666670","longitude":"105.00000000","name":"Phumi Ch'eh"},{"id":"1318542","latitude":"13.76666670","longitude":"105.40000000","name":"Phumi Chheb Chas"},{"id":"1318546","latitude":"13.76666670","longitude":"105.40000000","name":"Phumi Chhep Chas"},{"id":"1318568","latitude":"14.36666670","longitude":"104.88333330","name":"Phumi Chheuteal Kong"},{"id":"1318570","latitude":"14.36666670","longitude":"104.88333330","name":"Phumi Chheuteal Kung"},{"id":"1318615","latitude":"13.71666670","longitude":"104.78333330","name":"Phumi Chhuk"},{"id":"1318669","latitude":"13.61666670","longitude":"104.76666670","name":"Phumi Choam Chhleung"},{"id":"1318681","latitude":"14.06666670","longitude":"104.60000000","name":"Phumi Choam Til"},{"id":"1318749","latitude":"13.63333330","longitude":"105.43333330","name":"Phumi Chrach"},{"id":"1318752","latitude":"14.05000000","longitude":"104.70000000","name":"Phumi Chrak Krasang"},{"id":"1318898","latitude":"14.13333330","longitude":"105.05000000","name":"Phumi Chuonh"},{"id":"1319014","latitude":"13.90000000","longitude":"105.46666670","name":"Phumi Damphiet"},{"id":"1319086","latitude":"13.56666670","longitude":"104.93333330","name":"Phumi Da"},{"id":"1319088","latitude":"13.56666670","longitude":"104.93333330","name":"Phumi Dar"},{"id":"1319193","latitude":"13.11666670","longitude":"104.30000000","name":"Phumi Don Sok"},{"id":"1319318","latitude":"14.16666670","longitude":"104.68333330","name":"Phumi Kamnap"},{"id":"1319349","latitude":"14.01666670","longitude":"105.80000000","name":"Phumi Kampong Ampil"},{"id":"1319382","latitude":"13.98333330","longitude":"105.83333330","name":"Phumi Kampong Chrey"},{"id":"1319416","latitude":"14.03333330","longitude":"105.76666670","name":"Phumi Kampong Krasang"},{"id":"1319448","latitude":"14.06666670","longitude":"105.78333330","name":"Phumi Kampong Pou"},{"id":"1319451","latitude":"14.06666670","longitude":"105.78333330","name":"Phumi Kampong Pouthi"},{"id":"1319507","latitude":"14.08333330","longitude":"105.76666670","name":"Phumi Kampong Sralau"},{"id":"1319554","latitude":"14.10000000","longitude":"104.58333330","name":"Phumi Kamprak"},{"id":"1319625","latitude":"13.66666670","longitude":"105.26666670","name":"Phumi Kangaok"},{"id":"1319909","latitude":"13.68333330","longitude":"104.78333330","name":"Phumi Kbal Khla"},{"id":"1319950","latitude":"13.65000000","longitude":"104.71666670","name":"Phumi Kdak"},{"id":"1320113","latitude":"13.60000000","longitude":"104.91666670","name":"Phumi Khna"},{"id":"1320122","latitude":"13.60000000","longitude":"104.91666670","name":"Phumi Khnar"},{"id":"1320127","latitude":"13.98333330","longitude":"104.98333330","name":"Phumi Khnat"},{"id":"1320142","latitude":"13.63333330","longitude":"104.90000000","name":"Phumi Khnor"},{"id":"1320190","latitude":"13.61666670","longitude":"105.30000000","name":"Phumi Khsang"},{"id":"1320256","latitude":"14.01666670","longitude":"105.78333330","name":"Phumi Kien Sang"},{"id":"1320281","latitude":"13.66666670","longitude":"105.26666670","name":"Phumi Kngaok"},{"id":"1320342","latitude":"14.08333330","longitude":"105.76666670","name":"Phumi Kompong Sralau"},{"id":"1320356","latitude":"14.08333330","longitude":"104.60000000","name":"Phumi Kongpong"},{"id":"1320359","latitude":"14.03333330","longitude":"104.71666670","name":"Phumi Kong Yaong"},{"id":"1320464","latitude":"13.65000000","longitude":"105.25000000","name":"Phumi Kouk"},{"id":"1320565","latitude":"13.80000000","longitude":"104.71666670","name":"Phumi Krabau"},{"id":"1320603","latitude":"13.75000000","longitude":"105.26666670","name":"Phumi Kralaot"},{"id":"1320815","latitude":"13.81666670","longitude":"104.68333330","name":"Phumi Kulen"},{"id":"1321017","latitude":"13.65000000","longitude":"105.28333330","name":"Phumi Meinreach"},{"id":"1321033","latitude":"13.65000000","longitude":"105.28333330","name":"Phumi Meunreach"},{"id":"1321049","latitude":"13.80000000","longitude":"105.26666670","name":"Phumi Mlu Prey"},{"id":"1321081","latitude":"13.80000000","longitude":"105.26666670","name":"Phumi Molu Prey"},{"id":"1321093","latitude":"13.70000000","longitude":"104.56666670","name":"Phumi Moreal"},{"id":"1321097","latitude":"13.70000000","longitude":"104.53333330","name":"Phumi Morech"},{"id":"1321110","latitude":"13.70000000","longitude":"104.56666670","name":"Phumi Mreal"},{"id":"1321114","latitude":"13.70000000","longitude":"104.53333330","name":"Phumi Mrech"},{"id":"1321174","latitude":"13.75000000","longitude":"104.93333330","name":"Phumi Nhong"},{"id":"1321458","latitude":"13.51666670","longitude":"105.26666670","name":"Phumi Peuk"},{"id":"1321463","latitude":"14.30000000","longitude":"104.25000000","name":"Phumi Phaav"},{"id":"1321478","latitude":"14.30000000","longitude":"104.25000000","name":"Phumi Ph'av"},{"id":"1321496","latitude":"13.60000000","longitude":"105.41666670","name":"Phumi Phlach"},{"id":"1321620","latitude":"13.85000000","longitude":"104.68333330","name":"Phumi Phyuor Chruk"},{"id":"1321635","latitude":"13.78333330","longitude":"104.71666670","name":"Phumi Pnou"},{"id":"1321762","latitude":"13.81666670","longitude":"105.25000000","name":"Phumi Pou Teap"},{"id":"1321789","latitude":"13.86666670","longitude":"105.01666670","name":"Phumi Pouthi"},{"id":"1321806","latitude":"13.81666670","longitude":"105.25000000","name":"Phumi Pouthi Teab"},{"id":"1321831","latitude":"13.78333330","longitude":"105.26666670","name":"Phumi Praeus Kaak"},{"id":"1321832","latitude":"13.78333330","longitude":"105.26666670","name":"Phumi Praeus K'ak"},{"id":"1321877","latitude":"13.83333330","longitude":"105.00000000","name":"Phumi Prame"},{"id":"1321936","latitude":"13.58333330","longitude":"104.91666670","name":"Phumi Pratheat"},{"id":"1322555","latitude":"13.91666670","longitude":"104.56666670","name":"Phumi Prey Veng"},{"id":"1322675","latitude":"14.06666670","longitude":"104.56666670","name":"Phumi Rai"},{"id":"1322701","latitude":"14.30000000","longitude":"104.25000000","name":"Phumi R\u00c5\u201cssei"},{"id":"1322845","latitude":"14.18333330","longitude":"104.93333330","name":"Phumi Rolum Thma"},{"id":"1322875","latitude":"14.11666670","longitude":"105.25000000","name":"Phumi Romunh"},{"id":"1322915","latitude":"14.03333330","longitude":"104.63333330","name":"Phumi Rumchek"},{"id":"1322979","latitude":"14.30000000","longitude":"104.25000000","name":"Phumi Russei"},{"id":"1323077","latitude":"13.66666670","longitude":"104.85000000","name":"Phumi Samlanh"},{"id":"1323103","latitude":"14.10000000","longitude":"104.66666670","name":"Phumi Samrang"},{"id":"1323187","latitude":"13.78333330","longitude":"105.36666670","name":"Phumi Sangke"},{"id":"1323297","latitude":"13.56666670","longitude":"104.86666670","name":"Phumi Sdau"},{"id":"1323336","latitude":"13.60000000","longitude":"104.90000000","name":"Phumi Sen Kung"},{"id":"1323467","latitude":"14.05000000","longitude":"105.70000000","name":"Phumi Snuol"},{"id":"1323529","latitude":"13.76666670","longitude":"104.73333330","name":"Phumi Srabal"},{"id":"1323688","latitude":"14.20000000","longitude":"104.93333330","name":"Phumi Sre"},{"id":"1323703","latitude":"13.85000000","longitude":"105.03333330","name":"Phumi Sre Prang"},{"id":"1323770","latitude":"13.53333330","longitude":"105.46666670","name":"Phumi Sre Veal"},{"id":"1323801","latitude":"13.58333330","longitude":"104.86666670","name":"Phumi St\u00c5\u201c\u00cc\u2020ng"},{"id":"1323822","latitude":"14.08333330","longitude":"105.71666670","name":"Phumi Suong"},{"id":"1323875","latitude":"13.31666670","longitude":"104.90000000","name":"Phumi Svay Damnak"},{"id":"1324082","latitude":"14.21666670","longitude":"104.98333330","name":"Phumi T\u00c5\u201c\u00cc\u2020k Kraham"},{"id":"1324197","latitude":"14.23333330","longitude":"104.60000000","name":"Phumi Ta Mei"},{"id":"1324391","latitude":"14.18333330","longitude":"104.96666670","name":"Phumi Tasek"},{"id":"1324396","latitude":"13.40000000","longitude":"104.78333330","name":"Phumi Ta Seng"},{"id":"1324448","latitude":"14.26666670","longitude":"104.90000000","name":"Phumi Tbal (1)"},{"id":"1324458","latitude":"13.58333330","longitude":"104.91666670","name":"Phumi Tbeng"},{"id":"1324491","latitude":"14.00000000","longitude":"105.81666670","name":"Phumi Thaphong"},{"id":"1324492","latitude":"13.81666670","longitude":"104.96666670","name":"Phumi Thbeng Meanchey"},{"id":"1324592","latitude":"13.60000000","longitude":"105.43333330","name":"Phumi Thmea"},{"id":"1324627","latitude":"13.58333330","longitude":"104.90000000","name":"Phumi Thmei"},{"id":"1324722","latitude":"13.96666670","longitude":"104.88333330","name":"Phumi Tmat Beauy"},{"id":"1325074","latitude":"13.88333330","longitude":"105.38333330","name":"Phumi Trapeang Pring"},{"id":"1325114","latitude":"13.65000000","longitude":"105.26666670","name":"Phumi Trapeang Saang"},{"id":"1325121","latitude":"13.65000000","longitude":"105.26666670","name":"Phumi Trapeang S'ang"},{"id":"1325245","latitude":"13.56666670","longitude":"104.65000000","name":"Phumi Trayang"},{"id":"1325396","latitude":"13.51666670","longitude":"105.25000000","name":"Phumi Tuol"},{"id":"1325636","latitude":"14.06666670","longitude":"104.66666670","name":"Phumi Yeang"},{"id":"1326310","latitude":"13.78333330","longitude":"104.96666670","name":"Phum Pahal"},{"id":"1326440","latitude":"13.86666670","longitude":"105.01666670","name":"Phum Por"},{"id":"1326447","latitude":"13.86666670","longitude":"105.01666670","name":"Phum Pou"},{"id":"1326865","latitude":"13.56666670","longitude":"104.86666670","name":"Phum Sdao"},{"id":"1326907","latitude":"14.05000000","longitude":"105.70000000","name":"Phum Snoul"},{"id":"1327001","latitude":"14.21666670","longitude":"104.93333330","name":"Phum Stung"},{"id":"1327043","latitude":"13.31666670","longitude":"104.90000000","name":"Phum Svay Dannac"},{"id":"1327247","latitude":"13.66666670","longitude":"105.26666670","name":"Phum Thmey"},{"id":"1327470","latitude":"14.21666670","longitude":"104.98333330","name":"Phum Tuk Kraham"},{"id":"1327556","latitude":"13.85000000","longitude":"104.68333330","name":"Phyuor Chruk"},{"id":"1327609","latitude":"13.81666670","longitude":"105.25000000","name":"Poteap"},{"id":"1327614","latitude":"13.86666670","longitude":"105.01666670","name":"Pouh"},{"id":"1327879","latitude":"13.91666670","longitude":"104.56666670","name":"Prey Vin"},{"id":"1328037","latitude":"13.85000000","longitude":"104.68333330","name":"Pyuor Chruk"},{"id":"1328041","latitude":"14.06666670","longitude":"104.56666670","name":"Ray"},{"id":"1328081","latitude":"14.18333330","longitude":"104.93333330","name":"Rolum Thma"},{"id":"1328115","latitude":"14.30000000","longitude":"104.25000000","name":"Russey"},{"id":"1328164","latitude":"13.66666670","longitude":"104.85000000","name":"Samlanh"},{"id":"1328233","latitude":"13.60000000","longitude":"104.90000000","name":"S\u00ean K\u00f3ng"},{"id":"1328234","latitude":"13.60000000","longitude":"104.90000000","name":"Sen Kung"},{"id":"1328317","latitude":"13.66666670","longitude":"104.85000000","name":"Somlanh"},{"id":"1328336","latitude":"13.76666670","longitude":"104.73333330","name":"Srabal"},{"id":"1328429","latitude":"14.10000000","longitude":"105.66666670","name":"Srok Kam Keut"},{"id":"1328436","latitude":"14.08333330","longitude":"105.71666670","name":"Srok Souan"},{"id":"1328456","latitude":"14.25000000","longitude":"105.20000000","name":"Stung Trapeang Klol"},{"id":"1328522","latitude":"13.58333330","longitude":"104.91666670","name":"Tabeng"},{"id":"1328573","latitude":"14.10000000","longitude":"104.05000000","name":"Tamech"},{"id":"1328574","latitude":"14.10000000","longitude":"104.05000000","name":"Tamesch"},{"id":"1328575","latitude":"14.10000000","longitude":"104.05000000","name":"Tamesh"},{"id":"1328628","latitude":"13.40000000","longitude":"104.78333330","name":"Ta S\u00eang"},{"id":"1328672","latitude":"13.81666670","longitude":"104.96666670","name":"Thbeng Meanchey"},{"id":"1328693","latitude":"13.60000000","longitude":"105.43333330","name":"Thmea"},{"id":"1328720","latitude":"13.78333330","longitude":"105.26666670","name":"Tiutiella"},{"id":"1328722","latitude":"13.96666670","longitude":"104.88333330","name":"Tmat Baeuy"},{"id":"1328792","latitude":"14.25000000","longitude":"105.20000000","name":"Trapeang Khol"},{"id":"1328798","latitude":"14.25000000","longitude":"105.20000000","name":"Trapeang Kol"},{"id":"1328804","latitude":"14.25000000","longitude":"105.20000000","name":"Trapeang Kul"},{"id":"1328845","latitude":"14.25000000","longitude":"105.20000000","name":"Trapen Khol"},{"id":"1328846","latitude":"14.25000000","longitude":"105.20000000","name":"Trapen Kho"},{"id":"1328874","latitude":"13.78333330","longitude":"105.26666670","name":"Trutielle"},{"id":"1328925","latitude":"13.78333330","longitude":"105.26666670","name":"Tutiello"},{"id":"1329235","latitude":"14.06666670","longitude":"104.66666670","name":"Yeang"}]