[{"id":"1383144","latitude":"29.13222200","longitude":"48.12611100","name":"Abi Huleifa"},{"id":"1383145","latitude":"29.29250000","longitude":"47.96888900","name":"Abrag Khitan"},{"id":"1383146","latitude":"29.29250000","longitude":"47.96888900","name":"Abrak Khetan"},{"id":"1383147","latitude":"29.29250000","longitude":"47.96888900","name":"Abraq Haytan"},{"id":"1383148","latitude":"29.29250000","longitude":"47.96888900","name":"Abraq Khaitan"},{"id":"1383149","latitude":"29.29250000","longitude":"47.96888900","name":"Abraq Khaytan"},{"id":"1383150","latitude":"29.29250000","longitude":"47.96888900","name":"Abraq Khetan"},{"id":"1383151","latitude":"29.29250000","longitude":"47.96888900","name":"Abraq Khitan"},{"id":"1383152","latitude":"29.13222200","longitude":"48.12611100","name":"Abu Halaifa"},{"id":"1383153","latitude":"29.13222200","longitude":"48.12611100","name":"Abu Halaifah"},{"id":"1383154","latitude":"29.13222200","longitude":"48.12611100","name":"Abu Halifah"},{"id":"1383155","latitude":"29.13222200","longitude":"48.12611100","name":"Abu-Hleifa"},{"id":"1383156","latitude":"29.13222200","longitude":"48.12611100","name":"Abu Hulaifa"},{"id":"1383157","latitude":"29.13222200","longitude":"48.12611100","name":"Abu Hulaifah"},{"id":"1383158","latitude":"29.13222200","longitude":"48.12611100","name":"Abu Hulayfah"},{"id":"1383159","latitude":"29.33333300","longitude":"47.98333300","name":"Ad Da`iyah"},{"id":"1383160","latitude":"29.46250000","longitude":"48.31388900","name":"Ad Dasht"},{"id":"1383161","latitude":"29.36500000","longitude":"48.00138900","name":"Ad Dasma'"},{"id":"1383162","latitude":"29.36500000","longitude":"48.00138900","name":"Ad Dasmah"},{"id":"1383166","latitude":"29.33388900","longitude":"48.07611100","name":"Ad Dumna"},{"id":"1383167","latitude":"29.33388900","longitude":"48.07611100","name":"Ad Dumnah"},{"id":"1383168","latitude":"29.07694400","longitude":"48.08388900","name":"Ahmad"},{"id":"1383169","latitude":"29.07694400","longitude":"48.08388900","name":"Ahmadi"},{"id":"1383170","latitude":"29.07694400","longitude":"48.08388900","name":"Ahmedi"},{"id":"1383171","latitude":"29.25027800","longitude":"47.93111100","name":"Al `Abbasiyah"},{"id":"1383172","latitude":"29.04250000","longitude":"47.70611100","name":"Al `Abdaliyah"},{"id":"1383175","latitude":"29.32055600","longitude":"47.97694400","name":"Al `Adiliyah"},{"id":"1383176","latitude":"29.07694400","longitude":"48.08388900","name":"Al Ahmadi"},{"id":"1383179","latitude":"29.28416700","longitude":"47.87500000","name":"Al `Aridiyah"},{"id":"1383180","latitude":"29.28416700","longitude":"47.87500000","name":"Al Aridiyah"},{"id":"1383181","latitude":"29.42027800","longitude":"48.38500000","name":"Al `Awazim"},{"id":"1383182","latitude":"29.08138900","longitude":"48.11777800","name":"Al Badawiyah"},{"id":"1383186","latitude":"29.30250000","longitude":"48.08694400","name":"Al Bida`"},{"id":"1383187","latitude":"29.30250000","longitude":"48.08694400","name":"Al Bid`"},{"id":"1383188","latitude":"29.30250000","longitude":"48.08694400","name":"Al Biddah"},{"id":"1383189","latitude":"29.30250000","longitude":"48.08694400","name":"Al-Bidde"},{"id":"1383190","latitude":"29.45750000","longitude":"48.28138900","name":"Al Bult"},{"id":"1383192","latitude":"29.33333300","longitude":"47.98333300","name":"Al Diya"},{"id":"1383194","latitude":"29.33333300","longitude":"47.98333300","name":"Al Edeiya"},{"id":"1383195","latitude":"29.08250000","longitude":"48.13027800","name":"Al-Fahaheel"},{"id":"1383196","latitude":"29.08250000","longitude":"48.13027800","name":"Al-Fahahil"},{"id":"1383197","latitude":"29.22527800","longitude":"48.10166700","name":"Al Fanaitis"},{"id":"1383198","latitude":"29.17388900","longitude":"48.12111100","name":"Al Fantas"},{"id":"1383199","latitude":"29.27750000","longitude":"47.95861100","name":"Al-Farawaniyah"},{"id":"1383200","latitude":"29.27750000","longitude":"47.95861100","name":"Al Farwania"},{"id":"1383201","latitude":"29.27750000","longitude":"47.95861100","name":"Al Farwaniyah"},{"id":"1383202","latitude":"29.27750000","longitude":"47.95861100","name":"Al-Farwaniyyah"},{"id":"1383203","latitude":"29.33638900","longitude":"47.97583300","name":"Al Fayha'"},{"id":"1383204","latitude":"29.22527800","longitude":"48.10166700","name":"Al-Finaitees"},{"id":"1383205","latitude":"29.17388900","longitude":"48.12111100","name":"Al Fintas"},{"id":"1383206","latitude":"29.17388900","longitude":"48.12111100","name":"Al Fintass"},{"id":"1383207","latitude":"29.08250000","longitude":"48.13027800","name":"Al Fuhayhil"},{"id":"1383208","latitude":"29.22527800","longitude":"48.10166700","name":"Al Funaytis"},{"id":"1383209","latitude":"29.33333300","longitude":"47.98333300","name":"Al Hadeeqa"},{"id":"1383210","latitude":"29.33333300","longitude":"47.98333300","name":"Al Hadiqah"},{"id":"1383213","latitude":"29.08250000","longitude":"48.13027800","name":"Al Ifhaihil"},{"id":"1383214","latitude":"29.32222200","longitude":"48.02361100","name":"Al Jabiriyah"},{"id":"1383219","latitude":"29.32805600","longitude":"47.96555600","name":"Al Khalidiyah"},{"id":"1383220","latitude":"29.46444400","longitude":"48.28833300","name":"Al Khidr"},{"id":"1383223","latitude":"29.36972200","longitude":"47.97833300","name":"Al Kuwait"},{"id":"1383224","latitude":"29.36972200","longitude":"47.97833300","name":"Al Kuwayt"},{"id":"1383226","latitude":"29.16666700","longitude":"47.98333300","name":"Al Magwa"},{"id":"1383227","latitude":"29.14500000","longitude":"48.13027800","name":"Al Mahbulah"},{"id":"1383228","latitude":"29.09611100","longitude":"48.13277800","name":"Al-Mangaf"},{"id":"1383229","latitude":"29.09611100","longitude":"48.13277800","name":"Al Manjaf"},{"id":"1383230","latitude":"29.09611100","longitude":"48.13277800","name":"Al Manqaf"},{"id":"1383231","latitude":"29.35555600","longitude":"47.98055600","name":"Al Mansuriyah"},{"id":"1383232","latitude":"29.16666700","longitude":"47.98333300","name":"Al Maqwa`"},{"id":"1383233","latitude":"29.26194400","longitude":"48.07972200","name":"Al Masilah"},{"id":"1383234","latitude":"29.24638900","longitude":"48.07583300","name":"Al Mijifa"},{"id":"1383235","latitude":"29.32972200","longitude":"47.93611100","name":"Al Mina'"},{"id":"1383237","latitude":"29.36555600","longitude":"47.97805600","name":"Al Murqab"},{"id":"1383238","latitude":"29.24638900","longitude":"48.07583300","name":"Al-Najafa"},{"id":"1383240","latitude":"29.24638900","longitude":"48.07583300","name":"Al Nijifa"},{"id":"1383241","latitude":"29.34750000","longitude":"47.98500000","name":"Al Qadisiyah"},{"id":"1383242","latitude":"29.37361100","longitude":"47.97166700","name":"Al Qiblah"},{"id":"1383244","latitude":"29.14583300","longitude":"48.09472200","name":"Al-Riqqah"},{"id":"1383245","latitude":"29.10583300","longitude":"48.10805600","name":"Al-Sabahiyah"},{"id":"1383246","latitude":"29.34722200","longitude":"47.96166700","name":"Al Shamiya"},{"id":"1383247","latitude":"29.04111100","longitude":"48.13750000","name":"Al-Shuaiba"},{"id":"1383248","latitude":"29.34361100","longitude":"47.94611100","name":"Al Shuwaikh"},{"id":"1383250","latitude":"29.32055600","longitude":"47.97694400","name":"Al `Udayliyah"},{"id":"1383252","latitude":"29.29333300","longitude":"47.95333300","name":"Al `Umariyah"},{"id":"1383253","latitude":"29.17777800","longitude":"48.09472200","name":"Al `Uqaylah"},{"id":"1383254","latitude":"29.17777800","longitude":"48.09472200","name":"Al `Uqlah"},{"id":"1383256","latitude":"29.30777800","longitude":"47.96750000","name":"Al Yarmuk"},{"id":"1383259","latitude":"29.24638900","longitude":"48.07583300","name":"An Nijfah"},{"id":"1383263","latitude":"29.33750000","longitude":"48.01055600","name":"An Nuqrah"},{"id":"1383264","latitude":"29.34166700","longitude":"47.98972200","name":"An Nuzhah"},{"id":"1383267","latitude":"29.29500000","longitude":"47.93305600","name":"Ar Rabiyah"},{"id":"1383268","latitude":"29.32472200","longitude":"48.00138900","name":"Ar Raudha"},{"id":"1383269","latitude":"29.31583300","longitude":"48.00638900","name":"Ar Rawdah"},{"id":"1383270","latitude":"29.30916700","longitude":"47.93416700","name":"Ar Rayy"},{"id":"1383271","latitude":"29.14583300","longitude":"48.09472200","name":"Ar Riqqah"},{"id":"1383272","latitude":"29.31166700","longitude":"48.07416700","name":"Ar Rumaythiyah"},{"id":"1383276","latitude":"29.34694400","longitude":"48.02500000","name":"Ash Sha`b"},{"id":"1383277","latitude":"29.26805600","longitude":"47.84555600","name":"Ash Shadadiyah"},{"id":"1383278","latitude":"29.34722200","longitude":"47.96166700","name":"Ash Shamiyah"},{"id":"1383279","latitude":"29.37944400","longitude":"47.98722200","name":"Ash Sharq"},{"id":"1383280","latitude":"29.04111100","longitude":"48.13750000","name":"Ash Shu`aiba"},{"id":"1383281","latitude":"29.04111100","longitude":"48.13750000","name":"Ash Shu`aybah"},{"id":"1383282","latitude":"29.43166700","longitude":"48.29916700","name":"Ash Shubaykah"},{"id":"1383283","latitude":"29.34361100","longitude":"47.94611100","name":"Ash Shuwaykh"},{"id":"1383284","latitude":"29.10583300","longitude":"48.10805600","name":"As Sabahiyah"},{"id":"1383285","latitude":"29.36333300","longitude":"47.96888900","name":"As Salihiyah"},{"id":"1383286","latitude":"29.33388900","longitude":"48.07611100","name":"As Salimiyah"},{"id":"1383287","latitude":"29.04111100","longitude":"48.13750000","name":"As Shu`aiba"},{"id":"1383289","latitude":"29.27527800","longitude":"47.99000000","name":"As Surrah"},{"id":"1383290","latitude":"28.97861100","longitude":"47.90722200","name":"At Tawil"},{"id":"1383291","latitude":"29.44250000","longitude":"48.27472200","name":"Az Zaur"},{"id":"1383292","latitude":"29.44250000","longitude":"48.27472200","name":"Az Zawr"},{"id":"1383294","latitude":"29.44250000","longitude":"48.27472200","name":"Az Zor"},{"id":"1383295","latitude":"29.30250000","longitude":"48.08694400","name":"Bad'ah"},{"id":"1383298","latitude":"29.34361100","longitude":"47.94611100","name":"Bandar ash Shuwaykh"},{"id":"1383299","latitude":"29.34361100","longitude":"47.94611100","name":"Bandar Shuwaik"},{"id":"1383300","latitude":"29.34361100","longitude":"47.94611100","name":"Bandar Shuwaikh"},{"id":"1383301","latitude":"29.34361100","longitude":"47.94611100","name":"Bander Shweikh"},{"id":"1383302","latitude":"29.31805600","longitude":"48.03916700","name":"Bayan"},{"id":"1383303","latitude":"29.37555600","longitude":"48.00250000","name":"Bunayd al Qar"},{"id":"1383304","latitude":"29.35138900","longitude":"47.98000000","name":"Dahiyat `Abd Allah as Salim"},{"id":"1383305","latitude":"29.16666700","longitude":"48.11666700","name":"Dant"},{"id":"1383306","latitude":"29.36500000","longitude":"48.00138900","name":"Dasma"},{"id":"1383307","latitude":"29.36500000","longitude":"48.00138900","name":"Dasmah"},{"id":"1383310","latitude":"29.20111100","longitude":"48.11111100","name":"Dhulai` Sa`ud"},{"id":"1383311","latitude":"29.33388900","longitude":"48.07611100","name":"Dimnah"},{"id":"1383314","latitude":"29.20111100","longitude":"48.11111100","name":"Dulay` Sa`ud"},{"id":"1383315","latitude":"29.20111100","longitude":"48.11111100","name":"Dulay` Su`ud"},{"id":"1383317","latitude":"29.08250000","longitude":"48.13027800","name":"Fahaheel"},{"id":"1383318","latitude":"29.08250000","longitude":"48.13027800","name":"Fahahil"},{"id":"1383319","latitude":"29.08250000","longitude":"48.13027800","name":"Fahaihil"},{"id":"1383320","latitude":"29.08250000","longitude":"48.13027800","name":"Fahayhil"},{"id":"1383321","latitude":"29.44250000","longitude":"48.27472200","name":"Failakka Village"},{"id":"1383322","latitude":"29.22527800","longitude":"48.10166700","name":"Fanaitis"},{"id":"1383323","latitude":"29.17388900","longitude":"48.12111100","name":"Fantas"},{"id":"1383324","latitude":"29.17388900","longitude":"48.12111100","name":"Fantass"},{"id":"1383325","latitude":"29.27750000","longitude":"47.95861100","name":"Farwaniah"},{"id":"1383326","latitude":"29.27750000","longitude":"47.95861100","name":"Farwaniyyeh"},{"id":"1383327","latitude":"29.33638900","longitude":"47.97583300","name":"Fayha"},{"id":"1383328","latitude":"29.17388900","longitude":"48.12111100","name":"Finatus"},{"id":"1383329","latitude":"29.17388900","longitude":"48.12111100","name":"Fintas"},{"id":"1383330","latitude":"29.17388900","longitude":"48.12111100","name":"Fintass"},{"id":"1383331","latitude":"29.22527800","longitude":"48.10166700","name":"Fraitsass"},{"id":"1383332","latitude":"29.08250000","longitude":"48.13027800","name":"Fuhayhil"},{"id":"1383333","latitude":"29.22527800","longitude":"48.10166700","name":"Funait\u00eds"},{"id":"1383334","latitude":"29.22527800","longitude":"48.10166700","name":"Funaytis"},{"id":"1383335","latitude":"29.17388900","longitude":"48.12111100","name":"Funt\u00e1s"},{"id":"1383337","latitude":"29.13222200","longitude":"48.12611100","name":"Halaifa"},{"id":"1383340","latitude":"29.33277800","longitude":"48.02861100","name":"Hawali-nogra"},{"id":"1383341","latitude":"29.33277800","longitude":"48.02861100","name":"Hawalli"},{"id":"1383342","latitude":"29.33277800","longitude":"48.02861100","name":"Hawaly"},{"id":"1383345","latitude":"29.32520000","longitude":"48.03220000","name":"Jabriya"},{"id":"1383348","latitude":"29.25861100","longitude":"47.92416700","name":"Jalib ash Shuyukh"},{"id":"1383349","latitude":"29.26916700","longitude":"47.97805600","name":"Janub as Surrah"},{"id":"1383350","latitude":"29.27222200","longitude":"47.97777800","name":"Janub Khaytan"},{"id":"1383351","latitude":"29.26666700","longitude":"47.93333300","name":"Jleeb al Shuyoukh"},{"id":"1383352","latitude":"28.96666700","longitude":"47.96722200","name":"Juaidan"},{"id":"1383353","latitude":"28.96666700","longitude":"47.96722200","name":"Ju`aydan"},{"id":"1383354","latitude":"29.34138900","longitude":"47.96333300","name":"Kaifan"},{"id":"1383355","latitude":"29.34138900","longitude":"47.96333300","name":"Kayfan"},{"id":"1383356","latitude":"29.34138900","longitude":"47.96333300","name":"Keefan"},{"id":"1383357","latitude":"29.29250000","longitude":"47.96888900","name":"Khaitan"},{"id":"1383358","latitude":"29.29250000","longitude":"47.96888900","name":"Khitan"},{"id":"1383359","latitude":"29.34138900","longitude":"47.96333300","name":"Kifan"},{"id":"1383360","latitude":"29.29250000","longitude":"47.96888900","name":"Koetan"},{"id":"1383361","latitude":"29.36972200","longitude":"47.97833300","name":"Koweit"},{"id":"1383362","latitude":"29.36972200","longitude":"47.97833300","name":"Kuwait"},{"id":"1383363","latitude":"29.36972200","longitude":"47.97833300","name":"Kuwayt"},{"id":"1383364","latitude":"29.36972200","longitude":"47.97833300","name":"Kuweit"},{"id":"1383365","latitude":"29.36972200","longitude":"47.97833300","name":"Madinat al Kuwayt"},{"id":"1383366","latitude":"29.16666700","longitude":"47.98333300","name":"Magwa"},{"id":"1383367","latitude":"29.16666700","longitude":"47.98333300","name":"Majiwah"},{"id":"1383368","latitude":"29.16083300","longitude":"48.08111100","name":"Manifah"},{"id":"1383369","latitude":"29.16666700","longitude":"47.98333300","name":"Maqwah"},{"id":"1383370","latitude":"29.16666700","longitude":"47.98333300","name":"Maqwa"},{"id":"1383374","latitude":"29.16083300","longitude":"48.08111100","name":"Munifah"},{"id":"1383375","latitude":"29.33750000","longitude":"48.01055600","name":"Muqrah"},{"id":"1383376","latitude":"29.28916700","longitude":"48.05000000","name":"Mushrif"},{"id":"1383377","latitude":"29.33750000","longitude":"48.01055600","name":"Nigra"},{"id":"1383378","latitude":"29.33750000","longitude":"48.01055600","name":"Nugra"},{"id":"1383379","latitude":"29.33750000","longitude":"48.01055600","name":"Nuqrah"},{"id":"1383380","latitude":"29.34361100","longitude":"47.94611100","name":"Port Shuwaikh"},{"id":"1383381","latitude":"29.25861100","longitude":"47.92416700","name":"Qalib al Shuyukh"},{"id":"1383382","latitude":"29.25861100","longitude":"47.92416700","name":"Qalib ash Shuyukh"},{"id":"1383383","latitude":"29.38000000","longitude":"47.99611100","name":"Qasm Dasman"},{"id":"1383384","latitude":"29.45916700","longitude":"48.29972200","name":"Qullat Shujayr"},{"id":"1383385","latitude":"29.31222200","longitude":"47.98555600","name":"Qurtubah"},{"id":"1383386","latitude":"29.32472200","longitude":"48.00138900","name":"Rowda"},{"id":"1383387","latitude":"29.31166700","longitude":"48.07416700","name":"Rumaithiya"},{"id":"1383388","latitude":"29.25722200","longitude":"48.05722200","name":"Sabah as Salim as Sabbah"},{"id":"1383389","latitude":"29.25722200","longitude":"48.05722200","name":"Sabah as Salim"},{"id":"1383390","latitude":"29.33388900","longitude":"48.07611100","name":"Salimiyah"},{"id":"1383391","latitude":"29.33388900","longitude":"48.07611100","name":"Salmiyah"},{"id":"1383392","latitude":"29.33388900","longitude":"48.07611100","name":"Salmiya"},{"id":"1383393","latitude":"29.33388900","longitude":"48.07611100","name":"Salmiyyeh"},{"id":"1383394","latitude":"29.29583300","longitude":"48.07861100","name":"Salw\u00e1"},{"id":"1383395","latitude":"29.04111100","longitude":"48.13750000","name":"Shaabah"},{"id":"1383396","latitude":"29.04111100","longitude":"48.13750000","name":"Shaab"},{"id":"1383397","latitude":"29.04111100","longitude":"48.13750000","name":"Sha'iba"},{"id":"1383398","latitude":"29.34722200","longitude":"47.96166700","name":"Shamiyah"},{"id":"1383399","latitude":"29.34722200","longitude":"47.96166700","name":"Shamiya"},{"id":"1383400","latitude":"29.34722200","longitude":"47.96166700","name":"Shamiyeh"},{"id":"1383401","latitude":"29.34722200","longitude":"47.96166700","name":"Shamiyyeh"},{"id":"1383402","latitude":"29.33611100","longitude":"48.04250000","name":"Sharq Hawalli"},{"id":"1383403","latitude":"29.04111100","longitude":"48.13750000","name":"Shauiba"},{"id":"1383404","latitude":"29.04111100","longitude":"48.13750000","name":"Shi'aibah"},{"id":"1383405","latitude":"29.04111100","longitude":"48.13750000","name":"Shua'ibah"},{"id":"1383406","latitude":"29.04111100","longitude":"48.13750000","name":"Shuaiba"},{"id":"1383407","latitude":"29.04111100","longitude":"48.13750000","name":"Shu`aybah"},{"id":"1383409","latitude":"29.34361100","longitude":"47.94611100","name":"Shuwaikh Port"},{"id":"1383410","latitude":"29.34361100","longitude":"47.94611100","name":"Shuwaikh"},{"id":"1383411","latitude":"29.34361100","longitude":"47.94611100","name":"Shuwoikh"},{"id":"1383412","latitude":"29.26916700","longitude":"47.97805600","name":"South Surra"},{"id":"1383413","latitude":"28.87944400","longitude":"47.91388900","name":"Subayhiyah"},{"id":"1383416","latitude":"29.17777800","longitude":"48.09472200","name":"Ugla"},{"id":"1383417","latitude":"28.99222200","longitude":"48.16555600","name":"Umm Qasabah"},{"id":"1383418","latitude":"28.99222200","longitude":"48.16555600","name":"Umm Qasbah"},{"id":"1383419","latitude":"29.36194400","longitude":"47.99250000","name":"Umm Siddah"},{"id":"1383420","latitude":"29.17777800","longitude":"48.09472200","name":"`Uqaila"},{"id":"1383421","latitude":"29.17777800","longitude":"48.09472200","name":"`Uqallah"},{"id":"1383422","latitude":"29.17777800","longitude":"48.09472200","name":"`Uqlah"},{"id":"1383425","latitude":"28.99611100","longitude":"47.98222200","name":"Warah"},{"id":"1383426","latitude":"29.44250000","longitude":"48.27472200","name":"Zor"}]