[{"id":"1383500","latitude":"43.41555600","longitude":"76.89833300","name":"12 Dekabrya"},{"id":"1383512","latitude":"45.38861100","longitude":"79.50222200","name":"Abakumovka"},{"id":"1383513","latitude":"45.38861100","longitude":"79.50222200","name":"Abakumovskaya"},{"id":"1383514","latitude":"45.38861100","longitude":"79.50222200","name":"Abakumovskoye"},{"id":"1383516","latitude":"43.20916700","longitude":"76.76027800","name":"Abay"},{"id":"1383552","latitude":"43.50000000","longitude":"80.46666700","name":"Achinokho"},{"id":"1383579","latitude":"45.66666700","longitude":"80.16666700","name":"Agartu"},{"id":"1383600","latitude":"45.16666700","longitude":"78.58333300","name":"Aina-bulak"},{"id":"1383601","latitude":"44.23333300","longitude":"79.03333300","name":"Aina-Bulan"},{"id":"1383614","latitude":"44.06666700","longitude":"79.91666700","name":"Akaral"},{"id":"1383622","latitude":"46.56611100","longitude":"79.20944400","name":"Akbalyk"},{"id":"1383632","latitude":"42.90000000","longitude":"79.53333300","name":"Akbeim"},{"id":"1383633","latitude":"42.90000000","longitude":"79.53333300","name":"Akbeit"},{"id":"1383636","latitude":"42.91666700","longitude":"79.90000000","name":"Akbent"},{"id":"1383641","latitude":"43.24555600","longitude":"76.82777800","name":"Akbulak"},{"id":"1383650","latitude":"45.18333300","longitude":"80.05000000","name":"Ak-Chaganak"},{"id":"1383657","latitude":"43.99000000","longitude":"76.32361100","name":"Akchi"},{"id":"1383663","latitude":"43.36666700","longitude":"76.60000000","name":"Akchiy-Aytuar"},{"id":"1383667","latitude":"43.32777800","longitude":"77.20083300","name":"Akdala"},{"id":"1383670","latitude":"42.83333300","longitude":"75.63333300","name":"Ak-Dzhal"},{"id":"1383678","latitude":"44.15000000","longitude":"79.75000000","name":"Akdzhazyk"},{"id":"1383679","latitude":"45.73333300","longitude":"80.26666700","name":"Akdzhor"},{"id":"1383699","latitude":"44.26666700","longitude":"80.15000000","name":"Akhtypeylyk"},{"id":"1383700","latitude":"45.21666700","longitude":"78.70000000","name":"Ak-Ichke"},{"id":"1383701","latitude":"45.21666700","longitude":"78.70000000","name":"Ak-ichkeyskiy"},{"id":"1383705","latitude":"45.21666700","longitude":"78.70000000","name":"Akishke"},{"id":"1383714","latitude":"43.16666700","longitude":"76.03944400","name":"Akkaynar"},{"id":"1383719","latitude":"44.18333300","longitude":"80.18333300","name":"Akkent"},{"id":"1383722","latitude":"45.02333300","longitude":"75.66555600","name":"Akkol'"},{"id":"1383743","latitude":"45.70000000","longitude":"80.15000000","name":"Akkuduk"},{"id":"1383754","latitude":"45.02333300","longitude":"75.66555600","name":"Ak-Kul'"},{"id":"1383804","latitude":"43.94111100","longitude":"77.51444400","name":"Akozek"},{"id":"1383822","latitude":"43.21666700","longitude":"79.13333300","name":"Aksay"},{"id":"1383830","latitude":"43.56472200","longitude":"76.91527800","name":"Aksay Pervyy"},{"id":"1383831","latitude":"43.35333300","longitude":"76.82611100","name":"Aksengir"},{"id":"1383835","latitude":"45.18333300","longitude":"80.05000000","name":"Akshaganak"},{"id":"1383845","latitude":"43.99000000","longitude":"76.32361100","name":"Akshi"},{"id":"1383852","latitude":"43.51500000","longitude":"77.63250000","name":"Akshiy"},{"id":"1383867","latitude":"45.60861100","longitude":"79.46194400","name":"Aksu"},{"id":"1383891","latitude":"45.60861100","longitude":"79.46194400","name":"Aksuyskaya"},{"id":"1383895","latitude":"43.44305600","longitude":"79.81916700","name":"Aktam"},{"id":"1383897","latitude":"43.38527800","longitude":"77.23250000","name":"Aktas"},{"id":"1383903","latitude":"45.16666700","longitude":"78.81666700","name":"Ak-Tasty"},{"id":"1383916","latitude":"43.27138900","longitude":"75.48888900","name":"Akterek"},{"id":"1383920","latitude":"43.98333300","longitude":"78.80000000","name":"Aktobe"},{"id":"1383930","latitude":"44.41666700","longitude":"76.73333300","name":"Aktogay"},{"id":"1383934","latitude":"45.16666700","longitude":"78.81666700","name":"Ak-Tost\u00f6"},{"id":"1383937","latitude":"45.08333300","longitude":"78.66666700","name":"Aktuma"},{"id":"1383948","latitude":"45.23333300","longitude":"79.66666700","name":"Aktyube"},{"id":"1383976","latitude":"45.73333300","longitude":"80.26666700","name":"Akzhar"},{"id":"1384003","latitude":"46.35000000","longitude":"81.30000000","name":"Alakol'"},{"id":"1384017","latitude":"43.35750000","longitude":"77.14444400","name":"Alatau"},{"id":"1384028","latitude":"43.44722200","longitude":"77.33055600","name":"Aleksandrovka"},{"id":"1384046","latitude":"42.93333300","longitude":"75.50000000","name":"Aleksandrovskoye"},{"id":"1384057","latitude":"43.40277800","longitude":"77.22500000","name":"Alekseyevka"},{"id":"1384077","latitude":"43.44500000","longitude":"77.17305600","name":"Alga"},{"id":"1384080","latitude":"42.83333300","longitude":"79.91666700","name":"Algabas"},{"id":"1384094","latitude":"46.55000000","longitude":"76.86666700","name":"Algazy"},{"id":"1384096","latitude":"43.25472200","longitude":"76.80138900","name":"Alghabas"},{"id":"1384099","latitude":"43.56416700","longitude":"77.03027800","name":"Ali"},{"id":"1384108","latitude":"43.40277800","longitude":"77.06111100","name":"Alimzhanov"},{"id":"1384109","latitude":"43.56416700","longitude":"77.03027800","name":"Aliy"},{"id":"1384112","latitude":"45.43333300","longitude":"79.26666700","name":"Alkaly"},{"id":"1384116","latitude":"43.06666700","longitude":"76.91666700","name":"Almaarasan"},{"id":"1384119","latitude":"44.26666700","longitude":"80.33333300","name":"Almaly"},{"id":"1384149","latitude":"44.33583300","longitude":"78.44055600","name":"Altin-Emel"},{"id":"1384150","latitude":"44.33583300","longitude":"78.44055600","name":"Alton-Emel'"},{"id":"1384163","latitude":"44.33583300","longitude":"78.44055600","name":"Altynemel"},{"id":"1384164","latitude":"44.33583300","longitude":"78.44055600","name":"Altyn-Emel'skaya"},{"id":"1384195","latitude":"43.10277800","longitude":"76.00583300","name":"Amangel'dy"},{"id":"1384241","latitude":"43.50000000","longitude":"77.80000000","name":"Anatol'yevka"},{"id":"1384242","latitude":"43.50000000","longitude":"77.80000000","name":"Anatol'yevskoye"},{"id":"1384248","latitude":"44.95000000","longitude":"80.31666700","name":"Andreyevka"},{"id":"1384283","latitude":"45.64888900","longitude":"80.23694400","name":"Antonovka"},{"id":"1384294","latitude":"45.64888900","longitude":"80.23694400","name":"Antonovskoye"},{"id":"1384306","latitude":"46.56611100","longitude":"79.20944400","name":"Aqbalyq"},{"id":"1384312","latitude":"45.03305600","longitude":"74.52888900","name":"Aqdala"},{"id":"1384316","latitude":"45.02333300","longitude":"75.66555600","name":"Aqk\u00f6l"},{"id":"1384339","latitude":"43.99000000","longitude":"76.32361100","name":"Aqshi"},{"id":"1384353","latitude":"43.44305600","longitude":"79.81916700","name":"Aqtam"},{"id":"1384372","latitude":"46.00000000","longitude":"77.18333300","name":"Aqzhar"},{"id":"1384388","latitude":"45.90000000","longitude":"74.75000000","name":"Aralkol'"},{"id":"1384404","latitude":"44.01666700","longitude":"78.75000000","name":"Araltobe"},{"id":"1384412","latitude":"44.01666700","longitude":"78.75000000","name":"Aral-Tyube"},{"id":"1384429","latitude":"45.27805600","longitude":"79.35500000","name":"Arasan"},{"id":"1384430","latitude":"45.27805600","longitude":"79.35500000","name":"Arasanskiy"},{"id":"1384439","latitude":"46.65000000","longitude":"79.66666700","name":"Arganatinskiy"},{"id":"1384441","latitude":"46.65000000","longitude":"79.66666700","name":"Arganat\u00f6"},{"id":"1384442","latitude":"46.65000000","longitude":"79.66666700","name":"Arganaty"},{"id":"1384446","latitude":"43.41750000","longitude":"77.09194400","name":"Arkabay"},{"id":"1384450","latitude":"46.24888900","longitude":"80.09777800","name":"Arkarly"},{"id":"1384463","latitude":"46.24888900","longitude":"80.09777800","name":"Arkharly"},{"id":"1384473","latitude":"46.24888900","longitude":"80.09777800","name":"Arqarly"},{"id":"1384485","latitude":"45.20000000","longitude":"79.05000000","name":"Artel' Vostok"},{"id":"1384489","latitude":"44.16666700","longitude":"80.15000000","name":"Arustan"},{"id":"1384536","latitude":"43.41000000","longitude":"76.91305600","name":"Ashchibulak"},{"id":"1384537","latitude":"46.38333300","longitude":"79.63333300","name":"Ashchi-Bulak"},{"id":"1384539","latitude":"46.38333300","longitude":"79.63333300","name":"Ashchibulakskiy"},{"id":"1384561","latitude":"46.38333300","longitude":"77.11666700","name":"Ashchisu"},{"id":"1384564","latitude":"43.41000000","longitude":"76.91305600","name":"Ashchybulak"},{"id":"1384571","latitude":"46.38333300","longitude":"79.63333300","name":"Ashi-Bulak"},{"id":"1384573","latitude":"43.06666700","longitude":"78.33333300","name":"Ashil-Togay"},{"id":"1384605","latitude":"43.51666700","longitude":"78.35000000","name":"Asy"},{"id":"1384607","latitude":"43.16805600","longitude":"76.56000000","name":"Asyl"},{"id":"1384608","latitude":"43.51666700","longitude":"78.35000000","name":"Asysaga"},{"id":"1384650","latitude":"43.40000000","longitude":"77.85000000","name":"Aul Baubek"},{"id":"1384660","latitude":"43.45000000","longitude":"78.20000000","name":"Aul Dosmambet"},{"id":"1384677","latitude":"43.70000000","longitude":"78.45000000","name":"Aul Nartpay"},{"id":"1384681","latitude":"43.71666700","longitude":"77.28333300","name":"Aul Nur-Uzek"},{"id":"1384682","latitude":"45.18333300","longitude":"79.40000000","name":"Aul Odinnadtsatyy"},{"id":"1384689","latitude":"45.46055600","longitude":"75.20805600","name":"Aulsovet Chetv\u00ebrtyy"},{"id":"1384690","latitude":"45.30000000","longitude":"75.43333300","name":"Aulsovet Pervyy"},{"id":"1384691","latitude":"45.40000000","longitude":"75.31666700","name":"Aulsovet Tretiy"},{"id":"1384696","latitude":"43.21888900","longitude":"76.99500000","name":"Aul Vtoroy"},{"id":"1384706","latitude":"43.41666700","longitude":"79.86666700","name":"Avat"},{"id":"1384707","latitude":"43.41666700","longitude":"79.86666700","name":"Avet"},{"id":"1384731","latitude":"44.60000000","longitude":"77.93333300","name":"Aybulak"},{"id":"1384740","latitude":"45.08333300","longitude":"77.93333300","name":"Aydar"},{"id":"1384747","latitude":"44.03333300","longitude":"79.51638900","name":"Aydarly"},{"id":"1384758","latitude":"42.80000000","longitude":"79.96666700","name":"Aygyr-Zhal"},{"id":"1384774","latitude":"44.23333300","longitude":"79.03333300","name":"Ayna-Bulak"},{"id":"1384775","latitude":"44.60000000","longitude":"77.93333300","name":"Aynabulak"},{"id":"1384776","latitude":"45.16666700","longitude":"78.58333300","name":"Ayna-Bulak"},{"id":"1384779","latitude":"44.23333300","longitude":"79.03333300","name":"Ayna-Bulakskaya"},{"id":"1384781","latitude":"44.60000000","longitude":"77.93333300","name":"Ayna-Bulan"},{"id":"1384782","latitude":"44.60000000","longitude":"77.93333300","name":"Aynabulaq"},{"id":"1384817","latitude":"43.35472200","longitude":"77.26750000","name":"Azat"},{"id":"1384841","latitude":"43.73333300","longitude":"78.16666700","name":"Babatugan"},{"id":"1384855","latitude":"43.19861100","longitude":"76.91527800","name":"Baganashyl"},{"id":"1384873","latitude":"44.80805600","longitude":"76.27722200","name":"Bakanas"},{"id":"1384878","latitude":"44.57083300","longitude":"76.65916700","name":"Bakbakty"},{"id":"1384886","latitude":"44.58333300","longitude":"78.75000000","name":"Bakhmutka"},{"id":"1384893","latitude":"44.57083300","longitude":"76.65916700","name":"Bakpakty"},{"id":"1384916","latitude":"45.14444400","longitude":"79.41111100","name":"Balasaz"},{"id":"1384918","latitude":"45.05861100","longitude":"74.61277800","name":"Balatopar"},{"id":"1384919","latitude":"46.50000000","longitude":"77.13333300","name":"Balay"},{"id":"1384930","latitude":"46.66666700","longitude":"79.33333300","name":"Balkhash"},{"id":"1384938","latitude":"44.89472200","longitude":"78.20833300","name":"Balpyk Bi"},{"id":"1384939","latitude":"46.66666700","longitude":"79.33333300","name":"Balqash"},{"id":"1384942","latitude":"43.50500000","longitude":"77.54055600","name":"Baltabay"},{"id":"1384970","latitude":"44.80805600","longitude":"76.27722200","name":"Baqanas"},{"id":"1384971","latitude":"44.57083300","longitude":"76.65916700","name":"Baqbaqty"},{"id":"1384980","latitude":"43.36027800","longitude":"76.85777800","name":"Baranday"},{"id":"1385016","latitude":"43.33333300","longitude":"78.50000000","name":"Bartogay"},{"id":"1385017","latitude":"43.33333300","longitude":"78.50000000","name":"Bar-Togay"},{"id":"1385028","latitude":"44.18333300","longitude":"78.73333300","name":"Baschiy"},{"id":"1385029","latitude":"44.18333300","longitude":"78.73333300","name":"Baschiyskaya"},{"id":"1385047","latitude":"45.83333300","longitude":"79.66666700","name":"Baskan"},{"id":"1385048","latitude":"45.83333300","longitude":"79.66666700","name":"Baskanskaya"},{"id":"1385057","latitude":"44.33722200","longitude":"80.37638900","name":"Baskunchak"},{"id":"1385058","latitude":"44.33722200","longitude":"80.37638900","name":"Baskunchi"},{"id":"1385063","latitude":"44.33722200","longitude":"80.37638900","name":"Basqynshy"},{"id":"1385065","latitude":"44.18333300","longitude":"78.73333300","name":"Basshiy"},{"id":"1385067","latitude":"44.90000000","longitude":"78.03333300","name":"Bastagan"},{"id":"1385069","latitude":"44.50000000","longitude":"78.75000000","name":"Bastan"},{"id":"1385073","latitude":"45.45000000","longitude":"80.40000000","name":"Bastaushi"},{"id":"1385113","latitude":"43.50000000","longitude":"77.41666700","name":"Baubek"},{"id":"1385133","latitude":"43.40000000","longitude":"79.66666700","name":"Bayan-Kazak"},{"id":"1385134","latitude":"43.40000000","longitude":"79.66666700","name":"Bayan-Kazakh"},{"id":"1385135","latitude":"42.60000000","longitude":"79.98333300","name":"Bayankol"},{"id":"1385143","latitude":"43.14666700","longitude":"76.17416700","name":"Baybichinskoye"},{"id":"1385145","latitude":"43.27750000","longitude":"77.19027800","name":"Baybulak"},{"id":"1385224","latitude":"43.56666700","longitude":"78.35000000","name":"Bayseit"},{"id":"1385225","latitude":"43.38361100","longitude":"77.10888900","name":"Bayserka"},{"id":"1385226","latitude":"43.48055600","longitude":"77.04666700","name":"Bayserke"},{"id":"1385233","latitude":"45.18333300","longitude":"75.05000000","name":"Baytalyab"},{"id":"1385234","latitude":"45.18333300","longitude":"75.05000000","name":"Baytalyak"},{"id":"1385238","latitude":"45.18333300","longitude":"75.05000000","name":"Baytaylak"},{"id":"1385241","latitude":"43.50000000","longitude":"78.11666700","name":"Baytkan"},{"id":"1385242","latitude":"43.50000000","longitude":"78.11666700","name":"Baytkay"},{"id":"1385243","latitude":"43.41666700","longitude":"76.66666700","name":"Baytles"},{"id":"1385254","latitude":"43.56666700","longitude":"78.35000000","name":"Baytykan"},{"id":"1385268","latitude":"43.54777800","longitude":"77.28055600","name":"Bazarkel'dy"},{"id":"1385275","latitude":"43.54777800","longitude":"77.28055600","name":"Bazaskel'dy"},{"id":"1385276","latitude":"43.53583300","longitude":"77.14611100","name":"Baza Zagotskot"},{"id":"1385309","latitude":"43.36888900","longitude":"76.70833300","name":"Bekete"},{"id":"1385345","latitude":"43.31444400","longitude":"77.09583300","name":"Bel'bulak"},{"id":"1385348","latitude":"42.78333300","longitude":"79.01666700","name":"Beleksaz"},{"id":"1385376","latitude":"44.96666700","longitude":"78.66666700","name":"Belokamenka"},{"id":"1385432","latitude":"43.36888900","longitude":"76.70833300","name":"Bereke"},{"id":"1385440","latitude":"45.01666700","longitude":"78.68333300","name":"Ber\u00ebzovka"},{"id":"1385489","latitude":"46.17527800","longitude":"81.09888900","name":"Besk\u00f6l"},{"id":"1385549","latitude":"43.53333300","longitude":"76.86666700","name":"Bezvodnyy"},{"id":"1385566","latitude":"44.66666700","longitude":"78.08333300","name":"Bidzhe"},{"id":"1385567","latitude":"45.41666700","longitude":"79.25000000","name":"Bien"},{"id":"1385569","latitude":"44.71666700","longitude":"78.56666700","name":"Bigash"},{"id":"1385595","latitude":"43.21750000","longitude":"76.13833300","name":"Birlik"},{"id":"1385612","latitude":"45.78333300","longitude":"79.66666700","name":"Birlikty"},{"id":"1385643","latitude":"45.41666700","longitude":"79.25000000","name":"Biyen"},{"id":"1385647","latitude":"44.66666700","longitude":"78.08333300","name":"Bizhe"},{"id":"1385679","latitude":"43.96666700","longitude":"79.58333300","name":"Bodokhudzir"},{"id":"1385761","latitude":"43.46666700","longitude":"80.30000000","name":"Bol'shaya Ketmen'"},{"id":"1385791","latitude":"43.50000000","longitude":"80.53333300","name":"Bolshoy Achinokho"},{"id":"1385792","latitude":"43.36722200","longitude":"79.60972200","name":"Bol'shoy Aksu"},{"id":"1385806","latitude":"43.50000000","longitude":"80.53333300","name":"Bol'shoye Ashinakho"},{"id":"1385807","latitude":"43.50000000","longitude":"80.53333300","name":"Bol'shoye Ashinokho"},{"id":"1385823","latitude":"43.45027800","longitude":"80.35000000","name":"Bolshoy Ketmen'"},{"id":"1385825","latitude":"45.36388900","longitude":"74.14666700","name":"Bol'shoy Kuygan"},{"id":"1385826","latitude":"45.36388900","longitude":"74.14666700","name":"Bolshoy Kuygon"},{"id":"1385837","latitude":"43.36027800","longitude":"76.85777800","name":"Boralday"},{"id":"1385873","latitude":"43.96666700","longitude":"79.58333300","name":"Borokhudzir"},{"id":"1385911","latitude":"44.50000000","longitude":"78.75000000","name":"Bostan"},{"id":"1385934","latitude":"44.83333300","longitude":"76.18333300","name":"Boyauly"},{"id":"1385943","latitude":"45.38750000","longitude":"75.25277800","name":"Bozingen"},{"id":"1385944","latitude":"45.38750000","longitude":"75.25277800","name":"Bozinggen"},{"id":"1385953","latitude":"42.70000000","longitude":"80.05000000","name":"Boztobe"},{"id":"1385963","latitude":"43.38083300","longitude":"77.00416700","name":"Brigada Dvenadtsataya Luch Vostoka"},{"id":"1385964","latitude":"43.57611100","longitude":"77.16777800","name":"Brigada No. 7 Kolkhoza Imeni XX Parts''yezda"},{"id":"1385965","latitude":"43.58361100","longitude":"77.05361100","name":"Brigada Nomer Chetyre Kyzylkayrat"},{"id":"1385966","latitude":"43.40277800","longitude":"77.06111100","name":"Brigada )) (( Nomer Dva Kolkhoza Kyzyltu"},{"id":"1385967","latitude":"43.38083300","longitude":"77.00416700","name":"Brigada Nomer Dvenadtsat' Kolkhoza Luch Vostoka"},{"id":"1385968","latitude":"43.48972200","longitude":"77.05222200","name":"Brigada Nomer Odinnadtsat' Kolkhoza Luch Vostoka"},{"id":"1385969","latitude":"43.35611100","longitude":"77.12722200","name":"Brigada Nomer Odin Sovkhoza Imeni Panfilova"},{"id":"1385970","latitude":"43.57611100","longitude":"77.16777800","name":"Brigada Nomer Sem' Kolkhoza Imeni Dvadtsat' Parts''yezda"},{"id":"1385971","latitude":"43.72166700","longitude":"77.07638900","name":"Brigada Nomer Tri Sovkhoza Rassvet"},{"id":"1385995","latitude":"44.63333300","longitude":"78.75000000","name":"Bud\u00ebnnovskoye"},{"id":"1385996","latitude":"44.63333300","longitude":"78.75000000","name":"Budennoye"},{"id":"1386026","latitude":"43.16666700","longitude":"79.06666700","name":"Bukan"},{"id":"1386093","latitude":"44.83333300","longitude":"77.75000000","name":"Burgan"},{"id":"1386094","latitude":"43.39750000","longitude":"77.81972200","name":"Burgansu"},{"id":"1386097","latitude":"43.10000000","longitude":"75.98333300","name":"Burgun"},{"id":"1386102","latitude":"44.43333300","longitude":"79.96666700","name":"Burkhan"},{"id":"1386117","latitude":"46.61666700","longitude":"79.13333300","name":"Burli-Tobe"},{"id":"1386122","latitude":"46.61666700","longitude":"79.13333300","name":"Burlyu-Tobe"},{"id":"1386123","latitude":"46.61666700","longitude":"79.13333300","name":"Burlyu-Tyube"},{"id":"1386137","latitude":"43.36027800","longitude":"76.85777800","name":"Burunday"},{"id":"1386168","latitude":"43.30805600","longitude":"77.14166700","name":"Byrlik"},{"id":"1386169","latitude":"43.30805600","longitude":"77.14166700","name":"Byrlyk"},{"id":"1386176","latitude":"43.75000000","longitude":"78.28333300","name":"Chaday"},{"id":"1386201","latitude":"43.10000000","longitude":"79.95000000","name":"Chalkudy-Su"},{"id":"1386206","latitude":"43.18972200","longitude":"76.52916700","name":"Chamalgan"},{"id":"1386210","latitude":"44.25000000","longitude":"78.25000000","name":"Chankanay"},{"id":"1386221","latitude":"43.47222200","longitude":"76.80722200","name":"Chapayevo"},{"id":"1386236","latitude":"43.60000000","longitude":"78.43333300","name":"Charbak"},{"id":"1386239","latitude":"42.96666700","longitude":"79.03333300","name":"Charganak"},{"id":"1386240","latitude":"43.77666700","longitude":"79.38916700","name":"Char\u00f6n"},{"id":"1386244","latitude":"43.77666700","longitude":"79.38916700","name":"Charyn"},{"id":"1386278","latitude":"43.51111100","longitude":"76.89166700","name":"Chelikemir"},{"id":"1386284","latitude":"43.18972200","longitude":"76.52916700","name":"Chemalgan"},{"id":"1386285","latitude":"43.18972200","longitude":"76.52916700","name":"Chemolgan"},{"id":"1386299","latitude":"45.66777800","longitude":"80.36722200","name":"Cherkasskoe"},{"id":"1386301","latitude":"45.66777800","longitude":"80.36722200","name":"Cherkasskoye"},{"id":"1386303","latitude":"45.66777800","longitude":"80.36722200","name":"Cherkasskoye Kogaly"},{"id":"1386372","latitude":"43.06666700","longitude":"78.80000000","name":"Chet-Merke"},{"id":"1386387","latitude":"43.55000000","longitude":"75.41666700","name":"Chil'bastau"},{"id":"1386392","latitude":"43.59722200","longitude":"78.25111100","name":"Chilik"},{"id":"1386395","latitude":"43.51111100","longitude":"76.89166700","name":"Chilikimir"},{"id":"1386396","latitude":"43.59722200","longitude":"78.25111100","name":"Chiliksk"},{"id":"1386397","latitude":"45.91666700","longitude":"80.25000000","name":"Chilikt\u00f6"},{"id":"1386398","latitude":"45.91666700","longitude":"80.25000000","name":"Chilikty"},{"id":"1386414","latitude":"43.98527800","longitude":"77.45138900","name":"Chingel'dy"},{"id":"1386415","latitude":"43.98527800","longitude":"77.45138900","name":"Chingil'dinskiy"},{"id":"1386416","latitude":"43.98527800","longitude":"77.45138900","name":"Chingild\u00f6"},{"id":"1386417","latitude":"43.98527800","longitude":"77.45138900","name":"Chingil'dy"},{"id":"1386421","latitude":"43.98527800","longitude":"77.45138900","name":"Chingyl'dy"},{"id":"1386425","latitude":"42.96666700","longitude":"79.03333300","name":"Chirganak"},{"id":"1386434","latitude":"46.18333300","longitude":"81.21666700","name":"Chistopol'skoye"},{"id":"1386447","latitude":"43.15000000","longitude":"79.86666700","name":"Chiybut"},{"id":"1386448","latitude":"43.16666700","longitude":"75.91666700","name":"Chiyen"},{"id":"1386452","latitude":"44.38333300","longitude":"80.13333300","name":"Chizhin"},{"id":"1386465","latitude":"43.36666700","longitude":"79.55000000","name":"Cholak-Ak-Su"},{"id":"1386466","latitude":"43.13333300","longitude":"79.93333300","name":"Cholak"},{"id":"1386467","latitude":"43.25194400","longitude":"76.35638900","name":"Cholak-Kargal\u00f6"},{"id":"1386468","latitude":"43.25194400","longitude":"76.35638900","name":"Cholak-Kargaly"},{"id":"1386471","latitude":"43.46666700","longitude":"79.98333300","name":"Cholan-Dulaty"},{"id":"1386472","latitude":"44.08333300","longitude":"79.96666700","name":"Cholokay"},{"id":"1386480","latitude":"44.91666700","longitude":"78.30000000","name":"Chubar"},{"id":"1386493","latitude":"42.93333300","longitude":"79.33333300","name":"Chul-Adyr"},{"id":"1386495","latitude":"43.43333300","longitude":"79.98333300","name":"Chulak"},{"id":"1386508","latitude":"43.54166700","longitude":"79.47027800","name":"Chundzha"},{"id":"1386509","latitude":"43.54166700","longitude":"79.47027800","name":"Chundzhinskiy"},{"id":"1386510","latitude":"43.54166700","longitude":"79.47027800","name":"Chunjinskiy"},{"id":"1386516","latitude":"43.28333300","longitude":"79.31666700","name":"Chushanay"},{"id":"1386517","latitude":"43.28333300","longitude":"79.31666700","name":"Chushenay"},{"id":"1386526","latitude":"43.28333300","longitude":"79.31666700","name":"Chuzhanay"},{"id":"1386533","latitude":"43.55694400","longitude":"77.98527800","name":"Dala-Kara-Turuk"},{"id":"1386543","latitude":"45.13333300","longitude":"78.00000000","name":"Dal'niy Vostok"},{"id":"1386562","latitude":"43.50000000","longitude":"80.05000000","name":"Dardamt\u00f6"},{"id":"1386563","latitude":"43.50000000","longitude":"80.05000000","name":"Dardamty"},{"id":"1386587","latitude":"43.46666700","longitude":"79.98333300","name":"Daulaty"},{"id":"1386588","latitude":"43.46666700","longitude":"79.98333300","name":"Daulatyy"},{"id":"1386589","latitude":"43.61916700","longitude":"77.10250000","name":"Daulet"},{"id":"1386607","latitude":"43.23944400","longitude":"75.79750000","name":"Degeres"},{"id":"1386625","latitude":"43.28333300","longitude":"76.66666700","name":"Desyat' Let Kazakhskoy Sovetskoy Sotsialisticheskoy Respubliki"},{"id":"1386633","latitude":"43.41666700","longitude":"79.71666700","name":"Digerman"},{"id":"1386634","latitude":"43.41666700","longitude":"79.71666700","name":"Digermen'"},{"id":"1386637","latitude":"43.47972200","longitude":"77.03361100","name":"Dimitriyevka"},{"id":"1386646","latitude":"44.76666700","longitude":"78.55000000","name":"Djangiz-Agach"},{"id":"1386649","latitude":"44.16277800","longitude":"80.00000000","name":"Djarkent"},{"id":"1386653","latitude":"43.47972200","longitude":"77.03361100","name":"Dmitrievka"},{"id":"1386656","latitude":"43.47972200","longitude":"77.03361100","name":"Dmitriyevka"},{"id":"1386678","latitude":"43.66666700","longitude":"80.08333300","name":"Dobun"},{"id":"1386746","latitude":"45.18333300","longitude":"78.13333300","name":"Dostizheniye"},{"id":"1386747","latitude":"45.25333300","longitude":"82.48444400","name":"Dostyk"},{"id":"1386749","latitude":"45.25333300","longitude":"82.48444400","name":"Dostyq"},{"id":"1386757","latitude":"45.25333300","longitude":"82.48444400","name":"Druzhba"},{"id":"1386765","latitude":"43.13333300","longitude":"75.86666700","name":"Dshiren-Aygyr"},{"id":"1386777","latitude":"43.66666700","longitude":"80.08333300","name":"Dubun"},{"id":"1386778","latitude":"43.75000000","longitude":"80.20000000","name":"Dubunskaya"},{"id":"1386783","latitude":"43.38333300","longitude":"79.60000000","name":"Dulaty"},{"id":"1386797","latitude":"43.41555600","longitude":"76.89833300","name":"Dvenadtsatogo Dekabr'"},{"id":"1386798","latitude":"43.41555600","longitude":"76.89833300","name":"Dvenadtsatogo Dekabrya"},{"id":"1386804","latitude":"43.41666700","longitude":"79.71666700","name":"Dygermen'"},{"id":"1386806","latitude":"45.38333300","longitude":"79.58333300","name":"Dynchek"},{"id":"1386819","latitude":"43.58333300","longitude":"76.91666700","name":"Dyusen'"},{"id":"1386824","latitude":"45.38333300","longitude":"74.50000000","name":"Dyykan"},{"id":"1386827","latitude":"45.83333300","longitude":"81.11666700","name":"Dzerzhinsk"},{"id":"1386828","latitude":"45.83333300","longitude":"81.11666700","name":"Dzerzhinskiy"},{"id":"1386833","latitude":"43.29750000","longitude":"77.05138900","name":"Dzerzhinskoe"},{"id":"1386834","latitude":"43.29750000","longitude":"77.05138900","name":"Dzerzhinskoye"},{"id":"1386837","latitude":"42.86666700","longitude":"79.91666700","name":"Dzhabyr-Kaynar"},{"id":"1386844","latitude":"44.76666700","longitude":"78.55000000","name":"Dzhakgyz-Agachskiy"},{"id":"1386856","latitude":"43.04305600","longitude":"78.64111100","name":"Dzhalanash"},{"id":"1386883","latitude":"42.68333300","longitude":"80.00000000","name":"Dzhambul"},{"id":"1386907","latitude":"43.44055600","longitude":"77.25833300","name":"Dzhanashar"},{"id":"1386930","latitude":"43.41666700","longitude":"76.90000000","name":"Dzhanek"},{"id":"1386938","latitude":"45.38861100","longitude":"79.50222200","name":"Dzhangusurov"},{"id":"1386941","latitude":"44.76666700","longitude":"78.55000000","name":"Dzhangyz-Agach"},{"id":"1386944","latitude":"45.38861100","longitude":"79.50222200","name":"Dzhansugirov"},{"id":"1386945","latitude":"45.38861100","longitude":"79.50222200","name":"Dzhansugurov"},{"id":"1386958","latitude":"44.16277800","longitude":"80.00000000","name":"Dzharkent"},{"id":"1386963","latitude":"43.37500000","longitude":"76.80277800","name":"Dzharmukhambet"},{"id":"1386964","latitude":"43.37500000","longitude":"76.80277800","name":"Dzhar-Mukhamed"},{"id":"1386976","latitude":"43.36666700","longitude":"76.66666700","name":"Dzhaugash"},{"id":"1386990","latitude":"43.56666700","longitude":"78.20000000","name":"Dzhenishke-Bulak"},{"id":"1387008","latitude":"44.11666700","longitude":"79.96666700","name":"Dzhidelik"},{"id":"1387012","latitude":"44.31666700","longitude":"79.88333300","name":"Dzhil'bastau"},{"id":"1387021","latitude":"43.13333300","longitude":"75.86666700","name":"Dzhiren'-Aygyr"},{"id":"1387046","latitude":"43.70000000","longitude":"78.40000000","name":"Dzhun-Tyube"},{"id":"1387060","latitude":"43.70000000","longitude":"78.40000000","name":"Dzhuvantobe"},{"id":"1387061","latitude":"43.70000000","longitude":"78.40000000","name":"Dzhuvan-Tyube"},{"id":"1387073","latitude":"45.38277800","longitude":"80.13472200","name":"Ekiasha"},{"id":"1387079","latitude":"43.18333300","longitude":"76.90000000","name":"Ekinshi Beszhyldyq"},{"id":"1387083","latitude":"43.62694400","longitude":"77.56305600","name":"Ekpindi"},{"id":"1387086","latitude":"43.57611100","longitude":"77.16777800","name":"Elaman"},{"id":"1387091","latitude":"43.36888900","longitude":"76.70833300","name":"El'tay"},{"id":"1387110","latitude":"43.39972200","longitude":"77.18111100","name":"Enbekshi"},{"id":"1387122","latitude":"43.33333300","longitude":"77.05000000","name":"Energeticheskiy"},{"id":"1387123","latitude":"45.41666700","longitude":"79.98333300","name":"Energiya"},{"id":"1387144","latitude":"43.35500000","longitude":"77.46333300","name":"Esik"},{"id":"1387154","latitude":"43.16166700","longitude":"76.41138900","name":"Fabrichn\u00f6y"},{"id":"1387155","latitude":"43.16166700","longitude":"76.41138900","name":"Fabrichnyy"},{"id":"1387211","latitude":"43.70666700","longitude":"77.27194400","name":"Frunze"},{"id":"1387225","latitude":"43.38083300","longitude":"77.00416700","name":"Gagarina"},{"id":"1387226","latitude":"43.38083300","longitude":"77.00416700","name":"Gagarino"},{"id":"1387251","latitude":"45.01555600","longitude":"78.37388900","name":"Gavrilovka"},{"id":"1387256","latitude":"45.01555600","longitude":"78.37388900","name":"Gavrilovskoye"},{"id":"1387273","latitude":"45.78916700","longitude":"80.86777800","name":"Gerasimovka"},{"id":"1387275","latitude":"45.78916700","longitude":"80.86777800","name":"Gerasimovskoye"},{"id":"1387278","latitude":"43.46666700","longitude":"78.33333300","name":"Gigant"},{"id":"1387288","latitude":"45.80277800","longitude":"81.30444400","name":"Glinovka"},{"id":"1387307","latitude":"45.58333300","longitude":"80.86666700","name":"Golubev Zapor"},{"id":"1387308","latitude":"44.41666700","longitude":"78.55000000","name":"Golubinovka"},{"id":"1387315","latitude":"44.13916700","longitude":"79.81083300","name":"Golubovskoye"},{"id":"1387318","latitude":"43.70000000","longitude":"79.98333300","name":"Gomba"},{"id":"1387346","latitude":"43.34777800","longitude":"77.05250000","name":"Gornyy Gigant"},{"id":"1387348","latitude":"43.34777800","longitude":"77.05250000","name":"Gornyy"},{"id":"1387353","latitude":"43.21416700","longitude":"77.10138900","name":"Gornyy Sadovod"},{"id":"1387366","latitude":"43.86666700","longitude":"77.45000000","name":"Gosbank"},{"id":"1387404","latitude":"44.05000000","longitude":"79.95000000","name":"Grishkanl\u00f6k"},{"id":"1387405","latitude":"44.05000000","longitude":"79.95000000","name":"Grishkanlyk"},{"id":"1387436","latitude":"43.57611100","longitude":"75.21250000","name":"Gvardeyskiy"},{"id":"1387447","latitude":"44.10000000","longitude":"78.05000000","name":"Iglak"},{"id":"1387448","latitude":"44.10000000","longitude":"78.05000000","name":"Iglik"},{"id":"1387463","latitude":"43.87333300","longitude":"77.18444400","name":"Ili"},{"id":"1387464","latitude":"43.88333300","longitude":"77.08333300","name":"Iliisk"},{"id":"1387465","latitude":"43.88333300","longitude":"77.08333300","name":"Ilijek"},{"id":"1387478","latitude":"43.88333300","longitude":"77.08333300","name":"Iliysk"},{"id":"1387479","latitude":"43.52194400","longitude":"76.82972200","name":"Iliyskiy"},{"id":"1387480","latitude":"43.88333300","longitude":"77.08333300","name":"Iliyskoye"},{"id":"1387481","latitude":"45.86666700","longitude":"80.20000000","name":"Iltay"},{"id":"1387490","latitude":"43.15888900","longitude":"79.01055600","name":"Imbek"},{"id":"1387492","latitude":"43.20916700","longitude":"76.76027800","name":"Imeni Abaya"},{"id":"1387500","latitude":"43.10277800","longitude":"76.00583300","name":"Imeni Amangel'dy"},{"id":"1387513","latitude":"43.16666700","longitude":"76.84972200","name":"Imeni Chapayeva"},{"id":"1387536","latitude":"43.29750000","longitude":"77.05138900","name":"Imeni Dzerzhinskogo"},{"id":"1387539","latitude":"42.70000000","longitude":"80.05000000","name":"Imeni Dzhambula"},{"id":"1387552","latitude":"43.61666700","longitude":"77.30000000","name":"Imeni Frunze"},{"id":"1387559","latitude":"43.03333300","longitude":"78.93333300","name":"Imeni Gor'kogo"},{"id":"1387564","latitude":"46.15000000","longitude":"80.70000000","name":"Imeni Il'icha"},{"id":"1387567","latitude":"43.20277800","longitude":"76.16888900","name":"Imeni Kaganovicha"},{"id":"1387572","latitude":"43.31027800","longitude":"77.05666700","name":"Imeni Kalinina"},{"id":"1387582","latitude":"45.86666700","longitude":"74.75000000","name":"Imeni Karla Marksa"},{"id":"1387597","latitude":"44.33583300","longitude":"78.44055600","name":"Imeni Kirova"},{"id":"1387617","latitude":"44.65000000","longitude":"76.55000000","name":"Imeni Kuybysheva"},{"id":"1387623","latitude":"43.08333300","longitude":"79.10000000","name":"Imeni Lenina"},{"id":"1387637","latitude":"43.03333300","longitude":"78.93333300","name":"Imeni Maksima Gor'kogo"},{"id":"1387651","latitude":"44.83333300","longitude":"76.18333300","name":"Imeni Molotova"},{"id":"1387663","latitude":"43.38972200","longitude":"77.12777800","name":"Imeni Panfilova"},{"id":"1387668","latitude":"43.37361100","longitude":"76.94000000","name":"Imeni Pervaya Maya"},{"id":"1387669","latitude":"46.13333300","longitude":"81.20000000","name":"Imeni Pervogo Maya"},{"id":"1387681","latitude":"42.75000000","longitude":"79.71666700","name":"Imeni Stalina"},{"id":"1387695","latitude":"43.48972200","longitude":"77.05222200","name":"Imeni Sverdlova"},{"id":"1387700","latitude":"43.35833300","longitude":"76.27027800","name":"Imeni Tarana"},{"id":"1387701","latitude":"44.85000000","longitude":"78.65000000","name":"Imeni Tel'mana"},{"id":"1387718","latitude":"43.60000000","longitude":"79.35000000","name":"Imeni Tret'yey Pyatiletki"},{"id":"1387727","latitude":"43.16805600","longitude":"76.56000000","name":"Imeni Voroshilova"},{"id":"1387737","latitude":"46.31666700","longitude":"77.33333300","name":"Imeni Vos'mogo Marta"},{"id":"1387740","latitude":"44.51666700","longitude":"78.98333300","name":"Imeni Vtoroy Pyatiletki"},{"id":"1387742","latitude":"43.66666700","longitude":"78.50000000","name":"Imeni Zhdanova"},{"id":"1387751","latitude":"45.41666700","longitude":"79.71666700","name":"Inbek"},{"id":"1387762","latitude":"45.53333300","longitude":"79.96666700","name":"Intaly"},{"id":"1387769","latitude":"43.36638900","longitude":"77.31083300","name":"Intemak"},{"id":"1387782","latitude":"43.41416700","longitude":"76.96972200","name":"Intumak"},{"id":"1387784","latitude":"42.90000000","longitude":"80.43333300","name":"Intymak"},{"id":"1387798","latitude":"45.75000000","longitude":"74.25000000","name":"Ir"},{"id":"1387810","latitude":"43.31666700","longitude":"76.68333300","name":"Iryubay"},{"id":"1387818","latitude":"43.38083300","longitude":"76.75194400","name":"Isayevo"},{"id":"1387851","latitude":"43.35500000","longitude":"77.46333300","name":"Iss\u00f6k"},{"id":"1387853","latitude":"43.35500000","longitude":"77.46333300","name":"Issyk"},{"id":"1387857","latitude":"44.31666700","longitude":"79.00000000","name":"Italy"},{"id":"1387859","latitude":"46.48333300","longitude":"80.83333300","name":"Itmen'"},{"id":"1387893","latitude":"46.00000000","longitude":"81.33333300","name":"Izendy"},{"id":"1387919","latitude":"42.86666700","longitude":"79.91666700","name":"Jab\u00f6r-kaynar"},{"id":"1387920","latitude":"42.86666700","longitude":"79.91666700","name":"Jabyr-Kaynar"},{"id":"1387924","latitude":"43.04305600","longitude":"78.64111100","name":"Jalanash"},{"id":"1387933","latitude":"44.76666700","longitude":"78.55000000","name":"Jangoz-agachskiy"},{"id":"1387934","latitude":"44.76666700","longitude":"78.55000000","name":"Jangyz-agachskiy"},{"id":"1387937","latitude":"44.16277800","longitude":"80.00000000","name":"Jarkent"},{"id":"1387938","latitude":"43.37500000","longitude":"76.80277800","name":"Jar-mukhamed"},{"id":"1387949","latitude":"43.06666700","longitude":"78.76666700","name":"Kabak"},{"id":"1387951","latitude":"45.84138900","longitude":"80.62138900","name":"Kabanbay"},{"id":"1387972","latitude":"43.47333300","longitude":"77.19333300","name":"Kachubek"},{"id":"1387977","latitude":"43.20277800","longitude":"76.16888900","name":"Kaganovicha"},{"id":"1387978","latitude":"43.20277800","longitude":"76.16888900","name":"Kaganovich"},{"id":"1387994","latitude":"44.25000000","longitude":"75.08333300","name":"Kak Bayd\u00f6bek"},{"id":"1387995","latitude":"44.25000000","longitude":"75.08333300","name":"Kak Baydybek"},{"id":"1387997","latitude":"45.68333300","longitude":"80.10000000","name":"Kakozek"},{"id":"1387998","latitude":"42.80000000","longitude":"79.90000000","name":"Kakpak"},{"id":"1388001","latitude":"45.91666700","longitude":"75.66666700","name":"Kak Taylyak-Dyuzgun"},{"id":"1388008","latitude":"43.50500000","longitude":"80.67222200","name":"Kaldjat"},{"id":"1388011","latitude":"43.50500000","longitude":"80.67222200","name":"Kal'dzhat"},{"id":"1388020","latitude":"43.31027800","longitude":"77.05666700","name":"Kalinin"},{"id":"1388023","latitude":"43.31027800","longitude":"77.05666700","name":"Kalinino"},{"id":"1388033","latitude":"44.51000000","longitude":"78.88666700","name":"Kalinovka"},{"id":"1388044","latitude":"43.21583300","longitude":"76.80722200","name":"Kalkaman"},{"id":"1388050","latitude":"44.05000000","longitude":"78.73333300","name":"Kalmakkara"},{"id":"1388054","latitude":"44.05000000","longitude":"78.73333300","name":"Kalmak-Kopa"},{"id":"1388055","latitude":"44.05000000","longitude":"78.73333300","name":"Kalmak-Kora"},{"id":"1388076","latitude":"43.50500000","longitude":"80.67222200","name":"Kal'zhat"},{"id":"1388084","latitude":"43.18472200","longitude":"76.83083300","name":"Kamenka"},{"id":"1388094","latitude":"43.50500000","longitude":"77.13527800","name":"Kamennoye Plato"},{"id":"1388101","latitude":"45.00000000","longitude":"78.51666700","name":"Kamerashchi"},{"id":"1388165","latitude":"44.32916700","longitude":"75.55638900","name":"Kanshengel'"},{"id":"1388180","latitude":"45.13333300","longitude":"79.05000000","name":"Kapal"},{"id":"1388182","latitude":"43.88333300","longitude":"77.08333300","name":"Kapchagai"},{"id":"1388183","latitude":"43.88333300","longitude":"77.08333300","name":"Kapchagay"},{"id":"1388207","latitude":"43.80000000","longitude":"75.60000000","name":"Karabastau"},{"id":"1388217","latitude":"45.36666700","longitude":"74.51666700","name":"Karabek"},{"id":"1388233","latitude":"44.90888900","longitude":"78.49222200","name":"Karabulak"},{"id":"1388243","latitude":"44.90888900","longitude":"78.49222200","name":"Kara-Bulakskiy"},{"id":"1388258","latitude":"46.28333300","longitude":"78.41666700","name":"Karachagan"},{"id":"1388262","latitude":"46.28333300","longitude":"78.41666700","name":"Kara-chegan"},{"id":"1388268","latitude":"44.18333300","longitude":"77.91666700","name":"Kara-Chok"},{"id":"1388276","latitude":"43.66666700","longitude":"78.16666700","name":"Kara-Dzhota"},{"id":"1388277","latitude":"44.06666700","longitude":"78.01666700","name":"Karaespe"},{"id":"1388297","latitude":"44.40000000","longitude":"77.65000000","name":"Karagash"},{"id":"1388308","latitude":"43.16666700","longitude":"76.84972200","name":"Karagayly"},{"id":"1388322","latitude":"45.61666700","longitude":"79.73333300","name":"Karaguzek"},{"id":"1388327","latitude":"44.06666700","longitude":"78.01666700","name":"Kara-Ispe"},{"id":"1388328","latitude":"43.66666700","longitude":"78.16666700","name":"Kara-Jota"},{"id":"1388343","latitude":"43.13222200","longitude":"76.09333300","name":"Karakastek"},{"id":"1388347","latitude":"43.42611100","longitude":"77.62305600","name":"Karakemer"},{"id":"1388352","latitude":"43.42611100","longitude":"77.62305600","name":"Kara-Kemir"},{"id":"1388356","latitude":"43.42611100","longitude":"77.62305600","name":"Kara-Kemm"},{"id":"1388357","latitude":"43.42611100","longitude":"77.62305600","name":"Karakemyr"},{"id":"1388374","latitude":"46.33333300","longitude":"77.71666700","name":"Karakol'"},{"id":"1388396","latitude":"43.13222200","longitude":"76.09333300","name":"Kara-K\u00f6stak"},{"id":"1388432","latitude":"43.13222200","longitude":"76.09333300","name":"Kara-Kystak"},{"id":"1388438","latitude":"43.55000000","longitude":"78.20000000","name":"Karam"},{"id":"1388440","latitude":"45.76666700","longitude":"81.35000000","name":"Karamola"},{"id":"1388445","latitude":"44.30000000","longitude":"79.18333300","name":"Karamolda"},{"id":"1388446","latitude":"44.30000000","longitude":"79.18333300","name":"Karamoldar"},{"id":"1388469","latitude":"43.52194400","longitude":"76.82972200","name":"Karaoy"},{"id":"1388493","latitude":"46.28333300","longitude":"78.41666700","name":"Karashagan"},{"id":"1388503","latitude":"43.73138900","longitude":"77.60777800","name":"Karashengel'"},{"id":"1388510","latitude":"46.28333300","longitude":"78.41666700","name":"Karashigan"},{"id":"1388518","latitude":"44.11000000","longitude":"77.93833300","name":"Karashokinskiy"},{"id":"1388520","latitude":"44.11000000","longitude":"77.93833300","name":"Karashoky"},{"id":"1388531","latitude":"43.19388900","longitude":"76.22722200","name":"Karasu"},{"id":"1388545","latitude":"43.47972200","longitude":"77.03361100","name":"Karasuk"},{"id":"1388553","latitude":"44.86666700","longitude":"78.75000000","name":"Karataldy"},{"id":"1388554","latitude":"44.86666700","longitude":"78.70000000","name":"Karatal"},{"id":"1388562","latitude":"44.86666700","longitude":"78.70000000","name":"Karatal'skiy"},{"id":"1388563","latitude":"44.86666700","longitude":"78.70000000","name":"Karatal'skoye"},{"id":"1388564","latitude":"43.43333300","longitude":"80.63333300","name":"Karatam"},{"id":"1388567","latitude":"46.66666700","longitude":"79.33333300","name":"Karatas"},{"id":"1388590","latitude":"42.70000000","longitude":"80.01666700","name":"Karatogan"},{"id":"1388609","latitude":"43.78333300","longitude":"79.33333300","name":"Kara-Tuma"},{"id":"1388610","latitude":"43.36666700","longitude":"78.01666700","name":"Karaturuk"},{"id":"1388611","latitude":"43.50000000","longitude":"78.01666700","name":"Kara-Turuk"},{"id":"1388612","latitude":"43.36666700","longitude":"78.01666700","name":"Karaturyk"},{"id":"1388613","latitude":"43.55694400","longitude":"77.98527800","name":"Karaturyq"},{"id":"1388621","latitude":"43.52194400","longitude":"76.82972200","name":"Karaul"},{"id":"1388636","latitude":"43.52194400","longitude":"76.82972200","name":"Karauya"},{"id":"1388646","latitude":"44.06666700","longitude":"78.01666700","name":"Karayespe"},{"id":"1388666","latitude":"45.75000000","longitude":"80.25000000","name":"Karazherik"},{"id":"1388669","latitude":"43.66666700","longitude":"78.16666700","name":"Kara-Zhota"},{"id":"1388672","latitude":"45.50000000","longitude":"80.51666700","name":"Karbyshevskiy"},{"id":"1388683","latitude":"45.61666700","longitude":"80.48333300","name":"Kargal\u00f6"},{"id":"1388684","latitude":"45.61666700","longitude":"80.48333300","name":"Kargaly"},{"id":"1388690","latitude":"42.83333300","longitude":"79.23333300","name":"Karkara"},{"id":"1388704","latitude":"44.90888900","longitude":"78.49222200","name":"Karov"},{"id":"1388705","latitude":"43.52194400","longitude":"76.82972200","name":"Karoy"},{"id":"1388725","latitude":"45.61666700","longitude":"80.48333300","name":"Kartaly"},{"id":"1388751","latitude":"43.10000000","longitude":"79.81666700","name":"Kashgar"},{"id":"1388754","latitude":"43.10000000","longitude":"79.81666700","name":"Kashkar"},{"id":"1388755","latitude":"44.33333300","longitude":"80.01666700","name":"Kash"},{"id":"1388769","latitude":"43.20027800","longitude":"76.62222200","name":"Kaskelen"},{"id":"1388770","latitude":"43.45277800","longitude":"76.72277800","name":"Kaskelenskiy"},{"id":"1388771","latitude":"43.06666700","longitude":"78.55000000","name":"Kasles"},{"id":"1388773","latitude":"44.49500000","longitude":"78.27333300","name":"Kaspan"},{"id":"1388775","latitude":"43.10000000","longitude":"75.98333300","name":"Kastek-Burgun'"},{"id":"1388776","latitude":"43.13222200","longitude":"76.09333300","name":"Kastek"},{"id":"1388781","latitude":"43.25111100","longitude":"76.43194400","name":"Kasymbek"},{"id":"1388796","latitude":"43.41666700","longitude":"76.93333300","name":"Kauchuk"},{"id":"1388803","latitude":"43.06666700","longitude":"78.76666700","name":"Kavak"},{"id":"1388806","latitude":"43.71666700","longitude":"80.08333300","name":"Kaychi"},{"id":"1388816","latitude":"42.83333300","longitude":"80.01666700","name":"Kaynar"},{"id":"1388823","latitude":"43.31666700","longitude":"77.35000000","name":"Kaynazarka"},{"id":"1388824","latitude":"43.36638900","longitude":"77.31083300","name":"Kaynazar"},{"id":"1388826","latitude":"43.66666700","longitude":"78.33333300","name":"Kaynuk"},{"id":"1388829","latitude":"45.40000000","longitude":"78.03333300","name":"Kayrakty"},{"id":"1388837","latitude":"43.54527800","longitude":"77.58805600","name":"Kayrat"},{"id":"1388846","latitude":"43.71666700","longitude":"80.08333300","name":"Kayshi"},{"id":"1388853","latitude":"43.51944400","longitude":"77.77500000","name":"Kazakhstan"},{"id":"1388881","latitude":"43.73277800","longitude":"77.14333300","name":"Kazarma"},{"id":"1388883","latitude":"43.58055600","longitude":"77.72750000","name":"Kazatkom"},{"id":"1388900","latitude":"43.83333300","longitude":"77.18333300","name":"Kazpravda"},{"id":"1388903","latitude":"43.37500000","longitude":"76.85555600","name":"Kaztsika"},{"id":"1388904","latitude":"43.37500000","longitude":"76.85555600","name":"Kaz. TsIK"},{"id":"1388921","latitude":"43.01972200","longitude":"79.22027800","name":"Kegen"},{"id":"1388990","latitude":"45.50027800","longitude":"79.75000000","name":"Kengzhyra"},{"id":"1389013","latitude":"45.50027800","longitude":"79.75000000","name":"Kenzhira"},{"id":"1389014","latitude":"45.50027800","longitude":"79.75000000","name":"Kenzhyra"},{"id":"1389016","latitude":"43.93111100","longitude":"77.60194400","name":"Kerbulak"},{"id":"1389017","latitude":"44.90888900","longitude":"78.49222200","name":"Kerbulaq"},{"id":"1389032","latitude":"42.46666700","longitude":"80.13333300","name":"Keskentas"},{"id":"1389036","latitude":"43.45027800","longitude":"80.35000000","name":"Ketmen'"},{"id":"1389037","latitude":"43.45027800","longitude":"80.35000000","name":"Ketpen"},{"id":"1389039","latitude":"44.36666700","longitude":"79.71666700","name":"Keytyn"},{"id":"1389105","latitude":"44.41666700","longitude":"78.51666700","name":"Kholmogorovka"},{"id":"1389107","latitude":"44.35000000","longitude":"80.15000000","name":"Khonokhay"},{"id":"1389108","latitude":"44.22500000","longitude":"80.38027800","name":"Khorgos"},{"id":"1389121","latitude":"44.15000000","longitude":"80.20000000","name":"Khudayar"},{"id":"1389150","latitude":"43.22666700","longitude":"76.67944400","name":"Kibray"},{"id":"1389154","latitude":"43.48444400","longitude":"77.81222200","name":"Kiikbay"},{"id":"1389166","latitude":"43.50500000","longitude":"80.67222200","name":"Kil'zhat"},{"id":"1389196","latitude":"44.90888900","longitude":"78.49222200","name":"Kirov"},{"id":"1389202","latitude":"43.25194400","longitude":"76.35638900","name":"Kirovo"},{"id":"1389211","latitude":"44.89472200","longitude":"78.20833300","name":"Kirovskiy"},{"id":"1389235","latitude":"43.54527800","longitude":"77.04277800","name":"Kishi Qaraoy"},{"id":"1389246","latitude":"44.85000000","longitude":"77.85000000","name":"Kishlak Karadzhirik"},{"id":"1389247","latitude":"44.91666700","longitude":"77.91666700","name":"Kishlak Naurzbekov"},{"id":"1389283","latitude":"45.37250000","longitude":"78.72111100","name":"Kiz\u00f6l-agach"},{"id":"1389284","latitude":"44.41666700","longitude":"78.16666700","name":"Kiz\u00f6l-jar"},{"id":"1389286","latitude":"45.37250000","longitude":"78.72111100","name":"Kizyl-Agach"},{"id":"1389289","latitude":"44.41666700","longitude":"78.16666700","name":"Kizyl-Dzhar"},{"id":"1389293","latitude":"44.41666700","longitude":"78.16666700","name":"Kizyl-jar"},{"id":"1389317","latitude":"44.98333300","longitude":"78.65000000","name":"Klyuchevoye"},{"id":"1389320","latitude":"43.40666700","longitude":"77.14722200","name":"Klyuchi"},{"id":"1389345","latitude":"45.66666700","longitude":"79.58333300","name":"Kodam-Berd\u00f6"},{"id":"1389346","latitude":"45.66666700","longitude":"79.58333300","name":"Kodam-Berdy"},{"id":"1389353","latitude":"45.66666700","longitude":"80.53333300","name":"Kogal\u00f6"},{"id":"1389354","latitude":"45.66666700","longitude":"80.53333300","name":"Kogaly"},{"id":"1389362","latitude":"43.34750000","longitude":"76.76805600","name":"Kogozek"},{"id":"1389368","latitude":"44.61666700","longitude":"78.33333300","name":"Kokbastau"},{"id":"1389386","latitude":"43.45333300","longitude":"76.94500000","name":"Kokkaynar"},{"id":"1389388","latitude":"45.66666700","longitude":"74.31666700","name":"Kokkol'"},{"id":"1389397","latitude":"43.34750000","longitude":"76.76805600","name":"Kokozek"},{"id":"1389400","latitude":"42.80000000","longitude":"79.90000000","name":"Kokpak"},{"id":"1389402","latitude":"43.45388900","longitude":"78.68027800","name":"K\u00f6kpek"},{"id":"1389418","latitude":"44.55000000","longitude":"79.20000000","name":"Kok-Say"},{"id":"1389425","latitude":"44.67194400","longitude":"78.90472200","name":"Koksu"},{"id":"1389428","latitude":"44.67194400","longitude":"78.90472200","name":"Koksuyskaya"},{"id":"1389429","latitude":"43.46277800","longitude":"77.05666700","name":"Koktal"},{"id":"1389435","latitude":"43.13333300","longitude":"79.45000000","name":"Koktas"},{"id":"1389442","latitude":"43.46666700","longitude":"78.41666700","name":"Kok-Terek"},{"id":"1389443","latitude":"46.10000000","longitude":"79.56666700","name":"Kokterek"},{"id":"1389453","latitude":"43.25000000","longitude":"76.97638900","name":"Koktobe"},{"id":"1389460","latitude":"44.13916700","longitude":"79.81083300","name":"Kok-Tul"},{"id":"1389461","latitude":"45.86805600","longitude":"81.64638900","name":"K\u00f6ktuma"},{"id":"1389464","latitude":"45.41666700","longitude":"82.20000000","name":"Kokty"},{"id":"1389471","latitude":"43.34750000","longitude":"76.76805600","name":"Kok-Uzek"},{"id":"1389473","latitude":"45.56666700","longitude":"79.55000000","name":"Kokzhaydak"},{"id":"1389474","latitude":"46.22833300","longitude":"78.81805600","name":"Kokzhide"},{"id":"1389480","latitude":"43.36666700","longitude":"76.60000000","name":"Kol'ashchi"},{"id":"1389482","latitude":"43.03333300","longitude":"78.56666700","name":"Kol'bastau"},{"id":"1389491","latitude":"43.50500000","longitude":"80.67222200","name":"Kol'dzhat"},{"id":"1389495","latitude":"43.50500000","longitude":"80.67222200","name":"Kol'jat"},{"id":"1389500","latitude":"43.16666700","longitude":"76.84972200","name":"Kolkhoz Imeni Chapayeva"},{"id":"1389507","latitude":"43.34055600","longitude":"76.81583300","name":"Kolkhoz Imeni Parizhskoy Kommuny"},{"id":"1389508","latitude":"43.37361100","longitude":"76.94000000","name":"Kolkhoz Imeni Pervaya Maya"},{"id":"1389509","latitude":"43.30416700","longitude":"77.18416700","name":"Kolkhoz Kyzyl-Karat"},{"id":"1389510","latitude":"43.30416700","longitude":"77.18416700","name":"Kolkhoz Kyzyl-Kayrat"},{"id":"1389511","latitude":"43.30416700","longitude":"77.18416700","name":"Kolkhoz Kyzyl-Kayrot"},{"id":"1389512","latitude":"43.16861100","longitude":"76.47305600","name":"Kolkhoz Mayskiy"},{"id":"1389521","latitude":"43.98527800","longitude":"77.45138900","name":"Kolodez Chingil'dy"},{"id":"1389530","latitude":"45.83333300","longitude":"81.11666700","name":"Kolpakovskoye"},{"id":"1389533","latitude":"44.32916700","longitude":"75.55638900","name":"Kol'shengel'"},{"id":"1389535","latitude":"44.32916700","longitude":"75.55638900","name":"Kolshyengyel"},{"id":"1389537","latitude":"45.35000000","longitude":"78.61666700","name":"Kol'taban"},{"id":"1389546","latitude":"43.50500000","longitude":"80.67222200","name":"Kol'zhat"},{"id":"1389561","latitude":"43.06666700","longitude":"79.66666700","name":"Komirshi"},{"id":"1389582","latitude":"43.43000000","longitude":"76.84861100","name":"Komsomol"},{"id":"1389589","latitude":"43.48333300","longitude":"77.20000000","name":"Komsomol'skiy"},{"id":"1389628","latitude":"46.25000000","longitude":"79.58333300","name":"Kondzhiga-Bulak"},{"id":"1389638","latitude":"46.25000000","longitude":"79.58333300","name":"Konjiga-bulak"},{"id":"1389639","latitude":"46.25000000","longitude":"79.58333300","name":"Konjuga-Bulak"},{"id":"1389642","latitude":"44.46666700","longitude":"78.56666700","name":"Konovalovka"},{"id":"1389650","latitude":"45.65333300","longitude":"80.88138900","name":"Konstantinovka"},{"id":"1389666","latitude":"43.03333300","longitude":"78.56666700","name":"Kontora Kazlesa"},{"id":"1389673","latitude":"45.16666700","longitude":"78.66666700","name":"Konur"},{"id":"1389676","latitude":"44.27750000","longitude":"79.29944400","name":"Konur-Ulen"},{"id":"1389677","latitude":"44.27750000","longitude":"79.29944400","name":"Konur-Ulenskaya"},{"id":"1389682","latitude":"45.16666700","longitude":"78.66666700","name":"Konyr"},{"id":"1389686","latitude":"44.27750000","longitude":"79.29944400","name":"Konyrolen"},{"id":"1389702","latitude":"43.51666700","longitude":"75.83333300","name":"Kopa"},{"id":"1389706","latitude":"45.13333300","longitude":"79.05000000","name":"Kopal"},{"id":"1389717","latitude":"46.44944400","longitude":"77.29222200","name":"K\u00f6pbirlik"},{"id":"1389757","latitude":"43.46277800","longitude":"77.05666700","name":"Kormkhoz Ippodroma"},{"id":"1389802","latitude":"43.66666700","longitude":"79.83333300","name":"Kosagash"},{"id":"1389845","latitude":"43.10000000","longitude":"79.81666700","name":"Koshkar"},{"id":"1389852","latitude":"43.23611100","longitude":"76.76083300","name":"Koshmambet"},{"id":"1389855","latitude":"43.10000000","longitude":"79.81666700","name":"Koshnar"},{"id":"1389876","latitude":"44.08333300","longitude":"77.40000000","name":"Koskuduk"},{"id":"1389884","latitude":"43.50000000","longitude":"77.26250000","name":"Kosmos"},{"id":"1389892","latitude":"43.56472200","longitude":"76.91527800","name":"Kosozen"},{"id":"1389894","latitude":"44.49500000","longitude":"78.27333300","name":"Kospan"},{"id":"1389903","latitude":"42.81666700","longitude":"80.20000000","name":"Kostobe"},{"id":"1389932","latitude":"43.21750000","longitude":"76.13833300","name":"Koturgan"},{"id":"1389963","latitude":"43.39444400","longitude":"76.94555600","name":"Koyankoz"},{"id":"1389964","latitude":"43.39444400","longitude":"76.94555600","name":"Koyankuz"},{"id":"1389973","latitude":"44.16666700","longitude":"79.51666700","name":"Koybanskaya"},{"id":"1389975","latitude":"44.16666700","longitude":"79.51666700","name":"Koyb\u00f6k"},{"id":"1389976","latitude":"44.16666700","longitude":"79.51666700","name":"Koybyk"},{"id":"1389977","latitude":"44.16666700","longitude":"79.51666700","name":"Koybyn"},{"id":"1389978","latitude":"44.16666700","longitude":"79.51666700","name":"Koybyy"},{"id":"1389981","latitude":"45.64888900","longitude":"80.23694400","name":"Koylyk"},{"id":"1389985","latitude":"43.54527800","longitude":"77.58805600","name":"Koyrat"},{"id":"1389990","latitude":"43.47333300","longitude":"77.19333300","name":"Koyshibek"},{"id":"1390018","latitude":"43.31500000","longitude":"76.58416700","name":"Kozhay"},{"id":"1390019","latitude":"45.23333300","longitude":"77.91666700","name":"Kozhban"},{"id":"1390067","latitude":"44.41666700","longitude":"78.38333300","name":"Krasnogorovka"},{"id":"1390116","latitude":"43.34777800","longitude":"77.05250000","name":"Krasnoye Pole"},{"id":"1390144","latitude":"46.36666700","longitude":"77.21666700","name":"Krasnyy Oktyabr'"},{"id":"1390159","latitude":"43.18916700","longitude":"76.80111100","name":"Krasnyy Vostok"},{"id":"1390187","latitude":"44.53333300","longitude":"78.71666700","name":"Krivosheyevka"},{"id":"1390198","latitude":"44.51666700","longitude":"78.66666700","name":"Krugloye"},{"id":"1390207","latitude":"43.08333300","longitude":"75.95000000","name":"Krupskoy"},{"id":"1390266","latitude":"44.48166700","longitude":"78.65000000","name":"Kugalo"},{"id":"1390267","latitude":"44.48166700","longitude":"78.65000000","name":"Kugaly"},{"id":"1390270","latitude":"44.48166700","longitude":"78.65000000","name":"Kugolinskaya"},{"id":"1390297","latitude":"45.80000000","longitude":"80.30000000","name":"Kulbay"},{"id":"1390306","latitude":"43.68333300","longitude":"78.23333300","name":"Kulikovka"},{"id":"1390371","latitude":"42.88333300","longitude":"79.25000000","name":"Kumtekey"},{"id":"1390379","latitude":"45.75000000","longitude":"79.63333300","name":"Kumzhargan"},{"id":"1390400","latitude":"43.25000000","longitude":"76.31666700","name":"Kuntek"},{"id":"1390404","latitude":"45.56666700","longitude":"80.10000000","name":"Kunzhaman"},{"id":"1390417","latitude":"43.36416700","longitude":"77.51305600","name":"Kurama"},{"id":"1390419","latitude":"43.17972200","longitude":"76.85527800","name":"Kuramys"},{"id":"1390435","latitude":"43.86666700","longitude":"78.28333300","name":"Kurchilik"},{"id":"1390439","latitude":"43.61361100","longitude":"75.01194400","name":"Kurday"},{"id":"1390455","latitude":"45.33333300","longitude":"74.83333300","name":"Kurli"},{"id":"1390462","latitude":"43.05000000","longitude":"78.33333300","name":"Kurmenty"},{"id":"1390471","latitude":"43.06666700","longitude":"76.91666700","name":"Kurort Alma-Arasan"},{"id":"1390479","latitude":"43.86666700","longitude":"78.28333300","name":"Kurshilik"},{"id":"1390485","latitude":"43.88861100","longitude":"76.33277800","name":"Kurti"},{"id":"1390486","latitude":"44.25000000","longitude":"76.75000000","name":"Kurt\u00f6"},{"id":"1390487","latitude":"44.25000000","longitude":"76.75000000","name":"Kurtu"},{"id":"1390488","latitude":"43.88861100","longitude":"76.33277800","name":"Kurty"},{"id":"1390513","latitude":"43.57944400","longitude":"77.56916700","name":"Kush"},{"id":"1390538","latitude":"43.67805600","longitude":"77.11277800","name":"Kutentay"},{"id":"1390539","latitude":"43.67805600","longitude":"77.11277800","name":"Kutermay"},{"id":"1390562","latitude":"43.39444400","longitude":"76.94555600","name":"Kuyankuz"},{"id":"1390563","latitude":"44.20805600","longitude":"78.17305600","name":"Kuyan-Kuz"},{"id":"1390564","latitude":"44.20805600","longitude":"78.17305600","name":"Kuyankuzskaya"},{"id":"1390574","latitude":"43.72166700","longitude":"77.07638900","name":"Kuygan"},{"id":"1390616","latitude":"43.41666700","longitude":"77.07361100","name":"Kuzyltu"},{"id":"1390624","latitude":"43.58722200","longitude":"77.48916700","name":"Kyrbaltabay"},{"id":"1390626","latitude":"43.17638900","longitude":"76.76333300","name":"Kyrgauyldy"},{"id":"1390641","latitude":"45.75000000","longitude":"80.13333300","name":"Kystak"},{"id":"1390665","latitude":"45.37250000","longitude":"78.72111100","name":"Kyzylagash"},{"id":"1390672","latitude":"45.99055600","longitude":"80.71833300","name":"Kyzylashchy"},{"id":"1390673","latitude":"45.99055600","longitude":"80.71833300","name":"Kyzylashi"},{"id":"1390674","latitude":"45.41666700","longitude":"80.16666700","name":"Kyzylasker"},{"id":"1390701","latitude":"44.10000000","longitude":"79.76666700","name":"Kyzyl Dzhambul"},{"id":"1390702","latitude":"44.41666700","longitude":"78.16666700","name":"Kyzyl-Dzhar"},{"id":"1390709","latitude":"43.75000000","longitude":"78.25000000","name":"Kyzyl-Dzhigda"},{"id":"1390715","latitude":"43.45000000","longitude":"77.70000000","name":"Kyzyl-Enbekshi-Kazakh"},{"id":"1390717","latitude":"43.30416700","longitude":"77.18416700","name":"Kyzyl Gayrat"},{"id":"1390720","latitude":"45.43333300","longitude":"79.61666700","name":"Kyzylkain"},{"id":"1390724","latitude":"43.30416700","longitude":"77.18416700","name":"Kyzyl-Kara"},{"id":"1390793","latitude":"45.68333300","longitude":"79.18333300","name":"Kyzyltan"},{"id":"1390806","latitude":"44.66666700","longitude":"78.05000000","name":"Kyzyltogan"},{"id":"1390807","latitude":"43.31194400","longitude":"77.15833300","name":"Kyzyltu 3"},{"id":"1390808","latitude":"42.98333300","longitude":"79.33333300","name":"Kyzyltu"},{"id":"1390825","latitude":"45.05000000","longitude":"78.75000000","name":"Kyzyl-Tyube"},{"id":"1390833","latitude":"44.25000000","longitude":"79.81666700","name":"Kyzylzhar"},{"id":"1390850","latitude":"43.75000000","longitude":"78.25000000","name":"Kyzylzhide"},{"id":"1390851","latitude":"43.75000000","longitude":"78.25000000","name":"Kyzylzhigda"},{"id":"1390898","latitude":"45.05000000","longitude":"78.75000000","name":"Kzyl-tyube"},{"id":"1390972","latitude":"43.42777800","longitude":"76.73333300","name":"Lenino"},{"id":"1390986","latitude":"45.65000000","longitude":"80.43333300","name":"Leninsk"},{"id":"1391003","latitude":"45.41666700","longitude":"74.21666700","name":"Leninzhol"},{"id":"1391019","latitude":"45.52416700","longitude":"80.60861100","name":"Lepsi"},{"id":"1391020","latitude":"45.52416700","longitude":"80.60861100","name":"Lepsinsk"},{"id":"1391021","latitude":"46.23500000","longitude":"78.94555600","name":"Lepsy"},{"id":"1391027","latitude":"44.31666700","longitude":"79.88333300","name":"Lesnovka"},{"id":"1391028","latitude":"44.31666700","longitude":"79.88333300","name":"Lesnovskoye"},{"id":"1391077","latitude":"43.56666700","longitude":"78.11666700","name":"Lovar"},{"id":"1391087","latitude":"44.53333300","longitude":"78.86666700","name":"Lugovaya"},{"id":"1391091","latitude":"44.53333300","longitude":"78.86666700","name":"Lugovoye"},{"id":"1391147","latitude":"43.34055600","longitude":"76.81583300","name":"Madeniyet"},{"id":"1391164","latitude":"45.75000000","longitude":"79.88333300","name":"Mainkum"},{"id":"1391165","latitude":"45.76666700","longitude":"74.33333300","name":"Maitan"},{"id":"1391248","latitude":"44.96666700","longitude":"78.75000000","name":"Malinovka"},{"id":"1391257","latitude":"43.49388900","longitude":"78.40750000","name":"Mal\u00f6bay"},{"id":"1391258","latitude":"44.93333300","longitude":"78.63333300","name":"Malogorovka"},{"id":"1391274","latitude":"43.51083300","longitude":"77.69694400","name":"Malovodnoe"},{"id":"1391275","latitude":"43.51083300","longitude":"77.69694400","name":"Malovodnoye"},{"id":"1391276","latitude":"43.50000000","longitude":"80.46666700","name":"Mal\u00f6y Achinokho"},{"id":"1391278","latitude":"43.50000000","longitude":"80.46666700","name":"Maloye Ashinakho"},{"id":"1391279","latitude":"43.50000000","longitude":"80.46666700","name":"Maloye Ashinokho"},{"id":"1391281","latitude":"43.50000000","longitude":"80.46666700","name":"Maloye Dekhkan"},{"id":"1391283","latitude":"43.54527800","longitude":"77.04277800","name":"Maloye Karaoy"},{"id":"1391286","latitude":"45.41666700","longitude":"74.16666700","name":"Mal\u00f6y Kuygon"},{"id":"1391287","latitude":"45.76666700","longitude":"80.71666700","name":"Malshat"},{"id":"1391292","latitude":"43.49388900","longitude":"78.40750000","name":"Malybay"},{"id":"1391294","latitude":"45.41666700","longitude":"74.16666700","name":"Maly Kuygan"},{"id":"1391306","latitude":"45.41666700","longitude":"74.16666700","name":"Malyy Kuygan"},{"id":"1391394","latitude":"46.00000000","longitude":"79.93333300","name":"Mar'ya"},{"id":"1391397","latitude":"43.62027800","longitude":"78.30555600","name":"Masakbay"},{"id":"1391398","latitude":"43.62027800","longitude":"78.30555600","name":"Masak"},{"id":"1391400","latitude":"43.62027800","longitude":"78.30555600","name":"Masakpay"},{"id":"1391402","latitude":"43.62027800","longitude":"78.30555600","name":"Masaq"},{"id":"1391422","latitude":"45.89500000","longitude":"78.71805600","name":"Matay"},{"id":"1391424","latitude":"43.56555600","longitude":"75.28166700","name":"Matibulak"},{"id":"1391459","latitude":"46.58333300","longitude":"77.63333300","name":"Maykamys"},{"id":"1391460","latitude":"45.66666700","longitude":"80.65000000","name":"Maykan"},{"id":"1391481","latitude":"45.63916700","longitude":"77.46166700","name":"Maylybay"},{"id":"1391482","latitude":"45.63916700","longitude":"77.46166700","name":"Maylybay Pervyy"},{"id":"1391505","latitude":"46.18333300","longitude":"81.16666700","name":"Mayskoye"},{"id":"1391509","latitude":"45.76666700","longitude":"74.33333300","name":"Maytan"},{"id":"1391563","latitude":"43.06666700","longitude":"78.80000000","name":"Merke"},{"id":"1391574","latitude":"43.45277800","longitude":"76.72277800","name":"Mezhdurechensk"},{"id":"1391575","latitude":"43.45277800","longitude":"76.72277800","name":"Mezhdurechenskoe"},{"id":"1391576","latitude":"43.45277800","longitude":"76.72277800","name":"Mezhdurechenskoye"},{"id":"1391588","latitude":"42.83333300","longitude":"75.70000000","name":"Mikhaylovka"},{"id":"1391689","latitude":"45.45277800","longitude":"78.31472200","name":"Molaly"},{"id":"1391697","latitude":"43.41750000","longitude":"77.09194400","name":"Molochno Tovarnaya Ferma Brigady Nomer Dva Kolkhoza Kyzyltu"},{"id":"1391716","latitude":"46.13333300","longitude":"81.20000000","name":"Molotovo"},{"id":"1391719","latitude":"43.46666700","longitude":"77.45000000","name":"Monan-Bulak"},{"id":"1391730","latitude":"45.16666700","longitude":"78.08333300","name":"Mopr"},{"id":"1391755","latitude":"45.89500000","longitude":"78.71805600","name":"Motay"},{"id":"1391778","latitude":"44.83333300","longitude":"78.16666700","name":"Mukr\u00f6"},{"id":"1391779","latitude":"44.83333300","longitude":"78.16666700","name":"Mukry"},{"id":"1391789","latitude":"45.45277800","longitude":"78.31472200","name":"Mulaly"},{"id":"1391794","latitude":"45.16666700","longitude":"77.83333300","name":"Mul'das"},{"id":"1391796","latitude":"44.30000000","longitude":"80.10000000","name":"Mulla-Dakhty-Ize"},{"id":"1391857","latitude":"43.29305600","longitude":"76.44444400","name":"Mynbayevo"},{"id":"1391884","latitude":"44.26666700","longitude":"80.15000000","name":"Nadek"},{"id":"1391885","latitude":"45.75000000","longitude":"80.75000000","name":"Nadezdinskoye"},{"id":"1391888","latitude":"45.75000000","longitude":"80.75000000","name":"Nadezhdinskoye"},{"id":"1391890","latitude":"45.75000000","longitude":"80.75000000","name":"Nadezhdovka"},{"id":"1391909","latitude":"42.72583300","longitude":"80.17833300","name":"Nar\u00f6n Kol"},{"id":"1391914","latitude":"42.72583300","longitude":"80.17833300","name":"Narynkol"},{"id":"1391917","latitude":"42.72583300","longitude":"80.17833300","name":"Narynskoye"},{"id":"1391927","latitude":"44.91666700","longitude":"77.91666700","name":"Nauruzbek"},{"id":"1391942","latitude":"45.13611100","longitude":"79.00000000","name":"Nechayev Sad"},{"id":"1391976","latitude":"43.67805600","longitude":"77.11277800","name":"Nikolaevka"},{"id":"1391982","latitude":"43.67805600","longitude":"77.11277800","name":"Nikolayevka"},{"id":"1392016","latitude":"43.50000000","longitude":"77.26250000","name":"Nizhnealekseyevka"},{"id":"1392029","latitude":"44.31666700","longitude":"80.16666700","name":"Nizhniy Khonokhay"},{"id":"1392031","latitude":"44.18333300","longitude":"80.18333300","name":"Nizhniy Penzhim"},{"id":"1392033","latitude":"43.53333300","longitude":"77.45000000","name":"Nizhniy Zharylgap"},{"id":"1392034","latitude":"43.53333300","longitude":"77.45000000","name":"Nizhniy Zharyman"},{"id":"1392035","latitude":"43.21583300","longitude":"76.80722200","name":"Nizhnyaya Kamenka"},{"id":"1392056","latitude":"43.50000000","longitude":"77.26250000","name":"Novaya Alekseyevka"},{"id":"1392061","latitude":"45.41666700","longitude":"80.30000000","name":"Novaya Derevnya"},{"id":"1392088","latitude":"42.93333300","longitude":"75.50000000","name":"Novoaleksandrovskoye"},{"id":"1392089","latitude":"43.40277800","longitude":"77.22500000","name":"Novoalekseevka"},{"id":"1392094","latitude":"43.40277800","longitude":"77.22500000","name":"Novoalekseyevka"},{"id":"1392104","latitude":"43.40277800","longitude":"77.22500000","name":"Novo-Alekseyevskoye"},{"id":"1392155","latitude":"44.00000000","longitude":"77.00000000","name":"Novoiliysk"},{"id":"1392230","latitude":"45.45083300","longitude":"79.98916700","name":"Novopokrovka"},{"id":"1392248","latitude":"43.25111100","longitude":"76.43194400","name":"Novorossiyskiy"},{"id":"1392250","latitude":"43.25111100","longitude":"76.43194400","name":"Novorossiysk"},{"id":"1392252","latitude":"43.25111100","longitude":"76.43194400","name":"Novorossiyskoye"},{"id":"1392303","latitude":"44.63333300","longitude":"78.13333300","name":"Novotugan"},{"id":"1392339","latitude":"45.38750000","longitude":"75.25277800","name":"Novyy Koktal"},{"id":"1392341","latitude":"43.40000000","longitude":"77.26750000","name":"Novyy Mir"},{"id":"1392342","latitude":"43.56472200","longitude":"76.91527800","name":"Novyy"},{"id":"1392345","latitude":"45.25000000","longitude":"78.11666700","name":"Novyy Put'"},{"id":"1392379","latitude":"43.71666700","longitude":"77.28333300","name":"Nur-Uzek"},{"id":"1392387","latitude":"44.20000000","longitude":"79.95000000","name":"Nygyrchi"},{"id":"1392388","latitude":"44.20000000","longitude":"79.95000000","name":"Nygyrni"},{"id":"1392398","latitude":"46.19527800","longitude":"81.10277800","name":"Obukhovka"},{"id":"1392401","latitude":"46.19527800","longitude":"81.10277800","name":"Obukhovskoye"},{"id":"1392417","latitude":"42.72583300","longitude":"80.17833300","name":"Okhotnichi"},{"id":"1392418","latitude":"42.72583300","longitude":"80.17833300","name":"Okhotnichiy"},{"id":"1392427","latitude":"43.24361100","longitude":"76.79305600","name":"Oktryabr'"},{"id":"1392428","latitude":"43.10000000","longitude":"78.85000000","name":"Oktyabr'"},{"id":"1392451","latitude":"43.20916700","longitude":"76.76027800","name":"Oktyabr'skoye Desyatoye"},{"id":"1392508","latitude":"43.53333300","longitude":"78.30000000","name":"Onuy"},{"id":"1392509","latitude":"45.58333300","longitude":"79.41666700","name":"Onym"},{"id":"1392512","latitude":"45.40000000","longitude":"74.56666700","name":"Orakbalga"},{"id":"1392548","latitude":"42.76666700","longitude":"80.08333300","name":"Ornek"},{"id":"1392590","latitude":"45.83333300","longitude":"80.70000000","name":"Osinovka"},{"id":"1392592","latitude":"45.83333300","longitude":"80.70000000","name":"Osinovskoye"},{"id":"1392601","latitude":"45.25000000","longitude":"77.98333300","name":"Osoaviakhim"},{"id":"1392613","latitude":"43.32250000","longitude":"75.47083300","name":"Otar"},{"id":"1392615","latitude":"43.32250000","longitude":"75.47083300","name":"Otar Rgayt\u00f6"},{"id":"1392616","latitude":"43.32250000","longitude":"75.47083300","name":"Otar-Rgayty"},{"id":"1392636","latitude":"43.74027800","longitude":"77.21194400","name":"Otdeleniye Nomer Tri Sovkhoza Zhetygenskiy"},{"id":"1392637","latitude":"43.24555600","longitude":"76.82777800","name":"Otdeleniye Pervoye Sovkhoza Aksay"},{"id":"1392638","latitude":"43.56472200","longitude":"76.91527800","name":"Otdeleniye Pervoye Sovkhoza Burundayskiy"},{"id":"1392641","latitude":"43.25472200","longitude":"76.80138900","name":"Otdeleniye Vtoroye Sovkhoza Aksay"},{"id":"1392642","latitude":"43.33333300","longitude":"77.05000000","name":"Otegen Batyr"},{"id":"1392661","latitude":"45.15000000","longitude":"77.93333300","name":"Oyan"},{"id":"1392665","latitude":"43.60000000","longitude":"78.43333300","name":"Oydzhaylyau"},{"id":"1392672","latitude":"43.58333300","longitude":"78.41666700","name":"Oyzhaylau"},{"id":"1392686","latitude":"43.06527800","longitude":"76.98277800","name":"Oz\u00ebrnyy"},{"id":"1392709","latitude":"43.38972200","longitude":"77.12777800","name":"Panfilova"},{"id":"1392711","latitude":"43.38972200","longitude":"77.12777800","name":"Panfilov Atyndaghy"},{"id":"1392714","latitude":"43.38972200","longitude":"77.12777800","name":"Panfilov"},{"id":"1392717","latitude":"43.38972200","longitude":"77.12777800","name":"Panfilovskiy"},{"id":"1392723","latitude":"44.20666700","longitude":"80.21000000","name":"Panzhim"},{"id":"1392767","latitude":"44.20666700","longitude":"80.21000000","name":"Pedzhim"},{"id":"1392769","latitude":"44.20666700","longitude":"80.21000000","name":"Pendzhim"},{"id":"1392770","latitude":"44.20666700","longitude":"80.21000000","name":"Penjim"},{"id":"1392797","latitude":"43.37361100","longitude":"76.94000000","name":"Pervomayka"},{"id":"1392802","latitude":"43.37361100","longitude":"76.94000000","name":"Pervomayskiy"},{"id":"1392808","latitude":"43.16861100","longitude":"76.47305600","name":"Pervomayskoye"},{"id":"1392824","latitude":"45.22166700","longitude":"77.93555600","name":"Pervoya Maya"},{"id":"1392825","latitude":"43.16805600","longitude":"76.56000000","name":"Pervoye Maya"},{"id":"1392860","latitude":"45.63333300","longitude":"80.46666700","name":"Petropavlovka"},{"id":"1392891","latitude":"44.20666700","longitude":"80.21000000","name":"Pidzhim"},{"id":"1392934","latitude":"43.33305600","longitude":"79.48000000","name":"Podgornoe"},{"id":"1392935","latitude":"43.33305600","longitude":"79.48000000","name":"Podgornoye"},{"id":"1392959","latitude":"43.50500000","longitude":"77.13527800","name":"Podsobnoye Khozyaystvo Kamennoye Plato"},{"id":"1392960","latitude":"46.28833300","longitude":"78.31138900","name":"Podsobnoye Khozyaystvo Lepsy"},{"id":"1392982","latitude":"45.38277800","longitude":"80.13472200","name":"Pokatilovka"},{"id":"1392987","latitude":"45.38277800","longitude":"80.13472200","name":"Pokotilovka"},{"id":"1392989","latitude":"43.40972200","longitude":"77.01388900","name":"Pokrovka"},{"id":"1393007","latitude":"43.22666700","longitude":"76.67944400","name":"Politotdel"},{"id":"1393035","latitude":"44.58333300","longitude":"79.08333300","name":"Poputnoye"},{"id":"1393036","latitude":"44.58333300","longitude":"79.08333300","name":"Poputnyy"},{"id":"1393049","latitude":"45.38333300","longitude":"74.20000000","name":"Pos'yet"},{"id":"1393117","latitude":"45.20000000","longitude":"78.01666700","name":"Primorets"},{"id":"1393181","latitude":"45.45000000","longitude":"79.85000000","name":"Proletarskiy"},{"id":"1393196","latitude":"43.16666700","longitude":"76.03944400","name":"Prudki"},{"id":"1393199","latitude":"43.23611100","longitude":"76.76083300","name":"Pryamoye"},{"id":"1393200","latitude":"43.23611100","longitude":"76.76083300","name":"Pryamoy Put'"},{"id":"1393231","latitude":"43.25361100","longitude":"76.77500000","name":"Put' Il'icha"},{"id":"1393260","latitude":"45.84138900","longitude":"80.62138900","name":"Qabanbay"},{"id":"1393266","latitude":"43.50500000","longitude":"80.67222200","name":"Qalzhat"},{"id":"1393270","latitude":"44.32916700","longitude":"75.55638900","name":"Qanshenggel"},{"id":"1393272","latitude":"45.13333300","longitude":"79.05000000","name":"Qapal"},{"id":"1393274","latitude":"43.88333300","longitude":"77.08333300","name":"Qapshaghay"},{"id":"1393278","latitude":"43.80000000","longitude":"75.60000000","name":"Qarabastau"},{"id":"1393281","latitude":"44.90888900","longitude":"78.49222200","name":"Qarabulaq"},{"id":"1393295","latitude":"43.52194400","longitude":"76.82972200","name":"Qaraoy"},{"id":"1393302","latitude":"43.73138900","longitude":"77.60777800","name":"Qarashenggel"},{"id":"1393303","latitude":"44.11000000","longitude":"77.93833300","name":"Qarashoqy"},{"id":"1393304","latitude":"43.19388900","longitude":"76.22722200","name":"Qarasu"},{"id":"1393317","latitude":"43.55694400","longitude":"77.98527800","name":"Qaraturyq"},{"id":"1393330","latitude":"43.20027800","longitude":"76.62222200","name":"Qaskeleng"},{"id":"1393344","latitude":"43.51944400","longitude":"77.77500000","name":"Qazaqstan"},{"id":"1393347","latitude":"43.37500000","longitude":"76.85555600","name":"Qaz. TsIK"},{"id":"1393351","latitude":"44.48166700","longitude":"78.65000000","name":"Qoghaly"},{"id":"1393353","latitude":"44.27750000","longitude":"79.29944400","name":"Qongyr\u00f6leng"},{"id":"1393361","latitude":"44.22500000","longitude":"80.38027800","name":"Qorghas"},{"id":"1393370","latitude":"44.49500000","longitude":"78.27333300","name":"Qospan"},{"id":"1393378","latitude":"44.20805600","longitude":"78.17305600","name":"Qoyank\u00f6z"},{"id":"1393380","latitude":"45.64888900","longitude":"80.23694400","name":"Qoylyq"},{"id":"1393406","latitude":"45.36388900","longitude":"74.14666700","name":"Quyghan"},{"id":"1393411","latitude":"45.37250000","longitude":"78.72111100","name":"Qyzylaghash"},{"id":"1393413","latitude":"45.99055600","longitude":"80.71833300","name":"Qyzylashchy"},{"id":"1393422","latitude":"43.30416700","longitude":"77.18416700","name":"Qyzylqayrat"},{"id":"1393423","latitude":"45.83333300","longitude":"80.25000000","name":"Qyzylqayyng"},{"id":"1393431","latitude":"43.41666700","longitude":"77.07361100","name":"Qyzyltu"},{"id":"1393442","latitude":"43.21527800","longitude":"76.76555600","name":"Raimbek"},{"id":"1393445","latitude":"43.19083300","longitude":"76.86444400","name":"Rakhat"},{"id":"1393483","latitude":"43.34500000","longitude":"77.22944400","name":"Razdol'noye"},{"id":"1393498","latitude":"44.41666700","longitude":"78.50000000","name":"Razvil'noye"},{"id":"1393499","latitude":"43.35333300","longitude":"76.82611100","name":"Raz''yezd 71"},{"id":"1393500","latitude":"43.35333300","longitude":"76.82611100","name":"Raz''yezd Sem'desyat"},{"id":"1393515","latitude":"45.70000000","longitude":"81.88333300","name":"Rgayty"},{"id":"1393519","latitude":"46.46694400","longitude":"81.53805600","name":"Robach'ye"},{"id":"1393546","latitude":"46.10000000","longitude":"79.56666700","name":"Romanovskoye"},{"id":"1393558","latitude":"43.56555600","longitude":"75.28166700","name":"Roslavl'"},{"id":"1393559","latitude":"43.56555600","longitude":"75.28166700","name":"Roslavl'skiy"},{"id":"1393594","latitude":"44.67194400","longitude":"78.90472200","name":"Rudnichnyy"},{"id":"1393614","latitude":"46.46694400","longitude":"81.53805600","name":"Rybach'e"},{"id":"1393616","latitude":"46.46694400","longitude":"81.53805600","name":"Rybach'ye"},{"id":"1393620","latitude":"45.90000000","longitude":"74.25000000","name":"Rybalka Sary-tumsuk"},{"id":"1393621","latitude":"45.66666700","longitude":"74.30000000","name":"Rybalka Semiz-Kul'"},{"id":"1393651","latitude":"45.55000000","longitude":"80.35000000","name":"Sadovoye"},{"id":"1393664","latitude":"44.16666700","longitude":"80.06666700","name":"Sadykyuzy"},{"id":"1393667","latitude":"44.38333300","longitude":"80.06666700","name":"Sadyr"},{"id":"1393669","latitude":"45.38333300","longitude":"79.25000000","name":"Sagabiyen"},{"id":"1393671","latitude":"45.38333300","longitude":"79.25000000","name":"Sagakures"},{"id":"1393672","latitude":"45.38333300","longitude":"79.25000000","name":"Sagakurus"},{"id":"1393675","latitude":"46.70000000","longitude":"80.75000000","name":"Sagat"},{"id":"1393690","latitude":"44.25000000","longitude":"80.08333300","name":"Sakatay"},{"id":"1393694","latitude":"43.36666700","longitude":"79.60000000","name":"Sakezun"},{"id":"1393715","latitude":"43.31666700","longitude":"76.09722200","name":"Saldy-Piket"},{"id":"1393752","latitude":"43.31666700","longitude":"76.09722200","name":"Sams\u00f6-Piket"},{"id":"1393753","latitude":"43.31666700","longitude":"76.09722200","name":"Samsy-Piket"},{"id":"1393754","latitude":"43.31666700","longitude":"76.09722200","name":"Samsy"},{"id":"1393756","latitude":"43.51111100","longitude":"76.89166700","name":"Sand\u00f6kpay"},{"id":"1393757","latitude":"43.51111100","longitude":"76.89166700","name":"Sandykpay"},{"id":"1393774","latitude":"44.25000000","longitude":"80.08333300","name":"Sapotay-Lyk"},{"id":"1393797","latitude":"45.83333300","longitude":"80.25000000","name":"Saratovka"},{"id":"1393800","latitude":"45.83333300","longitude":"80.25000000","name":"Saratovskoye"},{"id":"1393827","latitude":"45.20000000","longitude":"74.18333300","name":"Sargumei"},{"id":"1393828","latitude":"45.20000000","longitude":"74.18333300","name":"Sargumey"},{"id":"1393833","latitude":"45.41000000","longitude":"79.91861100","name":"Sarkand"},{"id":"1393834","latitude":"45.41000000","longitude":"79.91861100","name":"Sarkanskaya"},{"id":"1393848","latitude":"43.28333300","longitude":"79.38333300","name":"Sar\u00f6-bulak"},{"id":"1393850","latitude":"44.35833300","longitude":"77.97527800","name":"Saro-Ozak"},{"id":"1393851","latitude":"45.90000000","longitude":"74.25000000","name":"Sar\u00f6-tumsuk"},{"id":"1393852","latitude":"44.63333300","longitude":"78.36666700","name":"Saroy"},{"id":"1393854","latitude":"45.41000000","longitude":"79.91861100","name":"Sarqan"},{"id":"1393855","latitude":"45.41000000","longitude":"79.91861100","name":"Sarqant"},{"id":"1393859","latitude":"43.56666700","longitude":"77.36666700","name":"Sarsembe"},{"id":"1393866","latitude":"42.76666700","longitude":"79.21666700","name":"Sartasu"},{"id":"1393879","latitude":"45.90000000","longitude":"74.25000000","name":"Sartumsyk"},{"id":"1393899","latitude":"42.98055600","longitude":"80.27416700","name":"Sarybastau"},{"id":"1393903","latitude":"44.42333300","longitude":"80.05972200","name":"Sarybel"},{"id":"1393907","latitude":"43.23333300","longitude":"78.28333300","name":"Sary-Bulak"},{"id":"1393908","latitude":"43.70000000","longitude":"79.96666700","name":"Sarybulak"},{"id":"1393916","latitude":"44.40000000","longitude":"77.65000000","name":"Sarybulakskiy"},{"id":"1393919","latitude":"42.91527800","longitude":"79.60888900","name":"Sary-Dzhas"},{"id":"1393920","latitude":"42.91527800","longitude":"79.60888900","name":"Sarydzhaz"},{"id":"1393927","latitude":"46.56666700","longitude":"76.95000000","name":"Sarykamys"},{"id":"1393940","latitude":"45.20000000","longitude":"74.18333300","name":"Sarykomey"},{"id":"1393955","latitude":"44.35833300","longitude":"77.97527800","name":"Sary\u00f6zek"},{"id":"1394000","latitude":"45.90000000","longitude":"74.25000000","name":"Sary-Tumsuk"},{"id":"1394005","latitude":"44.35833300","longitude":"77.97527800","name":"Sary-Uzek"},{"id":"1394006","latitude":"44.35833300","longitude":"77.97527800","name":"Sary-Uzekskiy"},{"id":"1394012","latitude":"42.91527800","longitude":"79.60888900","name":"Saryzhas"},{"id":"1394014","latitude":"42.91527800","longitude":"79.60888900","name":"Saryzhaz"},{"id":"1394026","latitude":"43.19388900","longitude":"76.22722200","name":"Sasykbayevskiy"},{"id":"1394039","latitude":"43.07027800","longitude":"78.40944400","name":"Sat\u00f6"},{"id":"1394045","latitude":"43.07027800","longitude":"78.40944400","name":"Saty"},{"id":"1394071","latitude":"46.58333300","longitude":"77.58333300","name":"Sayakskaya Pristan'"},{"id":"1394081","latitude":"44.38333300","longitude":"80.08333300","name":"Saymale"},{"id":"1394161","latitude":"45.66666700","longitude":"74.30000000","name":"Semiz-Kul'"},{"id":"1394186","latitude":"43.11666700","longitude":"75.66666700","name":"Sergeyevka"},{"id":"1394282","latitude":"44.25000000","longitude":"78.25000000","name":"Shakkanay"},{"id":"1394311","latitude":"43.10000000","longitude":"79.95000000","name":"Shalkudysu"},{"id":"1394325","latitude":"43.18972200","longitude":"76.52916700","name":"Shamalgan"},{"id":"1394327","latitude":"43.53333300","longitude":"78.38333300","name":"Shamaudin"},{"id":"1394330","latitude":"43.53333300","longitude":"78.38333300","name":"Shamshudin"},{"id":"1394366","latitude":"45.36666700","longitude":"74.51666700","name":"Sharua"},{"id":"1394369","latitude":"43.77666700","longitude":"79.38916700","name":"Sharyn"},{"id":"1394372","latitude":"43.28333300","longitude":"79.31666700","name":"Shashanay"},{"id":"1394379","latitude":"45.51166700","longitude":"80.33555600","name":"Shatyrbay"},{"id":"1394427","latitude":"43.59722200","longitude":"78.25111100","name":"Shelek"},{"id":"1394439","latitude":"43.98527800","longitude":"77.45138900","name":"Shengel'dy"},{"id":"1394441","latitude":"43.98527800","longitude":"77.45138900","name":"Shenggeldi"},{"id":"1394454","latitude":"43.77666700","longitude":"79.38916700","name":"Sherin"},{"id":"1394500","latitude":"43.73333300","longitude":"76.11666700","name":"Shilibastau"},{"id":"1394502","latitude":"43.51111100","longitude":"76.89166700","name":"Shilikemer"},{"id":"1394503","latitude":"43.51111100","longitude":"76.89166700","name":"Shilikkemer"},{"id":"1394534","latitude":"45.66666700","longitude":"80.81666700","name":"Shinzhaly"},{"id":"1394551","latitude":"43.15000000","longitude":"79.86666700","name":"Shiybut"},{"id":"1394556","latitude":"43.16666700","longitude":"75.91666700","name":"Shiyen"},{"id":"1394603","latitude":"44.08333300","longitude":"79.96666700","name":"Sholakay"},{"id":"1394611","latitude":"45.60000000","longitude":"79.51666700","name":"Sholakozek"},{"id":"1394617","latitude":"43.13333300","longitude":"79.93333300","name":"Sholak"},{"id":"1394632","latitude":"43.54166700","longitude":"79.47027800","name":"Shonzhy"},{"id":"1394656","latitude":"43.28333300","longitude":"79.31666700","name":"Shoshanay"},{"id":"1394678","latitude":"44.55000000","longitude":"78.96666700","name":"Shubar"},{"id":"1394685","latitude":"43.20888900","longitude":"76.80083300","name":"Shugyla"},{"id":"1394716","latitude":"43.46666700","longitude":"80.16666700","name":"Shunkar"},{"id":"1394717","latitude":"43.46666700","longitude":"80.16666700","name":"Shunkor"},{"id":"1394753","latitude":"43.21527800","longitude":"76.76555600","name":"Sibek"},{"id":"1394790","latitude":"43.79500000","longitude":"77.68333300","name":"Skotovod"},{"id":"1394840","latitude":"45.41666700","longitude":"79.23333300","name":"Sogabiyen'"},{"id":"1394841","latitude":"45.38333300","longitude":"79.25000000","name":"Sogakurus"},{"id":"1394848","latitude":"45.60000000","longitude":"80.46666700","name":"Sokolovka"},{"id":"1394880","latitude":"42.91666700","longitude":"79.23333300","name":"Sol'prom"},{"id":"1394914","latitude":"45.90000000","longitude":"74.25000000","name":"Sortums"},{"id":"1394924","latitude":"46.10000000","longitude":"81.26666700","name":"Sotsialdy"},{"id":"1394946","latitude":"43.17638900","longitude":"76.76333300","name":"Sovkhoz Aksay"},{"id":"1394954","latitude":"43.21416700","longitude":"77.10138900","name":"Sovkhoz Gornyy Sadovod"},{"id":"1394955","latitude":"43.52194400","longitude":"76.82972200","name":"Sovkhoz Iliyskiy"},{"id":"1394970","latitude":"43.51944400","longitude":"77.77500000","name":"Sovkhoz Kazakhstan"},{"id":"1395005","latitude":"43.34000000","longitude":"76.88527800","name":"Spetsgorodok"},{"id":"1395020","latitude":"44.96666700","longitude":"78.25000000","name":"Stalino"},{"id":"1395027","latitude":"43.68333300","longitude":"78.53333300","name":"Stanovishche Sary-Bulak"},{"id":"1395028","latitude":"43.33333300","longitude":"75.83333300","name":"Stanovishche Targap"},{"id":"1395074","latitude":"43.32250000","longitude":"75.47083300","name":"Staryy Otar"},{"id":"1395145","latitude":"43.43333300","longitude":"78.21666700","name":"Sugur"},{"id":"1395182","latitude":"42.93222200","longitude":"80.48611100","name":"S\u00fcmbe"},{"id":"1395189","latitude":"44.25000000","longitude":"80.08333300","name":"Suptay"},{"id":"1395204","latitude":"43.18333300","longitude":"78.53333300","name":"Suuk-Togay"},{"id":"1395205","latitude":"43.18333300","longitude":"78.53333300","name":"Suuk-Totay"},{"id":"1395217","latitude":"45.25277800","longitude":"79.41388900","name":"Suyksay"},{"id":"1395266","latitude":"42.93333300","longitude":"75.48333300","name":"Syugandy"},{"id":"1395318","latitude":"46.25000000","longitude":"80.90000000","name":"Talapker"},{"id":"1395324","latitude":"43.10277800","longitude":"76.00583300","name":"Talap"},{"id":"1395343","latitude":"45.01555600","longitude":"78.37388900","name":"Taldi Kurgan"},{"id":"1395348","latitude":"43.31194400","longitude":"77.15833300","name":"Taldybulak"},{"id":"1395358","latitude":"45.01555600","longitude":"78.37388900","name":"Taldykorgan"},{"id":"1395366","latitude":"45.00000000","longitude":"77.91666700","name":"Taldy-Kurgan Stantsiya"},{"id":"1395367","latitude":"45.01555600","longitude":"78.37388900","name":"Taldy-Kurgan"},{"id":"1395368","latitude":"45.00000000","longitude":"77.91666700","name":"Taldykurgan"},{"id":"1395369","latitude":"45.01555600","longitude":"78.37388900","name":"Taldyqorghan"},{"id":"1395381","latitude":"44.40000000","longitude":"79.83333300","name":"Taldy"},{"id":"1395387","latitude":"43.30444400","longitude":"77.23277800","name":"Talgar"},{"id":"1395390","latitude":"43.30444400","longitude":"77.23277800","name":"Talghar"},{"id":"1395411","latitude":"45.01555600","longitude":"78.37388900","name":"Talt\u00f6-Kurgan"},{"id":"1395430","latitude":"43.31666700","longitude":"79.18333300","name":"Tamerlik"},{"id":"1395469","latitude":"43.35833300","longitude":"76.27027800","name":"Taran"},{"id":"1395472","latitude":"45.40000000","longitude":"79.80000000","name":"Taras"},{"id":"1395477","latitude":"43.33333300","longitude":"75.83333300","name":"Targan"},{"id":"1395479","latitude":"43.33333300","longitude":"75.83333300","name":"Targap"},{"id":"1395499","latitude":"45.50000000","longitude":"80.13333300","name":"Tasaryk"},{"id":"1395510","latitude":"43.76666700","longitude":"79.43333300","name":"Tash-Kara-Su"},{"id":"1395511","latitude":"43.47527800","longitude":"77.40027800","name":"Tashkenbaysay"},{"id":"1395512","latitude":"43.47527800","longitude":"77.40027800","name":"Tashkenbay-Saz"},{"id":"1395513","latitude":"43.47527800","longitude":"77.40027800","name":"Tashkensaz"},{"id":"1395516","latitude":"43.47194400","longitude":"77.35222200","name":"Tashty-Kara"},{"id":"1395517","latitude":"43.47194400","longitude":"77.35222200","name":"Tashty-Kard"},{"id":"1395520","latitude":"43.76666700","longitude":"79.43333300","name":"Taskarasu"},{"id":"1395529","latitude":"45.70000000","longitude":"80.15000000","name":"Tas-Kuduk"},{"id":"1395562","latitude":"45.11666700","longitude":"78.75000000","name":"Tast\u00f6-bulak"},{"id":"1395564","latitude":"45.78333300","longitude":"80.50000000","name":"Tastuma"},{"id":"1395566","latitude":"43.17972200","longitude":"76.80777800","name":"Tastybulak"},{"id":"1395568","latitude":"43.47194400","longitude":"77.35222200","name":"Tastykara"},{"id":"1395570","latitude":"44.40000000","longitude":"78.61666700","name":"Tastyozek"},{"id":"1395609","latitude":"43.43333300","longitude":"78.21666700","name":"Tausugur"},{"id":"1395611","latitude":"43.35138900","longitude":"77.61611100","name":"Tauturgen"},{"id":"1395612","latitude":"43.35138900","longitude":"77.61611100","name":"Tauturgyn"},{"id":"1395655","latitude":"43.45000000","longitude":"75.78333300","name":"Tebet"},{"id":"1395656","latitude":"43.41666700","longitude":"79.71666700","name":"Tegermen'"},{"id":"1395661","latitude":"42.80000000","longitude":"79.96666700","name":"Tegistyk"},{"id":"1395669","latitude":"45.93333300","longitude":"80.76666700","name":"Tekebulak"},{"id":"1395671","latitude":"44.83000000","longitude":"78.82388900","name":"Tekeli"},{"id":"1395673","latitude":"44.83000000","longitude":"78.82388900","name":"Tekely"},{"id":"1395674","latitude":"42.82805600","longitude":"80.04944400","name":"Tekes"},{"id":"1395690","latitude":"43.26666700","longitude":"79.20000000","name":"Temerlinskaya"},{"id":"1395697","latitude":"43.31666700","longitude":"79.18333300","name":"Temirlik"},{"id":"1395710","latitude":"46.01666700","longitude":"80.68333300","name":"Tendyk"},{"id":"1395743","latitude":"43.43333300","longitude":"78.08333300","name":"Terekt\u00f6"},{"id":"1395745","latitude":"43.43333300","longitude":"78.08333300","name":"Terekty"},{"id":"1395780","latitude":"43.56666700","longitude":"78.45000000","name":"Termete"},{"id":"1395796","latitude":"45.71666700","longitude":"79.25000000","name":"Tesiktogan"},{"id":"1395797","latitude":"43.54944400","longitude":"77.86750000","name":"Teskensu"},{"id":"1395838","latitude":"44.16666700","longitude":"80.05000000","name":"Tishkan"},{"id":"1395841","latitude":"43.10277800","longitude":"76.00583300","name":"Tiyes"},{"id":"1395849","latitude":"45.25000000","longitude":"78.08333300","name":"Tles"},{"id":"1395870","latitude":"43.01666700","longitude":"78.71666700","name":"Togubulak"},{"id":"1395877","latitude":"43.01666700","longitude":"78.71666700","name":"Toguzbulak"},{"id":"1395898","latitude":"45.41666700","longitude":"82.20000000","name":"Tokty"},{"id":"1395909","latitude":"43.62972200","longitude":"77.89444400","name":"Tolkyn"},{"id":"1395926","latitude":"43.47777800","longitude":"77.13944400","name":"Tonkeris"},{"id":"1395930","latitude":"43.47777800","longitude":"77.13944400","name":"Tonkerys"},{"id":"1395936","latitude":"43.74027800","longitude":"77.21194400","name":"Topay"},{"id":"1395938","latitude":"45.40000000","longitude":"80.33333300","name":"Topol\u00ebvka"},{"id":"1395941","latitude":"45.40000000","longitude":"80.33333300","name":"Topolevskoye"},{"id":"1395946","latitude":"45.40000000","longitude":"80.33333300","name":"Topol'naya"},{"id":"1395947","latitude":"45.40000000","longitude":"80.33333300","name":"Topolni"},{"id":"1395948","latitude":"45.40000000","longitude":"80.33333300","name":"Topoln\u00f6y"},{"id":"1395949","latitude":"45.40000000","longitude":"80.33333300","name":"Topol'ny"},{"id":"1395950","latitude":"45.40000000","longitude":"80.33333300","name":"Topol'nyy"},{"id":"1395989","latitude":"43.05000000","longitude":"75.98333300","name":"Toymas-Togan"},{"id":"1396004","latitude":"45.26666700","longitude":"78.08333300","name":"Tretiy Internatsional"},{"id":"1396024","latitude":"43.25000000","longitude":"76.76666700","name":"Troitskoye"},{"id":"1396035","latitude":"44.95000000","longitude":"78.61666700","name":"Troytskoye"},{"id":"1396055","latitude":"44.63333300","longitude":"78.75000000","name":"Tsaritsinskaya"},{"id":"1396057","latitude":"44.63333300","longitude":"78.75000000","name":"Tsaritsinskoye"},{"id":"1396058","latitude":"44.63333300","longitude":"78.75000000","name":"Tsaritsynskaya"},{"id":"1396059","latitude":"44.63333300","longitude":"78.75000000","name":"Tsaritsynskoye"},{"id":"1396078","latitude":"43.37500000","longitude":"76.85555600","name":"Tsentral'nyy Ispolnitel'nyy Komitet Kazakhskoy Sovetskoy Sotsialisticheskoy Respubliky"},{"id":"1396095","latitude":"43.20277800","longitude":"76.16888900","name":"Tugurek-Kurchun"},{"id":"1396133","latitude":"43.47777800","longitude":"77.13944400","name":"Tunkurus"},{"id":"1396134","latitude":"45.66666700","longitude":"80.65000000","name":"Tunkuruz"},{"id":"1396141","latitude":"43.31500000","longitude":"76.58416700","name":"Turar"},{"id":"1396153","latitude":"43.58333300","longitude":"78.06666700","name":"Turgay"},{"id":"1396160","latitude":"43.40055600","longitude":"77.59333300","name":"Turgen'"},{"id":"1396161","latitude":"43.40055600","longitude":"77.59333300","name":"T\u00fcrgen"},{"id":"1396197","latitude":"45.88333300","longitude":"79.96666700","name":"Tusunuk"},{"id":"1396207","latitude":"43.10611100","longitude":"79.40416700","name":"Tuyuk"},{"id":"1396209","latitude":"43.10611100","longitude":"79.40416700","name":"Tuyyq"},{"id":"1396217","latitude":"43.35611100","longitude":"77.12722200","name":"Tuzusay"},{"id":"1396280","latitude":"46.16972200","longitude":"80.93944400","name":"Ucharal"},{"id":"1396282","latitude":"43.27750000","longitude":"77.19027800","name":"Uchastkovoyye Khozyaystvo Sel'skokhozyaystvennyy Institut"},{"id":"1396283","latitude":"43.27750000","longitude":"77.19027800","name":"Uchastkovoyye Khozyaystvo SKhI"},{"id":"1396285","latitude":"43.45333300","longitude":"76.94500000","name":"Uchastok Nomer Dva Kokkaynar"},{"id":"1396296","latitude":"43.43333300","longitude":"79.80000000","name":"Uduty"},{"id":"1396341","latitude":"42.86666700","longitude":"80.35000000","name":"Ul'gili"},{"id":"1396345","latitude":"46.28833300","longitude":"78.31138900","name":"Ulgi"},{"id":"1396346","latitude":"46.28833300","longitude":"78.31138900","name":"Ulg\u00f6"},{"id":"1396349","latitude":"43.42805600","longitude":"76.10277800","name":"Ul'guli"},{"id":"1396354","latitude":"43.42805600","longitude":"76.10277800","name":"Ul'guly"},{"id":"1396355","latitude":"46.28833300","longitude":"78.31138900","name":"Ul'gy"},{"id":"1396357","latitude":"43.36666700","longitude":"79.58333300","name":"Ul'ken-Aksu"},{"id":"1396358","latitude":"43.36722200","longitude":"79.60972200","name":"Ulken Aqsu"},{"id":"1396372","latitude":"45.21194400","longitude":"73.97861100","name":"\u00dclken"},{"id":"1396376","latitude":"43.36666700","longitude":"79.58333300","name":"Ul'kun-Ak-Su"},{"id":"1396412","latitude":"43.27444400","longitude":"76.02472200","name":"Ungurtas"},{"id":"1396440","latitude":"44.36666700","longitude":"78.41666700","name":"Uritskoye"},{"id":"1396506","latitude":"44.23333300","longitude":"76.85000000","name":"Usharal"},{"id":"1396514","latitude":"45.80277800","longitude":"81.30444400","name":"Ushbulak"},{"id":"1396516","latitude":"45.80277800","longitude":"81.30444400","name":"\u00dcshbulaq"},{"id":"1396550","latitude":"45.24222200","longitude":"77.98222200","name":"\u00dcsht\u00f6be"},{"id":"1396556","latitude":"45.24222200","longitude":"77.98222200","name":"Ush-Tyube"},{"id":"1396563","latitude":"45.78333300","longitude":"80.96666700","name":"Uspenovka"},{"id":"1396593","latitude":"43.23333300","longitude":"78.28333300","name":"Usumlik"},{"id":"1396609","latitude":"44.50000000","longitude":"78.50000000","name":"Uvarovka"},{"id":"1396613","latitude":"46.43333300","longitude":"81.36666700","name":"Uyal\u00f6"},{"id":"1396614","latitude":"46.43333300","longitude":"81.36666700","name":"Uyaly"},{"id":"1396621","latitude":"43.53333300","longitude":"78.26666700","name":"Uygur"},{"id":"1396633","latitude":"45.33333300","longitude":"74.18333300","name":"Uzekh"},{"id":"1396638","latitude":"43.21527800","longitude":"76.76555600","name":"Uzibek"},{"id":"1396642","latitude":"43.22166700","longitude":"76.30861100","name":"Uzunagach"},{"id":"1396646","latitude":"43.15888900","longitude":"79.01055600","name":"Uzunbulak"},{"id":"1396657","latitude":"43.63333300","longitude":"79.70000000","name":"Uzuntam"},{"id":"1396661","latitude":"43.22166700","longitude":"76.30861100","name":"Uzynaghash"},{"id":"1396667","latitude":"43.15888900","longitude":"79.01055600","name":"Uzynbulak"},{"id":"1396671","latitude":"43.15888900","longitude":"79.01055600","name":"Uzynbulaq"},{"id":"1396747","latitude":"43.46666700","longitude":"77.45000000","name":"Verkhniy Nariman"},{"id":"1396748","latitude":"44.20666700","longitude":"80.21000000","name":"Verkhniy Penzhim"},{"id":"1396752","latitude":"43.46666700","longitude":"77.45000000","name":"Verkhniy Zharylgap"},{"id":"1396769","latitude":"43.31444400","longitude":"77.09583300","name":"Ves\u00ebloye"},{"id":"1396777","latitude":"43.31444400","longitude":"77.09583300","name":"Ves\u00eblyy"},{"id":"1396780","latitude":"45.51166700","longitude":"80.33555600","name":"Vesyoloye"},{"id":"1396842","latitude":"46.33333300","longitude":"78.28333300","name":"Volna"},