[{"id":"1398394","latitude":"19.60194400","longitude":"102.97777800","name":"Ban An"},{"id":"1398398","latitude":"19.44611100","longitude":"103.11527800","name":"Ban Ang"},{"id":"1398410","latitude":"19.44611100","longitude":"103.11527800","name":"Ban Aog"},{"id":"1398440","latitude":"19.85222200","longitude":"103.22666700","name":"Ban Aykham"},{"id":"1398460","latitude":"19.58333300","longitude":"103.13333300","name":"Ban Ba Kham"},{"id":"1398476","latitude":"19.43333300","longitude":"103.03333300","name":"Ban Ban"},{"id":"1398517","latitude":"19.50166700","longitude":"103.22000000","name":"Ban Bi"},{"id":"1398526","latitude":"19.71666700","longitude":"103.58333300","name":"Ban B\u00f4 B\u00f4"},{"id":"1398544","latitude":"19.72861100","longitude":"103.83861100","name":"Ban Bokxang"},{"id":"1398569","latitude":"19.48333300","longitude":"103.15000000","name":"Ban Bon"},{"id":"1398586","latitude":"19.48333300","longitude":"103.15000000","name":"Ban Bonne"},{"id":"1398603","latitude":"19.33333300","longitude":"103.21666700","name":"Ban Boua"},{"id":"1398607","latitude":"19.74638900","longitude":"103.24611100","name":"Ban Bouak"},{"id":"1398609","latitude":"19.71666700","longitude":"103.58333300","name":"Ban Bouakb\u00f4"},{"id":"1398615","latitude":"19.31666700","longitude":"103.73333300","name":"Ban Bouak Seua"},{"id":"1398616","latitude":"19.31666700","longitude":"103.73333300","name":"Ban Bouak Sua"},{"id":"1398620","latitude":"19.36666700","longitude":"103.16666700","name":"Ban Bouam"},{"id":"1398623","latitude":"19.46416700","longitude":"103.70916700","name":"Ban Bouamdao"},{"id":"1398624","latitude":"19.46416700","longitude":"103.70916700","name":"Ban Bouam Dao Noi"},{"id":"1398625","latitude":"19.46666700","longitude":"103.71666700","name":"Ban Bouamdao Noy"},{"id":"1398648","latitude":"19.42138900","longitude":"102.91472200","name":"Ban Bouampiat"},{"id":"1398655","latitude":"19.33416700","longitude":"103.25000000","name":"Ban Boua-Nua"},{"id":"1398657","latitude":"19.33805600","longitude":"103.21500000","name":"Ban Boua-Tai"},{"id":"1398660","latitude":"19.61666700","longitude":"102.86666700","name":"Ban Bou"},{"id":"1398675","latitude":"19.60000000","longitude":"103.11666700","name":"Ban Boung"},{"id":"1398717","latitude":"19.61638900","longitude":"103.63583300","name":"Ban Bua"},{"id":"1398756","latitude":"19.36666700","longitude":"103.16666700","name":"Ban Buom"},{"id":"1398764","latitude":"19.48027800","longitude":"103.05694400","name":"Ban Cha"},{"id":"1398775","latitude":"19.28333300","longitude":"103.13333300","name":"Ban Chaho"},{"id":"1398836","latitude":"19.44361100","longitude":"103.86166700","name":"Ban Chamun"},{"id":"1398846","latitude":"19.33333300","longitude":"103.30000000","name":"Ban Changcha"},{"id":"1398871","latitude":"19.16666700","longitude":"104.00000000","name":"Ban Chao"},{"id":"1398874","latitude":"19.55000000","longitude":"102.73333300","name":"Ban Chaokhang"},{"id":"1398918","latitude":"19.95000000","longitude":"103.88333300","name":"Ban Chiampang"},{"id":"1398934","latitude":"19.95000000","longitude":"103.88333300","name":"Ban Chiem Pang"},{"id":"1398945","latitude":"19.68333300","longitude":"103.50000000","name":"Ban Cho"},{"id":"1398946","latitude":"19.20000000","longitude":"103.63333300","name":"Ban Cho Bao"},{"id":"1398953","latitude":"19.45000000","longitude":"103.25000000","name":"Ban Chom"},{"id":"1398983","latitude":"19.91666700","longitude":"103.80000000","name":"Ban Chomph\u00e9t"},{"id":"1398990","latitude":"19.53388900","longitude":"102.84722200","name":"Ban Chomsi"},{"id":"1398991","latitude":"19.63388900","longitude":"103.56083300","name":"Ban Chomthong"},{"id":"1398999","latitude":"19.58444400","longitude":"103.62972200","name":"Ban Chong"},{"id":"1399002","latitude":"19.40000000","longitude":"103.55000000","name":"Ban Ch\u00f4ngkon"},{"id":"1399015","latitude":"19.45000000","longitude":"103.25000000","name":"Ban Choum"},{"id":"1399028","latitude":"19.65000000","longitude":"103.20000000","name":"Ban Ch\u00f4y"},{"id":"1399032","latitude":"19.65000000","longitude":"103.20000000","name":"Ban Chuoi"},{"id":"1399035","latitude":"19.60000000","longitude":"103.83333300","name":"Ban Chuong La"},{"id":"1399057","latitude":"19.79833300","longitude":"103.89222200","name":"Ban Conn"},{"id":"1399156","latitude":"19.36666700","longitude":"103.06666700","name":"Ban Dan"},{"id":"1399164","latitude":"19.36666700","longitude":"103.06666700","name":"Ban Dang"},{"id":"1399201","latitude":"19.63722200","longitude":"103.47722200","name":"Ban D\u00eandin"},{"id":"1399204","latitude":"19.21666700","longitude":"103.85000000","name":"Ban D\u00e8nmuang"},{"id":"1399205","latitude":"19.21666700","longitude":"103.85000000","name":"Ban Den Muong"},{"id":"1399206","latitude":"19.82111100","longitude":"103.00000000","name":"Ban D\u00e8nsavan"},{"id":"1399208","latitude":"19.86666700","longitude":"103.91666700","name":"Ban Deoa"},{"id":"1399219","latitude":"15.46666700","longitude":"105.76666700","name":"Ban D'Hon"},{"id":"1399222","latitude":"18.91666700","longitude":"103.13333300","name":"Ban Diaye"},{"id":"1399229","latitude":"19.48333300","longitude":"104.06666700","name":"Ban Dindam"},{"id":"1399234","latitude":"19.48333300","longitude":"104.06666700","name":"Ban Dine Dam"},{"id":"1399244","latitude":"19.64194400","longitude":"103.16083300","name":"Ban Do"},{"id":"1399251","latitude":"19.23333300","longitude":"103.68333300","name":"Ban Dokmai"},{"id":"1399252","latitude":"19.23333300","longitude":"103.68333300","name":"Ban Do Mai"},{"id":"1399260","latitude":"18.73333300","longitude":"103.71666700","name":"Ban Don"},{"id":"1399282","latitude":"18.98333300","longitude":"103.60000000","name":"Ban Done"},{"id":"1399298","latitude":"15.43333300","longitude":"105.78333300","name":"Ban Done K\u00e8o"},{"id":"1399356","latitude":"19.05000000","longitude":"103.38333300","name":"Ban D\u00f4ng"},{"id":"1399370","latitude":"19.58305600","longitude":"103.60027800","name":"Ban Dong Cay"},{"id":"1399428","latitude":"18.96666700","longitude":"103.63333300","name":"Ban D\u00f4ngmo"},{"id":"1399515","latitude":"15.43333300","longitude":"105.78333300","name":"Ban Donk\u00e8o"},{"id":"1399621","latitude":"19.64194400","longitude":"103.16083300","name":"Ban Dou"},{"id":"1399622","latitude":"19.49750000","longitude":"102.96138900","name":"Ban Douc"},{"id":"1399623","latitude":"19.49750000","longitude":"102.96138900","name":"Ban Douk"},{"id":"1399626","latitude":"19.62277800","longitude":"103.59083300","name":"Ban Doung"},{"id":"1399667","latitude":"19.60000000","longitude":"103.26666700","name":"Ban Fai"},{"id":"1399668","latitude":"19.60000000","longitude":"102.81666700","name":"Ban Fai Thuong"},{"id":"1399679","latitude":"19.52972200","longitude":"103.21750000","name":"Ban Fat"},{"id":"1399680","latitude":"19.30000000","longitude":"103.16666700","name":"Ban Fay"},{"id":"1399683","latitude":"19.60000000","longitude":"102.81666700","name":"Ban Faythuang"},{"id":"1399689","latitude":"19.16666700","longitude":"104.00000000","name":"Bang Chao"},{"id":"1399694","latitude":"19.43333300","longitude":"103.21666700","name":"Ban Gion"},{"id":"1399720","latitude":"19.69388900","longitude":"104.14638900","name":"Ban Gnansong"},{"id":"1399722","latitude":"19.57722200","longitude":"103.19694400","name":"Ban Gnap"},{"id":"1399735","latitude":"19.57750000","longitude":"103.37916700","name":"Ban Gnognan"},{"id":"1399738","latitude":"19.64916700","longitude":"103.28444400","name":"Ban Gnolpiang"},{"id":"1399739","latitude":"19.61666700","longitude":"103.11666700","name":"Ban Gn\u00f4m"},{"id":"1399741","latitude":"19.43333300","longitude":"103.21666700","name":"Ban Gnon"},{"id":"1399744","latitude":"19.50000000","longitude":"104.05000000","name":"Ban Gnotchang"},{"id":"1399747","latitude":"19.53333300","longitude":"103.80888900","name":"Ban Gnot Houay"},{"id":"1399748","latitude":"19.40027800","longitude":"103.92000000","name":"Ban Gnot Houaypa"},{"id":"1399752","latitude":"19.53250000","longitude":"103.81583300","name":"Ban Gnotkha Gnai"},{"id":"1399753","latitude":"19.52472200","longitude":"103.80944400","name":"Ban Gnotkha-Kao"},{"id":"1399754","latitude":"19.48333300","longitude":"103.76666700","name":"Ban Gnotkhang"},{"id":"1399755","latitude":"19.51666700","longitude":"103.81666700","name":"Ban Gnotkha Noy"},{"id":"1399756","latitude":"19.53333300","longitude":"103.80888900","name":"Ban Gnotkhay"},{"id":"1399757","latitude":"19.53250000","longitude":"103.81583300","name":"Ban Gnotkhay-Mai"},{"id":"1399758","latitude":"19.60472200","longitude":"103.84194400","name":"Ban Gnotkho"},{"id":"1399761","latitude":"19.56555600","longitude":"103.81916700","name":"Ban Gnotlian-Kao"},{"id":"1399762","latitude":"19.57694400","longitude":"103.81833300","name":"Ban Gnotlian-Mai"},{"id":"1399772","latitude":"19.56861100","longitude":"103.74833300","name":"Ban Gnotp\u00e8ng"},{"id":"1399776","latitude":"19.63111100","longitude":"103.87361100","name":"Ban Gnotxao"},{"id":"1399781","latitude":"19.50055600","longitude":"103.18638900","name":"Ban Gnouan"},{"id":"1399782","latitude":"19.58333300","longitude":"103.65000000","name":"Ban Gnoum"},{"id":"1399783","latitude":"19.58444400","longitude":"103.62972200","name":"Ban Gnoumchong"},{"id":"1399784","latitude":"19.36972200","longitude":"103.27000000","name":"Ban Gnoun"},{"id":"1399789","latitude":"19.38333300","longitude":"103.13333300","name":"Ban Ha"},{"id":"1399803","latitude":"19.61555600","longitude":"103.65250000","name":"Ban Hai"},{"id":"1399809","latitude":"19.52222200","longitude":"103.44722200","name":"Ban Haihin"},{"id":"1399812","latitude":"19.48333300","longitude":"104.05000000","name":"Ban Hainam"},{"id":"1399832","latitude":"19.13333300","longitude":"103.88333300","name":"Ban Han"},{"id":"1399835","latitude":"19.11666700","longitude":"103.93333300","name":"Ban Hang"},{"id":"1399848","latitude":"19.21666700","longitude":"102.95000000","name":"Ban Hangkhang"},{"id":"1399887","latitude":"18.71666700","longitude":"103.81666700","name":"Ban Hatbay"},{"id":"1399889","latitude":"18.80000000","longitude":"103.81666700","name":"Ban Hat Bo"},{"id":"1399927","latitude":"19.70361100","longitude":"104.03722200","name":"Ban Hat-H\u00f4ng"},{"id":"1399941","latitude":"19.75833300","longitude":"102.78472200","name":"Ban Hat Keo"},{"id":"1399943","latitude":"19.75833300","longitude":"102.78472200","name":"Ban Hatk\u00e8p"},{"id":"1399989","latitude":"19.81666700","longitude":"103.91666700","name":"Ban Hat Moune"},{"id":"1399990","latitude":"19.81666700","longitude":"103.91666700","name":"Ban Hatmun"},{"id":"1400014","latitude":"18.68333300","longitude":"104.10000000","name":"Ban Hatpan"},{"id":"1400018","latitude":"18.68333300","longitude":"104.10000000","name":"Ban Hat Pei"},{"id":"1400026","latitude":"20.03333300","longitude":"103.78333300","name":"Ban Hatsa"},{"id":"1400034","latitude":"18.61666700","longitude":"104.01666700","name":"Ban Hat Sai Sun"},{"id":"1400057","latitude":"18.71666700","longitude":"103.81666700","name":"Ban Hattao"},{"id":"1400089","latitude":"19.01666700","longitude":"103.43333300","name":"Ban Hau"},{"id":"1400092","latitude":"18.73333300","longitude":"103.23333300","name":"Ban Hay"},{"id":"1400093","latitude":"19.48333300","longitude":"104.05000000","name":"Ban Hay Nam"},{"id":"1400097","latitude":"19.53333300","longitude":"102.85000000","name":"Ban H\u00e8"},{"id":"1400100","latitude":"19.60000000","longitude":"103.16666700","name":"Ban H\u00e9k"},{"id":"1400121","latitude":"19.23333300","longitude":"103.51666700","name":"Ban Hin"},{"id":"1400126","latitude":"19.23333300","longitude":"103.51666700","name":"Ban Hine"},{"id":"1400133","latitude":"19.88333300","longitude":"103.75000000","name":"Ban Hine Tat"},{"id":"1400134","latitude":"19.08333300","longitude":"103.63333300","name":"Ban Hine Toc"},{"id":"1400135","latitude":"19.38333300","longitude":"103.20000000","name":"Ban Hing"},{"id":"1400152","latitude":"19.47055600","longitude":"102.67388900","name":"Ban Hinlak"},{"id":"1400158","latitude":"19.55138900","longitude":"102.64638900","name":"Ban Hinl\u00e9k"},{"id":"1400165","latitude":"19.45444400","longitude":"102.97194400","name":"Ban Hinnouphung"},{"id":"1400175","latitude":"19.50555600","longitude":"102.62277800","name":"Ban Hinsua"},{"id":"1400178","latitude":"19.20000000","longitude":"103.00000000","name":"Ban Hintang"},{"id":"1400180","latitude":"19.46666700","longitude":"104.06666700","name":"Ban Hin Tang Noi"},{"id":"1400181","latitude":"19.46666700","longitude":"104.06666700","name":"Ban Hintang Noy"},{"id":"1400182","latitude":"19.88333300","longitude":"103.75000000","name":"Ban Hintat"},{"id":"1400184","latitude":"18.93333300","longitude":"103.70000000","name":"Ban Hiou Nheu"},{"id":"1400185","latitude":"19.58000000","longitude":"103.64138900","name":"Ban Hip"},{"id":"1400195","latitude":"19.63333300","longitude":"103.26666700","name":"Ban Ho"},{"id":"1400201","latitude":"19.38333300","longitude":"103.33333300","name":"Ban Hoi"},{"id":"1400207","latitude":"19.66194400","longitude":"103.52055600","name":"Ban Hokang"},{"id":"1400209","latitude":"19.64611100","longitude":"103.50333300","name":"Ban H\u00f4k"},{"id":"1400211","latitude":"19.20000000","longitude":"102.95000000","name":"Ban Ho Khang"},{"id":"1400219","latitude":"19.28333300","longitude":"103.55000000","name":"Ban Hom"},{"id":"1400227","latitude":"19.21666700","longitude":"103.21666700","name":"Ban Hon"},{"id":"1400229","latitude":"19.21666700","longitude":"103.21666700","name":"Ban Hone"},{"id":"1400244","latitude":"19.84361100","longitude":"104.05055600","name":"Ban H\u00f4ng-Oy"},{"id":"1400253","latitude":"19.64611100","longitude":"103.50333300","name":"Ban H\u00f4p"},{"id":"1400257","latitude":"19.60000000","longitude":"103.40000000","name":"Ban Hot Ta"},{"id":"1400259","latitude":"19.46638900","longitude":"103.25000000","name":"Ban Houa"},{"id":"1400274","latitude":"19.26666700","longitude":"103.56666700","name":"Ban Houa Ghoune"},{"id":"1400275","latitude":"19.25000000","longitude":"103.55000000","name":"Ban Houa Gnhouane"},{"id":"1400276","latitude":"19.25000000","longitude":"103.55000000","name":"Ban Houagno"},{"id":"1400277","latitude":"19.25000000","longitude":"103.55000000","name":"Ban Houagnouan"},{"id":"1400281","latitude":"15.46666700","longitude":"105.80000000","name":"Ban Houahat"},{"id":"1400288","latitude":"18.80000000","longitude":"104.20000000","name":"Ban Houai Xieng"},{"id":"1400295","latitude":"19.20000000","longitude":"102.95000000","name":"Ban Houakhang"},{"id":"1400323","latitude":"19.03333300","longitude":"103.46666700","name":"Ban Houana"},{"id":"1400353","latitude":"19.18333300","longitude":"103.86666700","name":"Ban Houaphou"},{"id":"1400356","latitude":"19.25000000","longitude":"103.53333300","name":"Ban Houapiang"},{"id":"1400366","latitude":"19.55000000","longitude":"103.15000000","name":"Ban Houat"},{"id":"1400367","latitude":"19.65722200","longitude":"103.97000000","name":"Ban Houaxang"},{"id":"1400394","latitude":"19.26666700","longitude":"103.85000000","name":"Ban Houayboung"},{"id":"1400403","latitude":"19.55000000","longitude":"104.08333300","name":"Ban Houaychalat"},{"id":"1400404","latitude":"19.90666700","longitude":"103.88916700","name":"Ban Houaychalot"},{"id":"1400415","latitude":"19.37583300","longitude":"103.38416700","name":"Ban Houaych\u00e8k"},{"id":"1400426","latitude":"19.40250000","longitude":"102.97194400","name":"Ban Houaychit"},{"id":"1400449","latitude":"19.59916700","longitude":"103.60777800","name":"Ban Houaydokkham"},{"id":"1400451","latitude":"19.75888900","longitude":"104.07944400","name":"Ban Houaydon"},{"id":"1400453","latitude":"19.75888900","longitude":"104.07944400","name":"Ban Houay Done"},{"id":"1400458","latitude":"19.45000000","longitude":"104.05000000","name":"Ban Houaydou"},{"id":"1400463","latitude":"19.36666700","longitude":"102.80000000","name":"Ban Houayduan"},{"id":"1400466","latitude":"19.40694400","longitude":"103.73833300","name":"Ban Houay-En"},{"id":"1400493","latitude":"19.46666700","longitude":"103.73333300","name":"Ban Houaygni"},{"id":"1400511","latitude":"19.35972200","longitude":"103.59888900","name":"Ban Houayhang"},{"id":"1400521","latitude":"19.72555600","longitude":"102.72250000","name":"Ban Houayhap"},{"id":"1400523","latitude":"19.63333300","longitude":"102.80000000","name":"Ban Houayhat"},{"id":"1400553","latitude":"19.58333300","longitude":"103.98333300","name":"Ban Houay Hoay"},{"id":"1400566","latitude":"19.52305600","longitude":"103.41777800","name":"Ban Houayh\u00f4k"},{"id":"1400567","latitude":"19.60000000","longitude":"102.61666700","name":"Ban Houay Hok"},{"id":"1400568","latitude":"19.63333300","longitude":"103.46666700","name":"Ban Houayh\u00f4k"},{"id":"1400571","latitude":"19.86666700","longitude":"103.96666700","name":"Ban Houayh\u00f4k Gnai"},{"id":"1400574","latitude":"19.70777800","longitude":"103.09555600","name":"Ban Houayhom"},{"id":"1400597","latitude":"18.90000000","longitude":"103.15000000","name":"Ban Houay-Iand\u00e8ng"},{"id":"1400611","latitude":"18.82722200","longitude":"102.96000000","name":"Ban Houaykap-Lang"},{"id":"1400615","latitude":"19.38944400","longitude":"102.78138900","name":"Ban Houaykathip"},{"id":"1400638","latitude":"19.48333300","longitude":"103.81666700","name":"Ban Houaykha"},{"id":"1400646","latitude":"19.30000000","longitude":"103.65000000","name":"Ban Houay-khai"},{"id":"1400647","latitude":"19.56666700","longitude":"104.10000000","name":"Ban Houay Khai"},{"id":"1400661","latitude":"19.33333300","longitude":"103.78333300","name":"Ban Houaykhang"},{"id":"1400665","latitude":"19.56666700","longitude":"104.10000000","name":"Ban Houaykh\u00e8"},{"id":"1400670","latitude":"19.50000000","longitude":"104.00000000","name":"Ban Houay Khi Ling Nhay"},{"id":"1400671","latitude":"19.48333300","longitude":"103.98333300","name":"Ban Houaykhiling Noy"},{"id":"1400675","latitude":"19.84611100","longitude":"103.93361100","name":"Ban Houaykhoan"},{"id":"1400679","latitude":"19.86666700","longitude":"103.80000000","name":"Ban Houaykho"},{"id":"1400680","latitude":"19.45000000","longitude":"104.06666700","name":"Ban Houay Khol"},{"id":"1400690","latitude":"19.48333300","longitude":"104.01666700","name":"Ban Houaykhou"},{"id":"1400696","latitude":"19.53333300","longitude":"103.61666700","name":"Ban Houay Khuang"},{"id":"1400751","latitude":"19.89833300","longitude":"103.46194400","name":"Ban Houaylao"},{"id":"1400762","latitude":"19.98333300","longitude":"103.73333300","name":"Ban Houayl\u00e9k"},{"id":"1400790","latitude":"19.56666700","longitude":"104.06666700","name":"Ban Houayl\u00f4m"},{"id":"1400794","latitude":"19.51666700","longitude":"104.01666700","name":"Ban Houaylong"},{"id":"1400803","latitude":"19.90000000","longitude":"103.88333300","name":"Ban Houaylot"},{"id":"1400823","latitude":"19.73333300","longitude":"103.26666700","name":"Ban Houaylung"},{"id":"1400833","latitude":"19.38333300","longitude":"103.73333300","name":"Ban Houaymak Ho"},{"id":"1400854","latitude":"19.26666700","longitude":"102.85000000","name":"Ban Houaymoua"},{"id":"1400872","latitude":"19.28333300","longitude":"103.53333300","name":"Ban Houay-mouy"},{"id":"1400877","latitude":"19.23333300","longitude":"103.80000000","name":"Ban Houaymut"},{"id":"1400891","latitude":"19.38194400","longitude":"102.97694400","name":"Ban Houaynamp\u00e8ng"},{"id":"1400946","latitude":"19.41277800","longitude":"103.93805600","name":"Ban Houay-Oum"},{"id":"1400950","latitude":"19.76638900","longitude":"102.66527800","name":"Ban Houay-Oun"},{"id":"1400958","latitude":"19.40027800","longitude":"103.92000000","name":"Ban Houaypa"},{"id":"1401027","latitude":"18.71666700","longitude":"103.35000000","name":"Ban Houay Podang"},{"id":"1401040","latitude":"19.44111100","longitude":"102.96500000","name":"Ban Houaypoung"},{"id":"1401052","latitude":"19.96277800","longitude":"103.92611100","name":"Ban Houaysadoung"},{"id":"1401082","latitude":"19.56666700","longitude":"102.75000000","name":"Ban Houaysam"},{"id":"1401087","latitude":"19.39944400","longitude":"103.87277800","name":"Ban Houaysan"},{"id":"1401096","latitude":"19.39944400","longitude":"103.87277800","name":"Ban Houaysan-Noy"},{"id":"1401111","latitude":"18.71666700","longitude":"103.33333300","name":"Ban Houay Say"},{"id":"1401130","latitude":"19.45000000","longitude":"103.73333300","name":"Ban Houaysong"},{"id":"1401133","latitude":"18.65000000","longitude":"103.06666700","name":"Ban Houaysot"},{"id":"1401145","latitude":"19.60000000","longitude":"103.40000000","name":"Ban Houayta"},{"id":"1401153","latitude":"19.55472200","longitude":"103.92750000","name":"Ban Houaytan"},{"id":"1401155","latitude":"19.59583300","longitude":"103.96722200","name":"Ban Houaytang"},{"id":"1401156","latitude":"19.59583300","longitude":"103.96722200","name":"Ban Houay-Tang"},{"id":"1401166","latitude":"19.71944400","longitude":"103.96166700","name":"Ban Houayt\u00eak"},{"id":"1401181","latitude":"20.01666700","longitude":"103.76666700","name":"Ban Houay Thang"},{"id":"1401184","latitude":"19.39083300","longitude":"103.90333300","name":"Ban Houaythao"},{"id":"1401190","latitude":"19.38694400","longitude":"103.87972200","name":"Ban Houaytho"},{"id":"1401213","latitude":"19.26666700","longitude":"102.78333300","name":"Ban Houayto"},{"id":"1401228","latitude":"19.25000000","longitude":"102.88333300","name":"Ban Houaytoy"},{"id":"1401252","latitude":"19.76666700","longitude":"103.00000000","name":"Ban Houayxam"},{"id":"1401261","latitude":"15.48333300","longitude":"105.76666700","name":"Ban Houayxao"},{"id":"1401268","latitude":"19.23333300","longitude":"103.85000000","name":"Ban Houayxaykhao"},{"id":"1401275","latitude":"18.85000000","longitude":"103.78333300","name":"Ban Houayxia"},{"id":"1401288","latitude":"19.60111100","longitude":"103.78277800","name":"Ban Houayxouang"},{"id":"1401309","latitude":"19.46638900","longitude":"103.25000000","name":"Ban Houe"},{"id":"1401317","latitude":"19.26666700","longitude":"103.85000000","name":"Ban Houei Bung"},{"id":"1401332","latitude":"19.36666700","longitude":"102.80000000","name":"Ban Houei Dioun"},{"id":"1401333","latitude":"19.75888900","longitude":"104.07944400","name":"Ban Houei Done"},{"id":"1401334","latitude":"19.45000000","longitude":"104.05000000","name":"Ban Houei Dou"},{"id":"1401348","latitude":"19.63333300","longitude":"102.80000000","name":"Ban Houei Hat"},{"id":"1401351","latitude":"19.28333300","longitude":"103.91666700","name":"Ban Houei Hay"},{"id":"1401367","latitude":"19.86666700","longitude":"103.96666700","name":"Ban Houei Hock"},{"id":"1401374","latitude":"19.60000000","longitude":"102.61666700","name":"Ban Houei Hok"},{"id":"1401384","latitude":"19.58333300","longitude":"103.98333300","name":"Ban Houei Houay"},{"id":"1401391","latitude":"18.82722200","longitude":"102.96000000","name":"Ban Houei Kaplang"},{"id":"1401403","latitude":"19.48333300","longitude":"103.81666700","name":"Ban Houei Kha"},{"id":"1401405","latitude":"19.30000000","longitude":"103.65000000","name":"Ban Houei Khai"},{"id":"1401408","latitude":"19.33333300","longitude":"103.78333300","name":"Ban Houei Khang"},{"id":"1401410","latitude":"19.50000000","longitude":"104.00000000","name":"Ban Houei Khi Ling Nhay"},{"id":"1401411","latitude":"19.48333300","longitude":"103.98333300","name":"Ban Houei Khi Ling Noi"},{"id":"1401414","latitude":"19.45000000","longitude":"104.05000000","name":"Ban Houei Kho"},{"id":"1401415","latitude":"19.84611100","longitude":"103.93361100","name":"Ban Houei Khoiane"},{"id":"1401419","latitude":"19.48333300","longitude":"104.01666700","name":"Ban Houei Khou"},{"id":"1401448","latitude":"19.98333300","longitude":"103.73333300","name":"Ban Houei Lek"},{"id":"1401458","latitude":"19.90000000","longitude":"103.88333300","name":"Ban Houei Lo\u00ef"},{"id":"1401460","latitude":"19.56666700","longitude":"104.06666700","name":"Ban Houei Lom"},{"id":"1401462","latitude":"19.51666700","longitude":"104.01666700","name":"Ban Houei Long"},{"id":"1401470","latitude":"19.73333300","longitude":"103.26666700","name":"Ban Houei Lung"},{"id":"1401472","latitude":"19.38333300","longitude":"103.73333300","name":"Ban Houei Ma Ho"},{"id":"1401481","latitude":"19.26666700","longitude":"102.85000000","name":"Ban Houei Moua"},{"id":"1401483","latitude":"19.28333300","longitude":"103.53333300","name":"Ban Houei Moui"},{"id":"1401490","latitude":"19.23333300","longitude":"103.80000000","name":"Ban Houei Mut"},{"id":"1401499","latitude":"18.90000000","longitude":"103.15000000","name":"Ban Houe Inden"},{"id":"1401516","latitude":"19.46666700","longitude":"103.73333300","name":"Ban Houei Nhi"},{"id":"1401528","latitude":"19.60000000","longitude":"102.61666700","name":"Ban Houei Oc"},{"id":"1401534","latitude":"19.40027800","longitude":"103.92000000","name":"Ban Houei Pa"},{"id":"1401561","latitude":"18.71666700","longitude":"103.35000000","name":"Ban Houei Podang"},{"id":"1401573","latitude":"19.96277800","longitude":"103.92611100","name":"Ban Houei Sadoung"},{"id":"1401592","latitude":"19.56666700","longitude":"102.75000000","name":"Ban Houei Sam"},{"id":"1401602","latitude":"15.48333300","longitude":"105.76666700","name":"Ban Houei Sao"},{"id":"1401609","latitude":"18.71666700","longitude":"103.33333300","name":"Ban Houei Say"},{"id":"1401614","latitude":"19.76666700","longitude":"103.00000000","name":"Ban Houei Sem"},{"id":"1401619","latitude":"18.85000000","longitude":"103.78333300","name":"Ban Houei Sia"},{"id":"1401628","latitude":"19.45000000","longitude":"103.73333300","name":"Ban Houei Song"},{"id":"1401631","latitude":"18.65000000","longitude":"103.06666700","name":"Ban Houe\u00ef Sot"},{"id":"1401645","latitude":"19.59583300","longitude":"103.96722200","name":"Ban Houei Tang"},{"id":"1401654","latitude":"20.01666700","longitude":"103.76666700","name":"Ban Houei Thang"},{"id":"1401658","latitude":"19.38694400","longitude":"103.87972200","name":"Ban Houei Tho"},{"id":"1401664","latitude":"19.55000000","longitude":"104.08333300","name":"Ban Houei Tialat"},{"id":"1401671","latitude":"19.25000000","longitude":"102.88333300","name":"Ban Houei Toi"},{"id":"1401682","latitude":"19.23333300","longitude":"103.85000000","name":"Ban Houei Xai Khao"},{"id":"1401684","latitude":"18.80000000","longitude":"104.20000000","name":"Ban Houei Xieng"},{"id":"1401692","latitude":"19.86666700","longitude":"103.80000000","name":"Ban Houe Kho"},{"id":"1401696","latitude":"19.26666700","longitude":"102.78333300","name":"Ban Houe To"},{"id":"1401700","latitude":"19.25000000","longitude":"103.55000000","name":"Ban Hou Gnhouane"},{"id":"1401704","latitude":"18.71666700","longitude":"103.33333300","name":"Ban Houie Say"},{"id":"1401707","latitude":"19.63333300","longitude":"103.46666700","name":"Ban Hou Khan"},{"id":"1401708","latitude":"19.40638900","longitude":"103.12416700","name":"Ban Houm"},{"id":"1401710","latitude":"19.96750000","longitude":"103.87500000","name":"Ban Houmphan"},{"id":"1401715","latitude":"19.61666700","longitude":"103.31666700","name":"Ban Hounna"},{"id":"1401718","latitude":"19.55000000","longitude":"104.08333300","name":"Ban Houoi Tialat"},{"id":"1401723","latitude":"19.38333300","longitude":"103.33333300","name":"Ban Hoy"},{"id":"1401728","latitude":"19.56666700","longitude":"102.75000000","name":"Ban Hsam"},{"id":"1401765","latitude":"19.56888900","longitude":"103.65694400","name":"Ban Huot"},{"id":"1401767","latitude":"19.57333300","longitude":"103.08916700","name":"Ban Ieun"},{"id":"1401791","latitude":"19.46083300","longitude":"103.89000000","name":"Ban Kabo"},{"id":"1401831","latitude":"19.53333300","longitude":"103.21666700","name":"Ban Kai"},{"id":"1401834","latitude":"19.76666700","longitude":"103.51666700","name":"Ban Kait\u00f4ng"},{"id":"1401850","latitude":"19.45000000","longitude":"103.20000000","name":"Ban Kal"},{"id":"1401857","latitude":"19.47166700","longitude":"103.39638900","name":"Ban Kaliang-Noi"},{"id":"1401877","latitude":"15.43333300","longitude":"105.81666700","name":"Ban Kambone"},{"id":"1401898","latitude":"19.35000000","longitude":"103.53333300","name":"Ban Kan\u00e9ng"},{"id":"1401911","latitude":"19.48333300","longitude":"103.11666700","name":"Ban Kang"},{"id":"1401929","latitude":"19.63083300","longitude":"103.71083300","name":"Ban Kang-Na"},{"id":"1401933","latitude":"19.58333300","longitude":"103.25000000","name":"Ban Kang Niao"},{"id":"1401953","latitude":"19.35000000","longitude":"103.53333300","name":"Ban Ka Ningue"},{"id":"1401963","latitude":"18.96666700","longitude":"103.50000000","name":"Ban Kao"},{"id":"1401994","latitude":"19.57277800","longitude":"103.07416700","name":"Ban Kasong"},{"id":"1402014","latitude":"19.45000000","longitude":"103.20000000","name":"Ban Kat"},{"id":"1402065","latitude":"19.21666700","longitude":"103.60000000","name":"Ban Kek"},{"id":"1402072","latitude":"19.58333300","longitude":"103.66666700","name":"Ban Ken"},{"id":"1402077","latitude":"19.45000000","longitude":"103.11666700","name":"Ban K\u00e8ng"},{"id":"1402083","latitude":"19.71361100","longitude":"103.91250000","name":"Ban K\u00e8ngbon"},{"id":"1402091","latitude":"19.45166700","longitude":"103.97833300","name":"Ban K\u00e8ngd\u00e8l"},{"id":"1402117","latitude":"15.46666700","longitude":"105.78333300","name":"Ban K\u00e8nghouat"},{"id":"1402132","latitude":"15.45000000","longitude":"105.80000000","name":"Ban K\u00e9ng Kh\u00e2n"},{"id":"1402142","latitude":"19.46666700","longitude":"103.96666700","name":"Ban Keng Khoai"},{"id":"1402143","latitude":"19.46666700","longitude":"103.96666700","name":"Ban Keng Khoal"},{"id":"1402144","latitude":"19.46666700","longitude":"103.96666700","name":"Ban K\u00e8ngkhoay"},{"id":"1402145","latitude":"15.45000000","longitude":"105.80000000","name":"Ban K\u00e8ngkh\u00f4n"},{"id":"1402154","latitude":"15.45000000","longitude":"105.80000000","name":"Ban Keng Kone"},{"id":"1402228","latitude":"18.78333300","longitude":"103.81666700","name":"Ban K\u00e8ngsout"},{"id":"1402259","latitude":"19.56666700","longitude":"103.33333300","name":"Ban K\u00e8o"},{"id":"1402260","latitude":"19.79194400","longitude":"103.94194400","name":"Ban K\u00e8obon"},{"id":"1402262","latitude":"19.69694400","longitude":"104.12555600","name":"Ban K\u00e9ocha"},{"id":"1402266","latitude":"19.23333300","longitude":"103.60000000","name":"Ban K\u00e8ogn\u00f4m"},{"id":"1402268","latitude":"19.61583300","longitude":"103.86194400","name":"Ban  K\u00e8oka"},{"id":"1402270","latitude":"19.39722200","longitude":"103.83694400","name":"Ban K\u00e8okha"},{"id":"1402274","latitude":"19.23333300","longitude":"103.10000000","name":"Ban K\u00e8okoang"},{"id":"1402275","latitude":"19.61138900","longitude":"103.88388900","name":"Ban Keokong"},{"id":"1402279","latitude":"19.84805600","longitude":"103.69638900","name":"Ban K\u00e8oleuk"},{"id":"1402284","latitude":"18.71666700","longitude":"103.31666700","name":"Ban K\u00eao Ma Fuong"},{"id":"1402285","latitude":"18.71666700","longitude":"103.31666700","name":"Ban K\u00e8omakfuang"},{"id":"1402289","latitude":"19.92444400","longitude":"103.89111100","name":"Ban Keo Ngeuk"},{"id":"1402290","latitude":"19.92444400","longitude":"103.89111100","name":"Ban K\u00e8o-Nguak"},{"id":"1402291","latitude":"19.23333300","longitude":"103.60000000","name":"Ban Keo Nhom"},{"id":"1402293","latitude":"19.53583300","longitude":"103.95027800","name":"Ban Keo Paton"},{"id":"1402294","latitude":"19.53583300","longitude":"103.95027800","name":"Ban K\u00e9opatou"},{"id":"1402296","latitude":"19.78333300","longitude":"104.13333300","name":"Ban K\u00e9o Pro"},{"id":"1402299","latitude":"18.71666700","longitude":"103.28333300","name":"Ban Keo Song Lay"},{"id":"1402303","latitude":"19.48333300","longitude":"102.53333300","name":"Ban Keo Vok"},{"id":"1402306","latitude":"19.36388900","longitude":"103.28638900","name":"Ban Kesi"},{"id":"1402317","latitude":"19.56666700","longitude":"102.98333300","name":"Ban Keut"},{"id":"1402318","latitude":"19.56666700","longitude":"102.98333300","name":"Ban Keutt"},{"id":"1402323","latitude":"19.26666700","longitude":"103.63333300","name":"Ban Kha"},{"id":"1402336","latitude":"19.54722200","longitude":"102.93055600","name":"Ban Khai"},{"id":"1402352","latitude":"19.28333300","longitude":"103.06666700","name":"Ban Kham"},{"id":"1402356","latitude":"15.43333300","longitude":"105.81666700","name":"Ban Khambon"},{"id":"1402374","latitude":"19.49444400","longitude":"102.72166700","name":"Ban Khamhoung-Gnai"},{"id":"1402375","latitude":"19.49527800","longitude":"102.71694400","name":"Ban Khamhoung-Noy"},{"id":"1402421","latitude":"19.75000000","longitude":"103.45000000","name":"Ban Khamsouk"},{"id":"1402423","latitude":"19.75000000","longitude":"103.45000000","name":"Ban Kham Suc"},{"id":"1402444","latitude":"19.56805600","longitude":"103.61527800","name":"Ban Khan"},{"id":"1402450","latitude":"19.41666700","longitude":"102.83333300","name":"Ban Khang"},{"id":"1402452","latitude":"19.37694400","longitude":"103.17916700","name":"Ban Khanggnao"},{"id":"1402453","latitude":"19.58333300","longitude":"103.25000000","name":"Ban Khang-Gnao"},{"id":"1402456","latitude":"19.18333300","longitude":"103.13333300","name":"Ban Khangkhai"},{"id":"1402459","latitude":"19.18333300","longitude":"103.13333300","name":"Ban Khang Kho"},{"id":"1402462","latitude":"19.67888900","longitude":"103.64472200","name":"Ban Khanglouang"},{"id":"1402465","latitude":"19.21666700","longitude":"103.55000000","name":"Ban Khang Mal\u00e8n"},{"id":"1402466","latitude":"19.56166700","longitude":"103.37805600","name":"Ban Khangman"},{"id":"1402467","latitude":"19.53333300","longitude":"103.11666700","name":"Ban Khangmuang"},{"id":"1402468","latitude":"19.53333300","longitude":"103.11666700","name":"Ban Khang Muong"},{"id":"1402473","latitude":"19.50000000","longitude":"103.85000000","name":"Ban Khangphanian Gnai"},{"id":"1402474","latitude":"19.50000000","longitude":"103.85000000","name":"Ban Khang Pha Nien Nhay"},{"id":"1402475","latitude":"19.50000000","longitude":"103.85000000","name":"Ban Khang Pha Nien Nhoy"},{"id":"1402476","latitude":"19.36666700","longitude":"103.05000000","name":"Ban Khang-Phiang"},{"id":"1402477","latitude":"19.36666700","longitude":"103.05000000","name":"Ban Khang Phieng"},{"id":"1402478","latitude":"19.35194400","longitude":"103.31777800","name":"Ban Khangpho"},{"id":"1402480","latitude":"19.37472200","longitude":"103.06333300","name":"Ban Khangsi"},{"id":"1402481","latitude":"19.58333300","longitude":"103.30000000","name":"Ban Khangthat"},{"id":"1402483","latitude":"19.40000000","longitude":"102.66666700","name":"Ban Khangth\u00f4n"},{"id":"1402484","latitude":"19.40000000","longitude":"102.66666700","name":"Ban Khang Thone"},{"id":"1402485","latitude":"19.74583300","longitude":"103.24444400","name":"Ban Khangthong"},{"id":"1402486","latitude":"19.70944400","longitude":"103.65666700","name":"Ban Khangvan"},{"id":"1402518","latitude":"18.96666700","longitude":"103.50000000","name":"Ban Khao"},{"id":"1402525","latitude":"19.33333300","longitude":"103.66666700","name":"Ban Khap"},{"id":"1402542","latitude":"19.53333300","longitude":"103.21666700","name":"Ban Khay"},{"id":"1402547","latitude":"19.21666700","longitude":"103.60000000","name":"Ban Kh\u00e9k"},{"id":"1402563","latitude":"19.23333300","longitude":"103.60000000","name":"Ban Kheo Nhom"},{"id":"1402612","latitude":"19.72111100","longitude":"103.17805600","name":"Ban Kho"},{"id":"1402615","latitude":"19.56666700","longitude":"104.08333300","name":"Ban Khoham"},{"id":"1402616","latitude":"19.56666700","longitude":"104.08333300","name":"Ban Kho Hom"},{"id":"1402650","latitude":"19.48472200","longitude":"103.78250000","name":"Ban Khok Mon Nhoy"},{"id":"1402651","latitude":"19.48472200","longitude":"103.78250000","name":"Ban Khokmou"},{"id":"1402652","latitude":"19.48472200","longitude":"103.78250000","name":"Ban Khokmou Gnai"},{"id":"1402653","latitude":"19.48472200","longitude":"103.78250000","name":"Ban Khok Mou Nhay"},{"id":"1402654","latitude":"19.48333300","longitude":"103.80000000","name":"Ban Khokmou Noy"},{"id":"1402691","latitude":"19.25000000","longitude":"103.11666700","name":"Ban Kh\u00f4n"},{"id":"1402703","latitude":"18.91666700","longitude":"103.70000000","name":"Ban Khone Xa Na"},{"id":"1402706","latitude":"19.38333300","longitude":"103.01666700","name":"Ban Khong"},{"id":"1402708","latitude":"19.53333300","longitude":"103.95000000","name":"Ban Khong Kao"},{"id":"1402744","latitude":"18.91666700","longitude":"103.70000000","name":"Ban Khonxana"},{"id":"1402746","latitude":"19.90000000","longitude":"103.80000000","name":"Ban Kho Peuil"},{"id":"1402747","latitude":"19.98333300","longitude":"103.78333300","name":"Ban Kho Pho"},{"id":"1402748","latitude":"19.90000000","longitude":"103.80000000","name":"Ban Khopuay"},{"id":"1402754","latitude":"16.56666700","longitude":"106.53333300","name":"Ban Kho Tian"},{"id":"1402760","latitude":"19.35416700","longitude":"103.31111100","name":"Ban Khoua"},{"id":"1402761","latitude":"19.26666700","longitude":"103.56666700","name":"Ban Khouagnao"},{"id":"1402765","latitude":"19.58333300","longitude":"103.25000000","name":"Ban Khouang"},{"id":"1402775","latitude":"19.45222200","longitude":"103.26277800","name":"Ban Khou"},{"id":"1402780","latitude":"19.66666700","longitude":"103.50000000","name":"Ban Khoum"},{"id":"1402803","latitude":"19.86666700","longitude":"103.91666700","name":"Ban Khua"},{"id":"1402831","latitude":"19.35000000","longitude":"103.31666700","name":"Ban Kin"},{"id":"1402833","latitude":"19.35000000","longitude":"103.31666700","name":"Ban King"},{"id":"1402835","latitude":"18.78333300","longitude":"103.81666700","name":"Ban Kin Sout"},{"id":"1402906","latitude":"19.58333300","longitude":"103.10000000","name":"Ban Knap"},{"id":"1402911","latitude":"19.61916700","longitude":"103.58305600","name":"Ban Koay"},{"id":"1402915","latitude":"19.26666700","longitude":"103.63333300","name":"Ban Ko"},{"id":"1402917","latitude":"19.30000000","longitude":"103.38333300","name":"Ban Kobo"},{"id":"1402925","latitude":"19.58611100","longitude":"103.76944400","name":"Ban Kogn\u00f4m"},{"id":"1402927","latitude":"19.48333300","longitude":"103.58333300","name":"Ban Kohai"},{"id":"1402928","latitude":"19.63944400","longitude":"103.86833300","name":"Ban Kohat"},{"id":"1402931","latitude":"19.89833300","longitude":"103.84388900","name":"Ban Kohing"},{"id":"1402985","latitude":"19.48333300","longitude":"103.80000000","name":"Ban Kok Mou Noi"},{"id":"1403042","latitude":"19.57583300","longitude":"103.60694400","name":"Ban Kongibu"},{"id":"1403045","latitude":"19.53333300","longitude":"103.95000000","name":"Ban Kongkhao"},{"id":"1403078","latitude":"18.96666700","longitude":"103.05000000","name":"Ban Kong Tha Ngok"},{"id":"1403083","latitude":"19.58611100","longitude":"103.76944400","name":"Ban Ko Niom"},{"id":"1403100","latitude":"19.84805600","longitude":"103.31944400","name":"Ban Konthok"},{"id":"1403111","latitude":"19.98333300","longitude":"103.78333300","name":"Ban Koph\u00f4"},{"id":"1403113","latitude":"19.36388900","longitude":"103.28638900","name":"Ban Kosi"},{"id":"1403116","latitude":"19.61722200","longitude":"102.86611100","name":"Ban Kot"},{"id":"1403117","latitude":"16.56666700","longitude":"106.53333300","name":"Ban K\u00f4tian"},{"id":"1403118","latitude":"19.18333300","longitude":"103.90000000","name":"Ban Koua"},{"id":"1403119","latitude":"19.18333300","longitude":"103.90000000","name":"Ban Kouag"},{"id":"1403125","latitude":"19.18333300","longitude":"103.90000000","name":"Ban Kouang"},{"id":"1403148","latitude":"19.38333300","longitude":"103.16666700","name":"Ban Kouay"},{"id":"1403153","latitude":"19.38333300","longitude":"103.16666700","name":"Ban Kouei"},{"id":"1403329","latitude":"19.58694400","longitude":"103.61527800","name":"Ban Lam"},{"id":"1403405","latitude":"19.65055600","longitude":"103.50472200","name":"Ban Lao"},{"id":"1403421","latitude":"19.68333300","longitude":"102.81666700","name":"Ban Laogna"},{"id":"1403434","latitude":"19.55000000","longitude":"102.76666700","name":"Ban Lao Lau"},{"id":"1403441","latitude":"19.55000000","longitude":"102.76666700","name":"Ban Laol\u00f4"},{"id":"1403466","latitude":"19.20000000","longitude":"103.61666700","name":"Ban Laopao"},{"id":"1403477","latitude":"19.20000000","longitude":"103.61666700","name":"Ban Lao Sang"},{"id":"1403485","latitude":"19.33333300","longitude":"103.26666700","name":"Ban Laosu"},{"id":"1403488","latitude":"19.21666700","longitude":"103.63333300","name":"Ban Laota"},{"id":"1403489","latitude":"19.48333300","longitude":"102.78333300","name":"Ban Lao Ta Noi"},{"id":"1403490","latitude":"19.48333300","longitude":"102.78333300","name":"Ban Laota Noy"},{"id":"1403508","latitude":"19.20000000","longitude":"103.61666700","name":"Ban Laoxang"},{"id":"1403545","latitude":"19.58694400","longitude":"103.61527800","name":"Ban Lat"},{"id":"1403547","latitude":"19.59305600","longitude":"103.24555600","name":"Ban Latbouak"},{"id":"1403560","latitude":"19.39388900","longitude":"103.19083300","name":"Ban Lathouang"},{"id":"1403563","latitude":"18.98333300","longitude":"103.61666700","name":"Ban Latkhoay"},{"id":"1403572","latitude":"19.48444400","longitude":"103.12027800","name":"Ban Latngon"},{"id":"1403578","latitude":"18.98333300","longitude":"103.61666700","name":"Ban Lat Quai"},{"id":"1403583","latitude":"19.33638900","longitude":"103.14416700","name":"Ban Lats\u00e8n"},{"id":"1403594","latitude":"18.98333300","longitude":"103.50000000","name":"Ban Lau"},{"id":"1403596","latitude":"19.73333300","longitude":"104.16666700","name":"Ban Lau Na"},{"id":"1403605","latitude":"18.68333300","longitude":"103.23333300","name":"Ban Lavek"},{"id":"1403615","latitude":"19.71666700","longitude":"102.73333300","name":"Ban Laxa"},{"id":"1403624","latitude":"19.65000000","longitude":"103.61666700","name":"Ban L\u00e8"},{"id":"1403626","latitude":"19.51388900","longitude":"103.24888900","name":"Ban Lech"},{"id":"1403627","latitude":"19.51388900","longitude":"103.24888900","name":"Ban L\u00e9k"},{"id":"1403631","latitude":"19.48333300","longitude":"103.20000000","name":"Ban Len"},{"id":"1403633","latitude":"19.64750000","longitude":"103.61194400","name":"Ban L\u00e8ng"},{"id":"1403637","latitude":"19.70388900","longitude":"103.21750000","name":"Ban L\u00e8-Nua"},{"id":"1403638","latitude":"19.61666700","longitude":"103.18333300","name":"Ban L\u00e8o"},{"id":"1403640","latitude":"19.69972200","longitude":"103.21888900","name":"Ban L\u00e8-Tai"},{"id":"1403641","latitude":"18.98333300","longitude":"103.50000000","name":"Ban Leu"},{"id":"1403642","latitude":"19.57333300","longitude":"103.08916700","name":"Ban Leum"},{"id":"1403655","latitude":"19.48027800","longitude":"103.29027800","name":"Ban Liang"},{"id":"1403658","latitude":"19.46611100","longitude":"103.16666700","name":"Ban Li"},{"id":"1403660","latitude":"19.33333300","longitude":"103.26666700","name":"Ban Lichang"},{"id":"1403667","latitude":"19.65000000","longitude":"103.16666700","name":"Ban Lin"},{"id":"1403673","latitude":"19.65000000","longitude":"103.16666700","name":"Ban Linh"},{"id":"1403675","latitude":"19.65000000","longitude":"103.16666700","name":"Ban Lino"},{"id":"1403683","latitude":"19.65000000","longitude":"103.23333300","name":"Ban L\u00f4"},{"id":"1403715","latitude":"19.23333300","longitude":"103.93333300","name":"Ban Longho"},{"id":"1403722","latitude":"19.58305600","longitude":"103.60027800","name":"Ban Longkai"},{"id":"1403723","latitude":"19.58305600","longitude":"103.60027800","name":"Ban Longkaidan"},{"id":"1403731","latitude":"19.43666700","longitude":"102.92861100","name":"Ban Longkouan"},{"id":"1403732","latitude":"19.46666700","longitude":"104.05000000","name":"Ban Longkouang"},{"id":"1403751","latitude":"19.52777800","longitude":"103.98972200","name":"Ban Long O"},{"id":"1403758","latitude":"19.46666700","longitude":"104.05000000","name":"Ban Long Quang"},{"id":"1403771","latitude":"19.71083300","longitude":"103.68250000","name":"Ban Longthong"},{"id":"1403772","latitude":"19.10000000","longitude":"102.93333300","name":"Ban Longtiang"},{"id":"1403804","latitude":"19.53333300","longitude":"103.21666700","name":"Ban Louang"},{"id":"1403814","latitude":"19.33333300","longitude":"103.28333300","name":"Ban Lou"},{"id":"1403825","latitude":"19.33333300","longitude":"103.28333300","name":"Ban Louo"},{"id":"1403834","latitude":"19.53333300","longitude":"103.21666700","name":"Ban Luang"},{"id":"1403846","latitude":"19.26666700","longitude":"103.93333300","name":"Ban Ly Chang"},{"id":"1403850","latitude":"19.71666700","longitude":"103.23333300","name":"Ban Ma"},{"id":"1403869","latitude":"19.23333300","longitude":"103.26666700","name":"Ban Mai"},{"id":"1403927","latitude":"18.83333300","longitude":"103.80000000","name":"Ban Man"},{"id":"1403931","latitude":"19.52083300","longitude":"102.90416700","name":"Ban Mang"},{"id":"1403950","latitude":"19.23333300","longitude":"103.26666700","name":"Ban May"},{"id":"1403964","latitude":"19.63333300","longitude":"102.65000000","name":"Ban M\u00e8non"},{"id":"1403972","latitude":"19.77194400","longitude":"103.26888900","name":"Ban M\u00e8obo"},{"id":"1403996","latitude":"19.60000000","longitude":"103.31666700","name":"Ban Mian"},{"id":"1403997","latitude":"19.60000000","longitude":"103.31666700","name":"Ban Miang"},{"id":"1403998","latitude":"19.41277800","longitude":"103.10555600","name":"Ban Mi"},{"id":"1404001","latitude":"19.69000000","longitude":"103.22222200","name":"Ban Mixai"},{"id":"1404009","latitude":"19.16666700","longitude":"103.90000000","name":"Ban Mo"},{"id":"1404076","latitude":"19.56888900","longitude":"102.49333300","name":"Ban M\u00f4kk\u00f4k"},{"id":"1404153","latitude":"19.45000000","longitude":"103.24333300","name":"Ban Mon"},{"id":"1404156","latitude":"19.82833300","longitude":"103.94083300","name":"Ban Mone"},{"id":"1404161","latitude":"18.98333300","longitude":"103.61666700","name":"Ban Mong"},{"id":"1404165","latitude":"19.61666700","longitude":"103.25000000","name":"Ban Mong Pian"},{"id":"1404176","latitude":"19.57388900","longitude":"103.36000000","name":"Ban Mouan"},{"id":"1404184","latitude":"18.73333300","longitude":"103.70000000","name":"Ban Mouang"},{"id":"1404189","latitude":"19.80416700","longitude":"103.26361100","name":"Ban Mouanghio"},{"id":"1404209","latitude":"19.54555600","longitude":"103.11777800","name":"Ban Mouangpha"},{"id":"1404213","latitude":"15.46666700","longitude":"105.75000000","name":"Ban Mouangxoum"},{"id":"1404218","latitude":"19.83694400","longitude":"103.24861100","name":"Ban Mouay-Nua"},{"id":"1404231","latitude":"19.28333300","longitude":"103.51666700","name":"Ban Moulao"},{"id":"1404234","latitude":"19.21666700","longitude":"103.86666700","name":"Ban Moun"},{"id":"1404246","latitude":"19.82611100","longitude":"103.25444400","name":"Ban Muan"},{"id":"1404249","latitude":"18.73333300","longitude":"103.70000000","name":"Ban Muang"},{"id":"1404259","latitude":"19.66527800","longitude":"103.09416700","name":"Ban Muanghang"},{"id":"1404262","latitude":"20.09166700","longitude":"103.37388900","name":"Ban Muanghiam"},{"id":"1404277","latitude":"19.78777800","longitude":"103.48555600","name":"Ban Muangkhao"},{"id":"1404279","latitude":"19.66055600","longitude":"103.11472200","name":"Ban Muangkheung"},{"id":"1404291","latitude":"19.70750000","longitude":"103.02972200","name":"Ban Muangmian"},{"id":"1404293","latitude":"19.06666700","longitude":"103.96666700","name":"Ban Muang Mo"},{"id":"1404301","latitude":"19.15000000","longitude":"103.71666700","name":"Ban Muangngan"},{"id":"1404302","latitude":"19.08333300","longitude":"104.06666700","name":"Ban Muangngat"},{"id":"1404307","latitude":"19.20000000","longitude":"103.81666700","name":"Ban Muang Noy"},{"id":"1404308","latitude":"19.66027800","longitude":"103.33333300","name":"Ban Muangnoy"},{"id":"1404323","latitude":"19.74027800","longitude":"103.24916700","name":"Ban Muangs\u00e9ng"},{"id":"1404331","latitude":"19.40000000","longitude":"103.78333300","name":"Ban Muangxai Noy"},{"id":"1404336","latitude":"19.60000000","longitude":"103.13333300","name":"Ban Muay"},{"id":"1404338","latitude":"19.63333300","longitude":"103.41666700","name":"Ban Mu Lao"},{"id":"1404341","latitude":"19.60027800","longitude":"103.58166700","name":"Ban Mun"},{"id":"1404352","latitude":"19.60000000","longitude":"103.13333300","name":"Ban Muoi"},{"id":"1404359","latitude":"18.73333300","longitude":"103.70000000","name":"Ban Muong"},{"id":"1404375","latitude":"19.06666700","longitude":"103.96666700","name":"Ban Muong Mo"},{"id":"1404376","latitude":"19.15000000","longitude":"103.71666700","name":"Ban Muong Ngan"},{"id":"1404377","latitude":"19.08333300","longitude":"104.06666700","name":"Ban Muong Ngat"},{"id":"1404379","latitude":"19.20000000","longitude":"103.81666700","name":"Ban Muong Noi"},{"id":"1404382","latitude":"19.40000000","longitude":"103.78333300","name":"Ban Muong Sa\u00ef Noie"},{"id":"1404385","latitude":"15.46666700","longitude":"105.75000000","name":"Ban Muong Soum"},{"id":"1404387","latitude":"19.41277800","longitude":"103.10555600","name":"Ban My"},{"id":"1404396","latitude":"19.26666700","longitude":"103.11666700","name":"Ban Naban"},{"id":"1404404","latitude":"19.55000000","longitude":"102.91666700","name":"Ban Na"},{"id":"1404409","latitude":"19.26666700","longitude":"103.11666700","name":"Ban Na Bann"},{"id":"1404413","latitude":"19.28333300","longitude":"103.13333300","name":"Ban Nabin"},{"id":"1404414","latitude":"19.28333300","longitude":"103.13333300","name":"Ban Na Binh"},{"id":"1404419","latitude":"19.30000000","longitude":"103.10000000","name":"Ban Nabo"},{"id":"1404430","latitude":"16.98333300","longitude":"105.83333300","name":"Ban Nabon"},{"id":"1404431","latitude":"19.38861100","longitude":"103.30138900","name":"Ban Na Bon"},{"id":"1404432","latitude":"19.60305600","longitude":"103.12583300","name":"Ban Nabon"},{"id":"1404439","latitude":"16.98333300","longitude":"105.83333300","name":"Ban Na Bone"},{"id":"1404440","latitude":"18.65000000","longitude":"103.10000000","name":"Ban Nabone"},{"id":"1404442","latitude":"19.38861100","longitude":"103.30138900","name":"Ban Nab\u00f4ng"},{"id":"1404450","latitude":"19.48333300","longitude":"103.13333300","name":"Ban Naboua"},{"id":"1404457","latitude":"19.71666700","longitude":"103.65000000","name":"Ban Na Ca Deng"},{"id":"1404469","latitude":"19.30000000","longitude":"103.38333300","name":"Ban Nachan"},{"id":"1404479","latitude":"19.56666700","longitude":"103.65000000","name":"Ban Nachao"},{"id":"1404481","latitude":"19.56666700","longitude":"103.65000000","name":"Ban Na Chau"},{"id":"1404491","latitude":"19.53333300","longitude":"102.85000000","name":"Ban Na Com"},{"id":"1404492","latitude":"19.59805600","longitude":"103.68833300","name":"Ban Nada"},{"id":"1404494","latitude":"19.35166700","longitude":"103.78111100","name":"Ban Nadai"},{"id":"1404497","latitude":"19.05000000","longitude":"103.35000000","name":"Ban Na Dan"},{"id":"1404501","latitude":"19.43333300","longitude":"103.45000000","name":"Ban Nadao"},{"id":"1404506","latitude":"19.05000000","longitude":"103.35000000","name":"Ban Nad\u00e8ng"},{"id":"1404513","latitude":"18.95000000","longitude":"103.28333300","name":"Ban Nadi"},{"id":"1404517","latitude":"19.80000000","longitude":"103.36666700","name":"Ban Na Din Dang"},{"id":"1404518","latitude":"19.80000000","longitude":"103.36666700","name":"Ban Nadind\u00e8ng"},{"id":"1404519","latitude":"19.30000000","longitude":"103.15000000","name":"Ban Nadit"},{"id":"1404530","latitude":"19.73861100","longitude":"103.26250000","name":"Ban Nad\u00f4ng"},{"id":"1404541","latitude":"19.66583300","longitude":"103.61500000","name":"Ban Nadou"},{"id":"1404569","latitude":"19.45083300","longitude":"103.18388900","name":"Ban Naf\u00e8ng"},{"id":"1404573","latitude":"19.05000000","longitude":"103.31666700","name":"Ban Nafong"},{"id":"1404588","latitude":"18.71666700","longitude":"103.41666700","name":"Ban Nagnao"},{"id":"1404603","latitude":"19.59194400","longitude":"103.67138900","name":"Ban Nagnong"},{"id":"1404605","latitude":"19.18333300","longitude":"102.91666700","name":"Ban Nagnoung"},{"id":"1404606","latitude":"19.45000000","longitude":"103.25000000","name":"Ban Na Goi"},{"id":"1404607","latitude":"19.45000000","longitude":"103.25000000","name":"Ban Nagoy"},{"id":"1404611","latitude":"19.37722200","longitude":"103.13388900","name":"Ban Naha"},{"id":"1404618","latitude":"19.63333300","longitude":"103.21666700","name":"Ban Nahai"},{"id":"1404624","latitude":"18.73333300","longitude":"103.55000000","name":"Ban Nahan"},{"id":"1404627","latitude":"19.61666700","longitude":"103.15000000","name":"Ban Nahang"},{"id":"1404635","latitude":"19.28333300","longitude":"103.13333300","name":"Ban Nahat"},{"id":"1404647","latitude":"19.33333300","longitude":"103.61666700","name":"Ban Nahia"},{"id":"1404656","latitude":"19.63111100","longitude":"103.54305600","name":"Ban Na Hin"},{"id":"1404657","latitude":"19.63333300","longitude":"103.31666700","name":"Ban Nahin"},{"id":"1404662","latitude":"19.61666700","longitude":"103.15000000","name":"Ban Nahing"},{"id":"1404676","latitude":"19.36666700","longitude":"103.15000000","name":"Ban Na Hoi"},{"id":"1404679","latitude":"19.40000000","longitude":"103.03333300","name":"Ban Na Hom"},{"id":"1404680","latitude":"19.63333300","longitude":"103.28333300","name":"Ban Nah\u00f4m"},{"id":"1404689","latitude":"19.38333300","longitude":"103.05000000","name":"Ban Nahoua"},{"id":"1404710","latitude":"19.30000000","longitude":"103.11666700","name":"Ban Nahoung"},{"id":"1404715","latitude":"19.36666700","longitude":"103.15000000","name":"Ban Nahoy"},{"id":"1404719","latitude":"19.38333300","longitude":"103.05000000","name":"Ban Na Hua"},{"id":"1404722","latitude":"19.43555600","longitude":"103.11472200","name":"Ban Nahuang"},{"id":"1404726","latitude":"19.16666700","longitude":"103.53333300","name":"Ban Nai"},{"id":"1404744","latitude":"19.71666700","longitude":"103.65000000","name":"Ban Nakad\u00e8ng"},{"id":"1404753","latitude":"19.45000000","longitude":"103.21666700","name":"Ban Na Kak"},{"id":"1404762","latitude":"19.41666700","longitude":"102.66666700","name":"Ban Na Kam"},{"id":"1404771","latitude":"18.93333300","longitude":"103.45000000","name":"Ban Nakang"},{"id":"1404795","latitude":"19.45000000","longitude":"103.21666700","name":"Ban Nakat"},{"id":"1404827","latitude":"19.66666700","longitude":"103.16666700","name":"Ban Na Ken"},{"id":"1404834","latitude":"19.60000000","longitude":"103.25000000","name":"Ban Na Keo"},{"id":"1404835","latitude":"19.70888900","longitude":"103.22666700","name":"Ban Nak\u00e8o"},{"id":"1404837","latitude":"19.46666700","longitude":"103.18333300","name":"Ban Na Ket"},{"id":"1404838","latitude":"19.35000000","longitude":"103.21666700","name":"Ban Na Keua"},{"id":"1404846","latitude":"19.56666700","longitude":"103.05000000","name":"Ban Nakhai"},{"id":"1404857","latitude":"19.33333300","longitude":"103.41666700","name":"Ban Nakham"},{"id":"1404881","latitude":"19.98000000","longitude":"103.48222200","name":"Ban Nakhang"},{"id":"1404904","latitude":"19.40000000","longitude":"103.20000000","name":"Ban Nakh\u00e8n"},{"id":"1404922","latitude":"19.28333300","longitude":"103.08333300","name":"Ban Na Khoang"},{"id":"1404923","latitude":"19.37194400","longitude":"103.26666700","name":"Ban Nakhoay"},{"id":"1404928","latitude":"19.58333300","longitude":"103.05000000","name":"Ban Nakho"},{"id":"1404965","latitude":"18.96666700","longitude":"103.65000000","name":"Ban Nakhoun"},{"id":"1404977","latitude":"19.36666700","longitude":"103.05000000","name":"Ban Nakhuang"},{"id":"1404987","latitude":"19.28333300","longitude":"103.08333300","name":"Ban Nakoang"},{"id":"1405004","latitude":"19.53333300","longitude":"102.85000000","name":"Ban Nakom"},{"id":"1405007","latitude":"19.40000000","longitude":"103.16666700","name":"Ban Na Kon"},{"id":"1405009","latitude":"19.36666700","longitude":"103.05000000","name":"Ban Nakong"},{"id":"1405018","latitude":"19.65000000","longitude":"103.23333300","name":"Ban Na Koun"},{"id":"1405024","latitude":"19.96527800","longitude":"103.46527800","name":"Ban Nakout"},{"id":"1405030","latitude":"19.35000000","longitude":"103.21666700","name":"Ban Nakua"},{"id":"1405033","latitude":"18.76666700","longitude":"103.88333300","name":"Ban Na Kun"},{"id":"1405034","latitude":"19.64277800","longitude":"102.65722200","name":"Ban Nakun"},{"id":"1405053","latitude":"19.31666700","longitude":"103.10000000","name":"Ban Nalam"},{"id":"1405065","latitude":"19.31666700","longitude":"103.10000000","name":"Ban Na Lanh"},{"id":"1405069","latitude":"19.03333300","longitude":"103.41666700","name":"Ban Nalao"},{"id":"1405083","latitude":"19.36666700","longitude":"103.15000000","name":"Ban Nal\u00e8"},{"id":"1405097","latitude":"19.33750000","longitude":"103.38944400","name":"Ban Naliang"},{"id":"1405100","latitude":"19.33333300","longitude":"103.40000000","name":"Ban Nalin"},{"id":"1405102","latitude":"19.33333300","longitude":"103.40000000","name":"Ban Na Line"},{"id":"1405104","latitude":"19.44194400","longitude":"103.23250000","name":"Ban Naliou"},{"id":"1405112","latitude":"19.26666700","longitude":"103.60000000","name":"Ban Nalong"},{"id":"1405124","latitude":"19.35000000","longitude":"103.08333300","name":"Ban Nalouang"},{"id":"1405137","latitude":"19.35000000","longitude":"103.08333300","name":"Ban Na Louong"},{"id":"1405155","latitude":"19.43333300","longitude":"103.21666700","name":"Ban Nama"},{"id":"1405161","latitude":"19.46027800","longitude":"103.12333300","name":"Ban Na Mai"},{"id":"1405172","latitude":"19.28333300","longitude":"103.11666700","name":"Ban Naman"},{"id":"1405176","latitude":"19.28333300","longitude":"103.11666700","name":"Ban Na Manh"},{"id":"1405189","latitude":"19.46027800","longitude":"103.12333300","name":"Ban Namay"},{"id":"1405192","latitude":"19.37444400","longitude":"102.92305600","name":"Ban Nam"},{"id":"1405195","latitude":"19.36083300","longitude":"103.82472200","name":"Ban Nambeu"},{"id":"1405198","latitude":"19.63333300","longitude":"103.55000000","name":"Ban Nam Bo"},{"id":"1405203","latitude":"19.10000000","longitude":"103.96666700","name":"Ban Nambouak"},{"id":"1405209","latitude":"19.13333300","longitude":"102.91666700","name":"Ban Namcha"},{"id":"1405217","latitude":"19.48611100","longitude":"102.71805600","name":"Ban Namchat"},{"id":"1405218","latitude":"19.05000000","longitude":"103.51666700","name":"Ban Namch\u00e8"},{"id":"1405224","latitude":"19.23333300","longitude":"103.73333300","name":"Ban Namchong"},{"id":"1405238","latitude":"19.56666700","longitude":"103.25000000","name":"Ban Nam\u00e8n"},{"id":"1405239","latitude":"19.46277800","longitude":"103.99250000","name":"Ban Na Mene"},{"id":"1405242","latitude":"19.55000000","longitude":"102.91666700","name":"Ban Nam\u00e8o"},{"id":"1405245","latitude":"19.28333300","longitude":"103.10000000","name":"Ban Na Meu"},{"id":"1405248","latitude":"19.60472200","longitude":"103.47555600","name":"Ban Nameui"},{"id":"1405251","latitude":"18.91666700","longitude":"103.21666700","name":"Ban Namf\u00e8ng"},{"id":"1405253","latitude":"18.81666700","longitude":"103.85000000","name":"Ban Namfu"},{"id":"1405258","latitude":"18.86666700","longitude":"103.75000000","name":"Ban Nam Gnao"},{"id":"1405272","latitude":"19.76000000","longitude":"103.05666700","name":"Ban Namhang"},{"id":"1405281","latitude":"19.45777800","longitude":"103.29361100","name":"Ban Namh\u00f4k"},{"id":"1405285","latitude":"19.62361100","longitude":"103.96472200","name":"Ban Namhouay"},{"id":"1405295","latitude":"19.36666700","longitude":"103.20000000","name":"Ban Nami"},{"id":"1405307","latitude":"19.16666700","longitude":"102.76666700","name":"Ban Namkama"},{"id":"1405308","latitude":"19.21666700","longitude":"103.76666700","name":"Ban Namkamang"},{"id":"1405320","latitude":"19.49305600","longitude":"103.99194400","name":"Ban Nam Kauang"},{"id":"1405323","latitude":"19.37166700","longitude":"103.24305600","name":"Ban Namke"},{"id":"1405327","latitude":"19.18333300","longitude":"103.85000000","name":"Ban Nam Keng"},{"id":"1405328","latitude":"19.18333300","longitude":"103.85000000","name":"Ban Namk\u00e9ng Noy"},{"id":"1405338","latitude":"19.11666700","longitude":"103.16666700","name":"Ban Namkhang"},{"id":"1405340","latitude":"19.43333300","longitude":"103.18333300","name":"Ban Namkhao"},{"id":"1405342","latitude":"19.23333300","longitude":"103.90000000","name":"Ban Namkhaohou"},{"id":"1405360","latitude":"19.16666700","longitude":"103.86666700","name":"Ban Namkiao"},{"id":"1405364","latitude":"19.38333300","longitude":"103.25000000","name":"Ban Namk\u00f4"},{"id":"1405367","latitude":"19.45000000","longitude":"104.05000000","name":"Ban Namk\u00f4ng"},{"id":"1405368","latitude":"19.58888900","longitude":"103.75361100","name":"Ban Namkonmoua"},{"id":"1405371","latitude":"19.49305600","longitude":"103.99194400","name":"Ban Namkouang"},{"id":"1405385","latitude":"18.86666700","longitude":"103.75000000","name":"Ban Namlao"},{"id":"1405386","latitude":"19.30000000","longitude":"102.73333300","name":"Ban Nam Lao"},{"id":"1405398","latitude":"19.28333300","longitude":"103.20000000","name":"Ban Namliang"},{"id":"1405399","latitude":"19.56666700","longitude":"103.81666700","name":"Ban Namlianm\u00e8o"},{"id":"1405401","latitude":"19.56666700","longitude":"103.81666700","name":"Ban Nam Lien"},{"id":"1405402","latitude":"19.10000000","longitude":"103.86666700","name":"Ban Nam Lieng"},{"id":"1405403","latitude":"19.56666700","longitude":"103.81666700","name":"Ban Nam Lien Meo"},{"id":"1405413","latitude":"19.43333300","longitude":"103.61666700","name":"Ban Naml\u00f4ng"},{"id":"1405447","latitude":"19.46277800","longitude":"103.99250000","name":"Ban Namm\u00e9n"},{"id":"1405448","latitude":"19.46277800","longitude":"103.99250000","name":"Ban Nam Mene"},{"id":"1405449","latitude":"16.98333300","longitude":"105.83333300","name":"Ban Namm\u00e8ng"},{"id":"1405450","latitude":"19.56472200","longitude":"103.68527800","name":"Ban Namm\u00e9n-Tai"},{"id":"1405455","latitude":"19.00000000","longitude":"103.03333300","name":"Ban Nam Mo"},{"id":"1405459","latitude":"18.95000000","longitude":"103.95000000","name":"Ban Nam Mong"},{"id":"1405461","latitude":"19.82777800","longitude":"103.38250000","name":"Ban Nammouan"},{"id":"1405484","latitude":"19.11666700","longitude":"102.93333300","name":"Ban Namngoua"},{"id":"1405490","latitude":"18.68333300","longitude":"103.28333300","name":"Ban Nam Nhok Noy"},{"id":"1405494","latitude":"19.31666700","longitude":"102.56666700","name":"Ban Nam Noi"},{"id":"1405499","latitude":"19.31666700","longitude":"102.56666700","name":"Ban Namnoy"},{"id":"1405520","latitude":"19.34194400","longitude":"103.15527800","name":"Ban Namon"},{"id":"1405543","latitude":"16.80000000","longitude":"105.63333300","name":"Ban Namouang"},{"id":"1405553","latitude":"19.40000000","longitude":"102.66666700","name":"Ban Na Moung"},{"id":"1405558","latitude":"19.08333300","longitude":"102.96666700","name":"Ban Nam Pa"},{"id":"1405561","latitude":"18.75000000","longitude":"104.21666700","name":"Ban Nampaka"},{"id":"1405568","latitude":"19.35000000","longitude":"103.73333300","name":"Ban Nam Pang"},{"id":"1405569","latitude":"19.96666700","longitude":"103.76666700","name":"Ban Nampang"},{"id":"1405577","latitude":"19.08333300","longitude":"102.96666700","name":"Ban Nampat"},{"id":"1405579","latitude":"19.41500000","longitude":"103.23111100","name":"Ban Namp\u00e9"},{"id":"1405601","latitude":"19.38333300","longitude":"103.83333300","name":"Ban Namphi"},{"id":"1405612","latitude":"19.38333300","longitude":"103.83333300","name":"Ban Nam Phy"},{"id":"1405613","latitude":"19.57750000","longitude":"103.51361100","name":"Ban Nampiat"},{"id":"1405622","latitude":"19.37444400","longitude":"102.92305600","name":"Ban Nampit"},{"id":"1405632","latitude":"19.20000000","longitude":"104.00000000","name":"Ban Namp\u00f4ng"},{"id":"1405638","latitude":"18.71666700","longitude":"103.60000000","name":"Ban Nampou"},{"id":"1405646","latitude":"19.37444400","longitude":"102.92305600","name":"Ban Nampuk"},{"id":"1405648","latitude":"19.13333300","longitude":"103.85000000","name":"Ban Nam Pung"},{"id":"1405649","latitude":"18.96666700","longitude":"103.78333300","name":"Ban Nam Puock"},{"id":"1405654","latitude":"19.53500000","longitude":"102.47833300","name":"Ban Namsa"},{"id":"1405665","latitude":"19.18333300","longitude":"103.81666700","name":"Ban Nam Sao"},{"id":"1405666","latitude":"19.23333300","longitude":"103.28333300","name":"Ban Nam Sap"},{"id":"1405669","latitude":"19.78472200","longitude":"103.17444400","name":"Ban Nams\u00e8"},{"id":"1405679","latitude":"19.23333300","longitude":"102.75000000","name":"Ban Nam S\u00f4"},{"id":"1405680","latitude":"19.71666700","longitude":"103.23333300","name":"Ban Nam Sone"},{"id":"1405682","latitude":"19.20000000","longitude":"103.80000000","name":"Ban Namsong"},{"id":"1405695","latitude":"15.45000000","longitude":"105.81666700","name":"Ban Nam Ten"},{"id":"1405703","latitude":"15.45000000","longitude":"105.81666700","name":"Ban Namth\u00e8ng"},{"id":"1405705","latitude":"19.05000000","longitude":"103.51666700","name":"Ban Nam Thie"},{"id":"1405708","latitude":"18.98333300","longitude":"103.26666700","name":"Ban Namthong"},{"id":"1405711","latitude":"19.56888900","longitude":"103.55888900","name":"Ban Namthoum"},{"id":"1405712","latitude":"19.83972200","longitude":"103.20694400","name":"Ban Namthoun"},{"id":"1405715","latitude":"19.13333300","longitude":"102.91666700","name":"Ban Nam Tia"},{"id":"1405716","latitude":"19.54527800","longitude":"103.72750000","name":"Ban Namtian"},{"id":"1405724","latitude":"19.30000000","longitude":"103.11666700","name":"Ban Namtom"},{"id":"1405729","latitude":"19.40000000","longitude":"103.18333300","name":"Ban Nam T\u00f4un"},{"id":"1405740","latitude":"19.40000000","longitude":"102.66666700","name":"Ban Namuang"},{"id":"1405744","latitude":"19.28333300","longitude":"103.10000000","name":"Ban Namu"},{"id":"1405745","latitude":"19.28333300","longitude":"103.10000000","name":"Ban Na Mue"},{"id":"1405746","latitude":"19.65583300","longitude":"103.57888900","name":"Ban Namun"},{"id":"1405753","latitude":"16.80000000","longitude":"105.63333300","name":"Ban Na Muong"},{"id":"1405767","latitude":"19.18333300","longitude":"103.81666700","name":"Ban Namxao"},{"id":"1405770","latitude":"19.55666700","longitude":"102.57694400","name":"Ban Namxeun"},{"id":"1405772","latitude":"19.23333300","longitude":"102.75000000","name":"Ban Namxo"},{"id":"1405773","latitude":"18.83333300","longitude":"103.53333300","name":"Ban Namxon"},{"id":"1405775","latitude":"19.56222200","longitude":"102.97027800","name":"Ban Namxong"},{"id":"1405797","latitude":"19.05000000","longitude":"103.48333300","name":"Ban Nanat"},{"id":"1405801","latitude":"19.05000000","longitude":"103.48333300","name":"Ban Na Net"},{"id":"1405806","latitude":"19.30000000","longitude":"103.16666700","name":"Ban Nangam"},{"id":"1405814","latitude":"18.95000000","longitude":"103.25000000","name":"Ban Nangeun"},{"id":"1405832","latitude":"19.45000000","longitude":"103.25000000","name":"Ban Na Ngoi"},{"id":"1405840","latitude":"19.71361100","longitude":"103.22972200","name":"Ban Nangoua"},{"id":"1405843","latitude":"19.31666700","longitude":"103.50000000","name":"Ban Nangoy"},{"id":"1405851","latitude":"19.62388900","longitude":"103.13916700","name":"Ban Nangum"},{"id":"1405852","latitude":"19.62388900","longitude":"103.13916700","name":"Ban Na Ngum"},{"id":"1405859","latitude":"18.71666700","longitude":"103.41666700","name":"Ban Na Nhao"},{"id":"1405861","latitude":"19.36666700","longitude":"103.08333300","name":"Ban Na Nhea"},{"id":"1405862","latitude":"19.36861100","longitude":"103.63000000","name":"Ban Na Nhiam"},{"id":"1405870","latitude":"19.18333300","longitude":"102.91666700","name":"Ban Na Nhung"},{"id":"1405875","latitude":"18.95000000","longitude":"103.26666700","name":"Ban Na Nio"},{"id":"1405877","latitude":"18.95000000","longitude":"103.26666700","name":"Ban Naniou"},{"id":"1405878","latitude":"19.36972200","longitude":"103.27000000","name":"Ban Na Nioun"},{"id":"1405881","latitude":"19.40777800","longitude":"103.20833300","name":"Ban Nan\u00f4"},{"id":"1405886","latitude":"19.55000000","longitude":"103.13333300","name":"Ban Na Noi"},{"id":"1405895","latitude":"19.65000000","longitude":"103.28333300","name":"Ban Nanong"},{"id":"1405903","latitude":"19.40777800","longitude":"103.20833300","name":"Ban Na Noo"},{"id":"1405908","latitude":"19.40777800","longitude":"103.20833300","name":"Ban Nanou"},{"id":"1405914","latitude":"18.95000000","longitude":"103.26666700","name":"Ban Na Noy"},{"id":"1405915","latitude":"19.55000000","longitude":"103.13333300","name":"Ban Nanoy"},{"id":"1405922","latitude":"19.37694400","longitude":"103.19666700","name":"Ban Na-O"},{"id":"1405929","latitude":"19.40000000","longitude":"103.03333300","name":"Ban Na-Om"},{"id":"1405937","latitude":"19.35138900","longitude":"103.33500000","name":"Ban Na-Ou"},{"id":"1405939","latitude":"19.62333300","longitude":"103.62333300","name":"Ban Na-Oung"},{"id":"1405944","latitude":"19.59166700","longitude":"103.66027800","name":"Ban Napa"},{"id":"1405952","latitude":"19.73083300","longitude":"103.24638900","name":"Ban Napang-Nua"},{"id":"1405953","latitude":"19.72833300","longitude":"103.24305600","name":"Ban Napang-Tai"},{"id":"1405961","latitude":"19.63333300","longitude":"103.26666700","name":"Ban Nap\u00e8n"},{"id":"1405967","latitude":"19.55000000","longitude":"103.21666700","name":"Ban Napha"},{"id":"1405995","latitude":"19.28333300","longitude":"103.10000000","name":"Ban Naphia"},{"id":"1406010","latitude":"18.65000000","longitude":"103.08333300","name":"Ban Naph\u00f4"},{"id":"1406025","latitude":"19.26666700","longitude":"103.13333300","name":"Ban Naph\u00f4n"},{"id":"1406031","latitude":"19.05000000","longitude":"103.31666700","name":"Ban Na Phong"},{"id":"1406032","latitude":"19.44666700","longitude":"103.23444400","name":"Ban Naph\u00f4ng"},{"id":"1406041","latitude":"15.45000000","longitude":"105.76666700","name":"Ban Na Phon Trao"},{"id":"1406053","latitude":"15.45000000","longitude":"105.76666700","name":"Ban Naphoulao"},{"id":"1406060","latitude":"19.28333300","longitude":"103.10000000","name":"Ban Na Pia"},{"id":"1406062","latitude":"19.61444400","longitude":"103.02388900","name":"Ban Na Pig"},{"id":"1406063","latitude":"19.61444400","longitude":"103.02388900","name":"Ban Napik"},{"id":"1406065","latitude":"19.63333300","longitude":"103.31666700","name":"Ban Na Pon"},{"id":"1406082","latitude":"19.28333300","longitude":"103.10000000","name":"Ban Nasa"},{"id":"1406083","latitude":"19.58333300","longitude":"103.25000000","name":"Ban Na Sa"},{"id":"1406092","latitude":"18.96666700","longitude":"103.61666700","name":"Ban Na Sai"},{"id":"1406100","latitude":"19.58916700","longitude":"103.46361100","name":"Ban Nasala"},{"id":"1406115","latitude":"19.31666700","longitude":"103.41666700","name":"Ban Nasan"},{"id":"1406126","latitude":"19.31666700","longitude":"103.41666700","name":"Ban Na Sanh"},{"id":"1406132","latitude":"19.65000000","longitude":"102.96666700","name":"Ban Na Sao"},{"id":"1406133","latitude":"19.23333300","longitude":"103.28333300","name":"Ban Nasap"},{"id":"1406151","latitude":"19.21666700","longitude":"102.73333300","name":"Ban Na Seng"},{"id":"1406157","latitude":"19.65000000","longitude":"102.96666700","name":"Ban Na Seo"},{"id":"1406160","latitude":"19.63333300","longitude":"103.60000000","name":"Ban Nasi"},{"id":"1406163","latitude":"19.62055600","longitude":"103.65972200","name":"Ban Nasim"},{"id":"1406164","latitude":"19.62055600","longitude":"103.65972200","name":"Ban Na Sin"},{"id":"1406168","latitude":"19.31666700","longitude":"103.40000000","name":"Ban Na Soi"},{"id":"1406170","latitude":"18.96666700","longitude":"103.28333300","name":"Ban Nas\u00f4m"},{"id":"1406171","latitude":"19.60000000","longitude":"102.98333300","name":"Ban Na Som"},{"id":"1406175","latitude":"18.83333300","longitude":"103.53333300","name":"Ban Na Son"},{"id":"1406182","latitude":"19.69222200","longitude":"103.11888900","name":"Ban Nas\u00f4ng"},{"id":"1406187","latitude":"19.38333300","longitude":"103.08333300","name":"Ban Na Sou"},{"id":"1406191","latitude":"19.31666700","longitude":"103.40000000","name":"Ban Nasoy"},{"id":"1406212","latitude":"15.45000000","longitude":"105.80000000","name":"Ban Na Tan"},{"id":"1406223","latitude":"15.45000000","longitude":"105.80000000","name":"Ban Natanx\u00e9"},{"id":"1406237","latitude":"19.35000000","longitude":"103.21666700","name":"Ban Nateu"},{"id":"1406246","latitude":"19.55000000","longitude":"103.11666700","name":"Ban Na Thac"},{"id":"1406248","latitude":"19.21666700","longitude":"103.16666700","name":"Ban Natham"},{"id":"1406253","latitude":"19.63333300","longitude":"103.26666700","name":"Ban Nathan"},{"id":"1406263","latitude":"19.55000000","longitude":"103.11666700","name":"Ban Nathao"},{"id":"1406267","latitude":"19.65000000","longitude":"103.58333300","name":"Ban Nath\u00e8"},{"id":"1406273","latitude":"19.28333300","longitude":"103.11666700","name":"Ban Nath\u00e8ng"},{"id":"1406275","latitude":"19.26666700","longitude":"103.11666700","name":"Ban Natheu"},{"id":"1406288","latitude":"19.36666700","longitude":"103.16666700","name":"Ban Na Thom"},{"id":"1406309","latitude":"19.45000000","longitude":"102.63333300","name":"Ban Nathong"},{"id":"1406318","latitude":"19.53333300","longitude":"103.58333300","name":"Ban Nathoun"},{"id":"1406327","latitude":"19.38111100","longitude":"103.29500000","name":"Ban Nato"},{"id":"1406329","latitude":"19.36666700","longitude":"103.16666700","name":"Ban Natom"},{"id":"1406331","latitude":"18.75000000","longitude":"103.71666700","name":"Ban Na Ton"},{"id":"1406342","latitude":"19.66861100","longitude":"103.54472200","name":"Ban Natoum"},{"id":"1406344","latitude":"19.70000000","longitude":"103.23333300","name":"Ban Natoun"},{"id":"1406359","latitude":"18.75000000","longitude":"103.56666700","name":"Ban Na Va"},{"id":"1406363","latitude":"18.75000000","longitude":"103.56666700","name":"Ban Navan"},{"id":"1406368","latitude":"19.18333300","longitude":"102.91666700","name":"Ban Navang"},{"id":"1406372","latitude":"19.30000000","longitude":"103.11666700","name":"Ban Na Vann"},{"id":"1406387","latitude":"19.45000000","longitude":"103.26666700","name":"Ban Naviang"},{"id":"1406390","latitude":"19.55000000","longitude":"103.21666700","name":"Ban Na Vieng"},{"id":"1406394","latitude":"19.55000000","longitude":"103.21666700","name":"Ban Na Viong"},{"id":"1406396","latitude":"19.58333300","longitude":"103.25000000","name":"Ban Naxa"},{"id":"1406400","latitude":"19.34333300","longitude":"103.36916700","name":"Ban Naxai"},{"id":"1406410","latitude":"19.62944400","longitude":"103.30916700","name":"Ban Naxang"},{"id":"1406414","latitude":"19.65000000","longitude":"102.96666700","name":"Ban Naxao"},{"id":"1406422","latitude":"18.96666700","longitude":"103.61666700","name":"Ban Naxay"},{"id":"1406430","latitude":"19.21666700","longitude":"102.73333300","name":"Ban Nax\u00e8ng"},{"id":"1406433","latitude":"19.41666700","longitude":"103.60000000","name":"Ban Naxia"},{"id":"1406434","latitude":"19.36861100","longitude":"103.63000000","name":"Ban Naxiang"},{"id":"1406447","latitude":"19.41666700","longitude":"103.06666700","name":"Ban Naxon"},{"id":"1406454","latitude":"19.38333300","longitude":"103.08333300","name":"Ban Naxou"},{"id":"1406456","latitude":"19.45000000","longitude":"103.20000000","name":"Ban Naxoy"},{"id":"1406462","latitude":"19.16666700","longitude":"103.53333300","name":"Ban Nay"},{"id":"1406465","latitude":"19.48333300","longitude":"104.05000000","name":"Ban Nay Nam"},{"id":"1406469","latitude":"19.05000000","longitude":"103.51666700","name":"Ban Nem Thie"},{"id":"1406470","latitude":"19.71194400","longitude":"103.86472200","name":"Ban Neng"},{"id":"1406474","latitude":"19.69222200","longitude":"103.11888900","name":"Ban Ne Som"},{"id":"1406478","latitude":"19.56666700","longitude":"103.31666700","name":"Ban Ngam"},{"id":"1406480","latitude":"19.60000000","longitude":"103.31666700","name":"Ban Ngan"},{"id":"1406488","latitude":"19.60000000","longitude":"103.31666700","name":"Ban Ngar"},{"id":"1406492","latitude":"19.59638900","longitude":"103.66888900","name":"Ban Ng\u00e8o"},{"id":"1406494","latitude":"19.31666700","longitude":"103.50000000","name":"Ban Nghao"},{"id":"1406495","latitude":"19.59638900","longitude":"103.66888900","name":"Ban Ngheo"},{"id":"1406505","latitude":"19.34277800","longitude":"103.35444400","name":"Ban Ngiou"},{"id":"1406508","latitude":"18.93333300","longitude":"103.70000000","name":"Ban Ngiou Gnai"},{"id":"1406509","latitude":"18.95000000","longitude":"103.66666700","name":"Ban Ngiou Noy"},{"id":"1406513","latitude":"19.45000000","longitude":"103.18333300","name":"Ban Ngoi"},{"id":"1406518","latitude":"19.56527800","longitude":"103.34361100","name":"Ban Ng\u00f4n"},{"id":"1406523","latitude":"19.34944400","longitude":"103.16277800","name":"Ban Ngoua"},{"id":"1406526","latitude":"19.06666700","longitude":"104.10000000","name":"Ban Ngouangmou"},{"id":"1406527","latitude":"19.34944400","longitude":"103.16277800","name":"Ban Ngoua-Nua"},{"id":"1406528","latitude":"19.34472200","longitude":"103.17638900","name":"Ban Ngoua-Tai"},{"id":"1406529","latitude":"19.46166700","longitude":"103.18722200","name":"Ban Ng\u00f4y"},{"id":"1406547","latitude":"19.69388900","longitude":"104.14638900","name":"Ban Nhan Song"},{"id":"1406555","latitude":"19.53333300","longitude":"103.15000000","name":"Ban Nhieu"},{"id":"1406563","latitude":"19.59194400","longitude":"103.67138900","name":"Ban Nhong"},{"id":"1406566","latitude":"19.50000000","longitude":"104.05000000","name":"Ban Nhot Chang"},{"id":"1406567","latitude":"19.40027800","longitude":"103.92000000","name":"Ban Nhot Houei Pa"},{"id":"1406569","latitude":"19.53250000","longitude":"103.81583300","name":"Ban Nhot Kha Nhay"},{"id":"1406579","latitude":"19.61666700","longitude":"103.11666700","name":"Ban Nhoum"},{"id":"1406584","latitude":"19.60000000","longitude":"103.65000000","name":"Ban Niang"},{"id":"1406588","latitude":"19.73416700","longitude":"102.93583300","name":"Ban Niao"},{"id":"1406589","latitude":"19.53333300","longitude":"103.80888900","name":"Ban Niat Houay"},{"id":"1406590","latitude":"19.60000000","longitude":"103.65000000","name":"Ban Nieng"},{"id":"1406595","latitude":"19.53333300","longitude":"103.80888900","name":"Ban Niot Houay"},{"id":"1406596","latitude":"19.48333300","longitude":"103.76666700","name":"Ban Niot Khang"},{"id":"1406597","latitude":"19.48333300","longitude":"103.76666700","name":"Ban Niot Khong"},{"id":"1406598","latitude":"19.36972200","longitude":"103.27000000","name":"Ban Nioun"},{"id":"1406599","latitude":"18.95000000","longitude":"103.66666700","name":"Ban Niou Noi"},{"id":"1406600","latitude":"19.60000000","longitude":"103.31666700","name":"Ban Noan"},{"id":"1406602","latitude":"19.78333300","longitude":"103.95000000","name":"Ban No"},{"id":"1406610","latitude":"19.20000000","longitude":"103.65000000","name":"Ban Noi"},{"id":"1406612","latitude":"19.43305600","longitude":"103.25694400","name":"Ban N\u00f4k"},{"id":"1406627","latitude":"19.62111100","longitude":"103.61138900","name":"Ban N\u00f4n"},{"id":"1406662","latitude":"19.53333300","longitude":"103.21666700","name":"Ban Nong"},{"id":"1406677","latitude":"19.62111100","longitude":"103.61138900","name":"Ban Nongbon"},{"id":"1406729","latitude":"19.60694400","longitude":"103.05277800","name":"Ban Nongfay"},{"id":"1406733","latitude":"19.49361100","longitude":"103.29472200","name":"Ban Nonggnama"},{"id":"1406748","latitude":"15.43333300","longitude":"105.80000000","name":"Ban Nongh\u00e9n"},{"id":"1406751","latitude":"19.48138900","longitude":"103.98888900","name":"Ban Nongh\u00e8t"},{"id":"1406770","latitude":"15.46666700","longitude":"105.80000000","name":"Ban Nong Hoi"},{"id":"1406772","latitude":"19.43333300","longitude":"103.11666700","name":"Ban Nong-Hon"},{"id":"1406784","latitude":"15.46666700","longitude":"105.80000000","name":"Ban Nonghoy"},{"id":"1406799","latitude":"19.56194400","longitude":"102.91833300","name":"Ban Nongkang"},{"id":"1406803","latitude":"18.45000000","longitude":"103.41666700","name":"Ban Nongkeun"},{"id":"1406814","latitude":"18.91666700","longitude":"103.16666700","name":"Ban Nongkhang"},{"id":"1406825","latitude":"18.45000000","longitude":"103.41666700","name":"Ban Nong Kheune"},{"id":"1406827","latitude":"19.37555600","longitude":"103.71888900","name":"Ban Nongkhiao"},{"id":"1406831","latitude":"19.48333300","longitude":"103.96666700","name":"Ban Nong Khieu"},{"id":"1406839","latitude":"19.36666700","longitude":"103.66666700","name":"Ban Nongkia"},{"id":"1406846","latitude":"19.73138900","longitude":"103.27555600","name":"Ban Nongkoang"},{"id":"1406859","latitude":"19.38333300","longitude":"103.66666700","name":"Ban Nongla"},{"id":"1406867","latitude":"19.50972200","longitude":"103.87388900","name":"Ban Nongl\u00e8"},{"id":"1406872","latitude":"15.48333300","longitude":"105.85000000","name":"Ban Nongl\u00f4m"},{"id":"1406915","latitude":"19.21666700","longitude":"103.90000000","name":"Ban Nong-O"},{"id":"1406916","latitude":"19.52777800","longitude":"103.98972200","name":"Ban Nong-O-Gnai"},{"id":"1406919","latitude":"19.33333300","longitude":"102.68333300","name":"Ban Nong-On"},{"id":"1406921","latitude":"19.33333300","longitude":"102.68333300","name":"Ban Nong One"},{"id":"1406922","latitude":"19.52861100","longitude":"103.97444400","name":"Ban Nong-O-Noy"},{"id":"1406929","latitude":"18.75000000","longitude":"102.90000000","name":"Ban Nong Pao"},{"id":"1406949","latitude":"18.67083300","longitude":"102.93750000","name":"Ban Nong Phao"},{"id":"1406964","latitude":"19.36722200","longitude":"103.31277800","name":"Ban Nongphu"},{"id":"1406980","latitude":"19.53777800","longitude":"103.91638900","name":"Ban Nongsamch\u00e8"},{"id":"1406981","latitude":"19.53777800","longitude":"103.91638900","name":"Ban Nong Sam Tie"},{"id":"1407012","latitude":"19.31666700","longitude":"103.18333300","name":"Ban Nongtai"},{"id":"1407017","latitude":"19.51805600","longitude":"102.87472200","name":"Ban Nongtang"},{"id":"1407022","latitude":"15.50000000","longitude":"105.76666700","name":"Ban Nong Ten"},{"id":"1407023","latitude":"15.50000000","longitude":"105.76666700","name":"Ban Nongt\u00e8ng"},{"id":"1407025","latitude":"19.31666700","longitude":"103.18333300","name":"Ban Nong Teu"},{"id":"1407055","latitude":"19.50527800","longitude":"103.96083300","name":"Ban Nongxang"},{"id":"1407066","latitude":"19.43333300","longitude":"103.11666700","name":"Ban Non Hon"},{"id":"1407072","latitude":"19.36666700","longitude":"103.66666700","name":"Ban Non Kia"},{"id":"1407077","latitude":"19.65000000","longitude":"103.28333300","name":"Ban No Nong"},{"id":"1407109","latitude":"19.20000000","longitude":"103.65000000","name":"Ban Noy"},{"id":"1407116","latitude":"18.91666700","longitude":"103.16666700","name":"Ban Nung Kang"},{"id":"1407121","latitude":"19.85000000","longitude":"103.75000000","name":"Ban O"},{"id":"1407130","latitude":"19.28333300","longitude":"103.55000000","name":"Ban \u00d4m"},{"id":"1407166","latitude":"19.47138900","longitude":"102.69361100","name":"Ban Oud\u00f4m"},{"id":"1407209","latitude":"18.70000000","longitude":"103.03333300","name":"Ban Pacpeup"},{"id":"1407221","latitude":"19.30000000","longitude":"103.56666700","name":"Ban Pae He"},{"id":"1407225","latitude":"18.86666700","longitude":"103.68333300","name":"Ban Pagnou"},{"id":"1407226","latitude":"18.86666700","longitude":"103.68333300","name":"Ban Pagnoung"},{"id":"1407233","latitude":"19.51666700","longitude":"104.00000000","name":"Ban Pahin"},{"id":"1407234","latitude":"19.55000000","longitude":"103.80000000","name":"Ban Pa Hine Nhay"},{"id":"1407235","latitude":"19.55000000","longitude":"103.80000000","name":"Ban Pa Hine Noi"},{"id":"1407236","latitude":"19.55000000","longitude":"103.80000000","name":"Ban Pahin Gnai"},{"id":"1407237","latitude":"19.45000000","longitude":"104.00000000","name":"Ban Pa Hin Noi"},{"id":"1407238","latitude":"19.45000000","longitude":"104.00000000","name":"Ban Pahin Noy"},{"id":"1407242","latitude":"19.58666700","longitude":"103.97027800","name":"Ban Pah\u00f4k"},{"id":"1407248","latitude":"19.55000000","longitude":"103.23333300","name":"Ban Pai"},{"id":"1407253","latitude":"18.75000000","longitude":"104.21666700","name":"Ban Pa Ka"},{"id":"1407254","latitude":"19.48333300","longitude":"104.03333300","name":"Ban Paka Gnai"},{"id":"1407256","latitude":"19.48333300","longitude":"104.03333300","name":"Ban Paka Noy"},{"id":"1407289","latitude":"19.41027800","longitude":"103.54416700","name":"Ban Pakha"},{"id":"1407295","latitude":"19.43500000","longitude":"103.57083300","name":"Ban Pakha-Noy"},{"id":"1407301","latitude":"19.40000000","longitude":"103.18333300","name":"Ban Pa Kh\u00eai"},{"id":"1407305","latitude":"19.60305600","longitude":"103.81527800","name":"Ban Pakho"},{"id":"1407310","latitude":"19.49000000","longitude":"103.91861100","name":"Ban Pa Khom Noi"},{"id":"1407311","latitude":"19.49000000","longitude":"103.91861100","name":"Ban Pakh\u00f4m Noy"},{"id":"1407315","latitude":"19.64055600","longitude":"103.83750000","name":"Ban Pakho-Nua"},{"id":"1407343","latitude":"19.41027800","longitude":"103.54416700","name":"Ban Pakkha"},{"id":"1407351","latitude":"19.49000000","longitude":"103.91861100","name":"Ban Pakkh\u00f4m"},{"id":"1407365","latitude":"19.26666700","longitude":"103.45000000","name":"Ban Pak Leung"},{"id":"1407379","latitude":"18.71666700","longitude":"103.26666700","name":"Ban Pak Mo Nung"},{"id":"1407403","latitude":"19.40000000","longitude":"103.16666700","name":"Ban Pakon"},{"id":"1407423","latitude":"19.20000000","longitude":"103.91666700","name":"Ban Pakp\u00e9ng"},{"id":"1407457","latitude":"18.75000000","longitude":"104.21666700","name":"Ban Pak Ta"},{"id":"1407472","latitude":"15.46666700","longitude":"105.80000000","name":"Ban Pakthouang"},{"id":"1407481","latitude":"15.46666700","longitude":"105.80000000","name":"Ban Pak Touang"},{"id":"1407486","latitude":"19.83166700","longitude":"102.98222200","name":"Ban Pakvang"},{"id":"1407488","latitude":"19.21666700","longitude":"103.70000000","name":"Ban Pak Xa"},{"id":"1407508","latitude":"19.21666700","longitude":"103.41666700","name":"Ban Pa Lan"},{"id":"1407510","latitude":"19.21666700","longitude":"103.43333300","name":"Ban Palan Gnai"},{"id":"1407511","latitude":"19.21666700","longitude":"103.41666700","name":"Ban Palan Noy"},{"id":"1407536","latitude":"19.58333300","longitude":"103.78333300","name":"Ban Paloy"},{"id":"1407539","latitude":"19.38333300","longitude":"102.94944400","name":"Ban Pamailouang"},{"id":"1407542","latitude":"19.43833300","longitude":"103.39222200","name":"Ban Pamkhan"},{"id":"1407554","latitude":"19.73333300","longitude":"103.25000000","name":"Ban Pang"},{"id":"1407588","latitude":"19.55000000","longitude":"103.80000000","name":"Ban Pa Nine Nhay"},{"id":"1407589","latitude":"19.55000000","longitude":"103.80000000","name":"Ban Pa Nine Noi"},{"id":"1407599","latitude":"19.65000000","longitude":"102.71666700","name":"Ban Pao"},{"id":"1407608","latitude":"19.50000000","longitude":"104.10000000","name":"Ban Papian"},{"id":"1407609","latitude":"19.50000000","longitude":"104.10000000","name":"Ban Pa Piene"},{"id":"1407614","latitude":"19.75000000","longitude":"104.10000000","name":"Ban Pa Sang Sam"},{"id":"1407634","latitude":"19.03333300","longitude":"103.91666700","name":"Ban Patho"},{"id":"1407642","latitude":"15.46666700","longitude":"105.88333300","name":"Ban Pat Soum"},{"id":"1407643","latitude":"15.48333300","longitude":"105.81666700","name":"Ban Pat Soum Noy"},{"id":"1407646","latitude":"15.46666700","longitude":"105.88333300","name":"Ban Patxoum"},{"id":"1407653","latitude":"19.83333300","longitude":"103.41666700","name":"Ban Pa Vang"},{"id":"1407672","latitude":"19.30000000","longitude":"103.56666700","name":"Ban Pec H\u00e9"},{"id":"1407678","latitude":"19.63333300","longitude":"103.26666700","name":"Ban Pen"},{"id":"1407687","latitude":"16.65000000","longitude":"106.43333300","name":"Ban P\u00e9rang Noy"},{"id":"1407692","latitude":"19.55472200","longitude":"103.37750000","name":"Ban P\u00e9t"},{"id":"1407698","latitude":"19.61666700","longitude":"103.26666700","name":"Ban Peui"},{"id":"1407702","latitude":"19.56666700","longitude":"103.13333300","name":"Ban Peum"},{"id":"1407704","latitude":"19.56666700","longitude":"103.13333300","name":"Ban Peun"},{"id":"1407705","latitude":"19.15000000","longitude":"103.53333300","name":"Ban Peung"},{"id":"1407706","latitude":"19.56666700","longitude":"103.13333300","name":"Ban Peunn"},{"id":"1407707","latitude":"19.61666700","longitude":"103.26666700","name":"Ban Peuy"},{"id":"1407714","latitude":"19.16666700","longitude":"103.25000000","name":"Ban Pha"},{"id":"1407716","latitude":"19.35722200","longitude":"102.98027800","name":"Ban Pha Beng"},{"id":"1407718","latitude":"19.78555600","longitude":"104.07972200","name":"Ban Phabong"},{"id":"1407720","latitude":"19.41083300","longitude":"103.64166700","name":"Ban Phaboun"},{"id":"1407721","latitude":"19.53777800","longitude":"103.78916700","name":"Ban Phac Boun"},{"id":"1407723","latitude":"19.50527800","longitude":"103.73944400","name":"Ban Phac Ken"},{"id":"1407734","latitude":"19.35722200","longitude":"102.98027800","name":"Ban Phad\u00e8ng"},{"id":"1407740","latitude":"19.50527800","longitude":"103.73944400","name":"Ban Pha-En"},{"id":"1407752","latitude":"19.45000000","longitude":"103.78333300","name":"Ban Phahan"},{"id":"1407753","latitude":"19.45000000","longitude":"103.78333300","name":"Ban Pha Hane"},{"id":"1407759","latitude":"18.93333300","longitude":"103.11666700","name":"Ban Pha Hoa"},{"id":"1407762","latitude":"19.46083300","longitude":"103.80222200","name":"Ban Phah\u00f4k"},{"id":"1407765","latitude":"20.01666700","longitude":"103.71666700","name":"Ban Phahom"},{"id":"1407773","latitude":"19.30000000","longitude":"103.16666700","name":"Ban Phai"},{"id":"1407775","latitude":"19.46666700","longitude":"103.16666700","name":"Ban Phai Khanh"},{"id":"1407784","latitude":"19.48333300","longitude":"104.03333300","name":"Ban Pha Ka Nhay"},{"id":"1407785","latitude":"19.48333300","longitude":"104.03333300","name":"Ban Pha Ka Noi"},{"id":"1407791","latitude":"19.53777800","longitude":"103.78916700","name":"Ban Phakboun"},{"id":"1407793","latitude":"19.50527800","longitude":"103.73944400","name":"Ban Pha Ken"},{"id":"1407796","latitude":"19.50750000","longitude":"103.44222200","name":"Ban Phak\u00e8o"},{"id":"1407801","latitude":"19.25000000","longitude":"103.48333300","name":"Ban Phak-Hai"},{"id":"1407807","latitude":"19.05000000","longitude":"103.00000000","name":"Ban Pha Khao"},{"id":"1407808","latitude":"19.36416700","longitude":"102.96333300","name":"Ban Phakhao"},{"id":"1407812","latitude":"19.30000000","longitude":"103.56666700","name":"Ban Phak-H\u00e8"},{"id":"1407829","latitude":"19.55555600","longitude":"103.36083300","name":"Ban Phakkat"},{"id":"1407831","latitude":"19.50527800","longitude":"103.73944400","name":"Ban Phakk\u00e8n"},{"id":"1407838","latitude":"19.54805600","longitude":"103.59638900","name":"Ban Phakkok"},{"id":"1407841","latitude":"19.50055600","longitude":"103.94194400","name":"Ban Ph\u00e1klak"},{"id":"1407843","latitude":"19.03333300","longitude":"103.53333300","name":"Ban Phak-Lan"},{"id":"1407846","latitude":"19.26666700","longitude":"103.45000000","name":"Ban Phak-Leung"},{"id":"1407848","latitude":"19.43333300","longitude":"104.01666700","name":"Ban Phak Mone"},{"id":"1407849","latitude":"18.71666700","longitude":"103.26666700","name":"Ban Phakmonung"},{"id":"1407858","latitude":"19.21666700","longitude":"103.70000000","name":"Ban Phaksa"},{"id":"1407862","latitude":"19.50138900","longitude":"103.81944400","name":"Ban Phakvay"},{"id":"1407875","latitude":"19.41361100","longitude":"103.76833300","name":"Ban Phalay"},{"id":"1407894","latitude":"19.46333300","longitude":"103.66527800","name":"Ban Phalouang"},{"id":"1407895","latitude":"19.49805600","longitude":"103.85222200","name":"Ban Phalouang Gnai"},{"id":"1407896","latitude":"19.48416700","longitude":"103.85500000","name":"Ban Phalouang Noy"},{"id":"1407898","latitude":"19.37694400","longitude":"103.56638900","name":"Ban Phaluang"},{"id":"1407899","latitude":"19.48333300","longitude":"103.73333300","name":"Ban Pha Luong"},{"id":"1407900","latitude":"19.49805600","longitude":"103.85222200","name":"Ban Pha Luong Nhay"},{"id":"1407901","latitude":"19.48416700","longitude":"103.85500000","name":"Ban Pha Luong Noi"},{"id":"1407903","latitude":"19.56638900","longitude":"103.75250000","name":"Ban Phamakh\u00e8p"},{"id":"1407904","latitude":"19.60833300","longitude":"103.81472200","name":"Ban Phamao"},{"id":"1407907","latitude":"19.55000000","longitude":"103.95000000","name":"Ban Pha Meuai"},{"id":"1407909","latitude":"19.55000000","longitude":"103.95000000","name":"Ban Phameuy"},{"id":"1407912","latitude":"19.46083300","longitude":"103.80222200","name":"Ban Pha Mok"},{"id":"1407924","latitude":"19.23333300","longitude":"103.50000000","name":"Ban Phan"},{"id":"1407928","latitude":"19.36666700","longitude":"103.33333300","name":"Ban Phang"},{"id":"1407939","latitude":"19.61083300","longitude":"103.81305600","name":"Ban Phangoua"},{"id":"1407950","latitude":"19.05000000","longitude":"103.00000000","name":"Ban Phan Khao"},{"id":"1407953","latitude":"19.94194400","longitude":"103.34083300","name":"Ban Phanlo"},{"id":"1407963","latitude":"18.97055600","longitude":"102.95777800","name":"Ban Phan\u00f4kk\u00f4k"},{"id":"1407982","latitude":"19.45583300","longitude":"103.82388900","name":"Ban Pha-O"},{"id":"1407993","latitude":"19.49305600","longitude":"103.42777800","name":"Ban Phap\u00e8k"},{"id":"1407996","latitude":"19.61666700","longitude":"102.86666700","name":"Ban Phaphang"},{"id":"1407998","latitude":"19.63083300","longitude":"103.93444400","name":"Ban Phapheu"},{"id":"1408016","latitude":"19.95000000","longitude":"103.91666700","name":"Ban Phapoun"},{"id":"1408018","latitude":"19.51666700","longitude":"103.35000000","name":"Ban Pha Sai"},{"id":"1408037","latitude":"19.75000000","longitude":"103.36666700","name":"Ban Phatang"},{"id":"1408041","latitude":"19.52972200","longitude":"103.21750000","name":"Ban Phat"},{"id":"1408042","latitude":"19.49361100","longitude":"103.88000000","name":"Ban Phat\u00e8"},{"id":"1408043","latitude":"19.43166700","longitude":"103.26722200","name":"Ban Phat\u00e8k"},{"id":"1408051","latitude":"19.60388900","longitude":"103.69638900","name":"Ban Phathang"},{"id":"1408077","latitude":"19.45000000","longitude":"104.01666700","name":"Ban Phav\u00e8n"},{"id":"1408078","latitude":"19.45000000","longitude":"104.01666700","name":"Ban Pha Vene"},{"id":"1408081","latitude":"19.51666700","longitude":"103.35000000","name":"Ban Phaxai"},{"id":"1408106","latitude":"19.45000000","longitude":"104.01666700","name":"Ban Phe Vene"},{"id":"1408139","latitude":"19.72416700","longitude":"102.87888900","name":"Ban Phiali"},{"id":"1408153","latitude":"19.59083300","longitude":"103.65305600","name":"Ban Phiangchan"},{"id":"1408158","latitude":"19.56666700","longitude":"103.60000000","name":"Ban Phiangdi"},{"id":"1408161","latitude":"19.69916700","longitude":"104.04472200","name":"Ban Phiangh\u00f4ng"},{"id":"1408163","latitude":"20.00194400","longitude":"103.70333300","name":"Ban Phiangkh\u00f4ng"},{"id":"1408164","latitude":"19.68361100","longitude":"103.51916700","name":"Ban Phiangkh\u00f4p"},{"id":"1408170","latitude":"19.52666700","longitude":"103.07111100","name":"Ban Phianglouang"},{"id":"1408171","latitude":"19.88333300","longitude":"103.88333300","name":"Ban Phiangmay"},{"id":"1408177","latitude":"19.71138900","longitude":"104.12083300","name":"Ban Phiangp\u00e8n"},{"id":"1408178","latitude":"19.94555600","longitude":"103.85472200","name":"Ban Phiangphang"},{"id":"1408180","latitude":"19.85000000","longitude":"103.90000000","name":"Ban Phiangph\u00f4"},{"id":"1408181","latitude":"19.66361100","longitude":"103.94416700","name":"Ban Phiangton"},{"id":"1408183","latitude":"19.63000000","longitude":"103.66055600","name":"Ban Phiangxai"},{"id":"1408191","latitude":"19.60000000","longitude":"103.41666700","name":"Ban Phiasi"},{"id":"1408194","latitude":"19.20000000","longitude":"102.63333300","name":"Ban Phiasy Xoumphou"},{"id":"1408199","latitude":"19.21666700","longitude":"103.65000000","name":"Ban Phiat\u00f4ng"},{"id":"1408200","latitude":"19.31666700","longitude":"103.36666700","name":"Ban Phiavat"},{"id":"1408207","latitude":"19.60000000","longitude":"102.76666700","name":"Ban Phiax\u00f4m"},{"id":"1408210","latitude":"19.35000000","longitude":"103.81666700","name":"Ban Phichi"},{"id":"1408214","latitude":"19.88333300","longitude":"103.88333300","name":"Ban Phieng Ma\u00ef"},{"id":"1408215","latitude":"19.66666700","longitude":"104.10000000","name":"Ban Phieng Muang"},{"id":"1408216","latitude":"19.66666700","longitude":"104.10000000","name":"Ban Phieng Muong"},{"id":"1408218","latitude":"19.71138900","longitude":"104.12083300","name":"Ban Phieng Pen"},{"id":"1408219","latitude":"19.85000000","longitude":"103.90000000","name":"Ban Phieng Pho"},{"id":"1408221","latitude":"19.52666700","longitude":"103.07111100","name":"Ban Phien Luong"},{"id":"1408222","latitude":"19.60000000","longitude":"103.41666700","name":"Ban Phie Si"},{"id":"1408223","latitude":"19.21666700","longitude":"103.65000000","name":"Ban Phie Ton"},{"id":"1408231","latitude":"19.40000000","longitude":"103.31666700","name":"Ban Phi Lang"},{"id":"1408234","latitude":"19.30000000","longitude":"103.45000000","name":"Ban Phi Nang"},{"id":"1408235","latitude":"19.40000000","longitude":"103.31666700","name":"Ban Phinang"},{"id":"1408252","latitude":"19.35000000","longitude":"103.31666700","name":"Ban Pho"},{"id":"1408276","latitude":"19.61666700","longitude":"102.73333300","name":"Ban Pho Kao"},{"id":"1408280","latitude":"19.61666700","longitude":"102.73333300","name":"Ban Phok\u00e8o"},{"id":"1408288","latitude":"19.21666700","longitude":"103.81666700","name":"Ban Phokham"},{"id":"1408295","latitude":"19.45000000","longitude":"104.06666700","name":"Ban Phokhum"},{"id":"1408297","latitude":"19.45000000","longitude":"104.06666700","name":"Ban Pho Khun"},{"id":"1408301","latitude":"19.43333300","longitude":"104.01666700","name":"Ban Ph\u00f4kmon"},{"id":"1408302","latitude":"19.43333300","longitude":"104.01666700","name":"Ban Phok Mone"},{"id":"1408333","latitude":"19.25000000","longitude":"103.10000000","name":"Ban Ph\u00f4n"},{"id":"1408397","latitude":"19.46666700","longitude":"102.73333300","name":"Ban Phong"},{"id":"1408407","latitude":"19.65472200","longitude":"103.59833300","name":"Ban Ph\u00f4ng-Ngam"},{"id":"1408408","latitude":"19.58333300","longitude":"103.66666700","name":"Ban Phong Nhom"},{"id":"1408425","latitude":"19.53277800","longitude":"103.51250000","name":"Ban Ph\u00f4nh\u00f4m"},{"id":"1408443","latitude":"19.54250000","longitude":"103.53888900","name":"Ban Ph\u00f4nkham"},{"id":"1408484","latitude":"19.64388900","longitude":"103.58833300","name":"Ban Ph\u00f4n-Ngam"},{"id":"1408485","latitude":"20.01500000","longitude":"103.33944400","name":"Ban Ph\u00f4nngam"},{"id":"1408527","latitude":"19.45972200","longitude":"103.20944400","name":"Ban Ph\u00f4nsavan"},{"id":"1408546","latitude":"19.69388900","longitude":"103.14666700","name":"Ban Ph\u00f4nsi"},