[{"id":"1448890","latitude":"55.62055560","longitude":"22.23000000","name":"\u00c5\u0081awkswo"},{"id":"1448913","latitude":"55.76666670","longitude":"22.20000000","name":"Adomaiciai"},{"id":"1449022","latitude":"55.93333330","longitude":"21.63333330","name":"Aleksandravas"},{"id":"1449027","latitude":"56.28333330","longitude":"21.70000000","name":"Aleksandria"},{"id":"1449029","latitude":"56.28333330","longitude":"21.70000000","name":"Aleksandrija"},{"id":"1449031","latitude":"55.91666670","longitude":"21.63333330","name":"Aleksandriske"},{"id":"1449033","latitude":"56.28333330","longitude":"21.70000000","name":"Aleksandriya"},{"id":"1449034","latitude":"55.91666670","longitude":"21.63333330","name":"Aleksandrova"},{"id":"1449067","latitude":"56.05000000","longitude":"21.95000000","name":"Alkai"},{"id":"1449068","latitude":"55.76666670","longitude":"21.93333330","name":"Alkas"},{"id":"1449069","latitude":"56.05000000","longitude":"21.95000000","name":"Alkay"},{"id":"1449073","latitude":"55.76666670","longitude":"21.93333330","name":"Alko"},{"id":"1449074","latitude":"55.76666670","longitude":"21.93333330","name":"Alkos"},{"id":"1449077","latitude":"55.93333330","longitude":"21.75000000","name":"Alksnenai"},{"id":"1449079","latitude":"55.93333330","longitude":"21.75000000","name":"Alksnenay"},{"id":"1449089","latitude":"56.05000000","longitude":"21.95000000","name":"Alku"},{"id":"1449096","latitude":"56.03333330","longitude":"22.05000000","name":"Alsedzhay"},{"id":"1449097","latitude":"56.03333330","longitude":"22.05000000","name":"Al'sedzhyay"},{"id":"1449098","latitude":"56.03333330","longitude":"22.05000000","name":"Alsedziai"},{"id":"1449099","latitude":"56.03333330","longitude":"22.05000000","name":"Alsedziu"},{"id":"1449163","latitude":"56.00000000","longitude":"21.91666670","name":"Andrushkaychey"},{"id":"1449324","latitude":"56.25000000","longitude":"21.66666670","name":"Apuole"},{"id":"1449325","latitude":"56.25000000","longitude":"21.66666670","name":"Apuoles"},{"id":"1449330","latitude":"55.66666670","longitude":"22.26666670","name":"Apvarsavos"},{"id":"1449331","latitude":"55.66666670","longitude":"22.26666670","name":"Apvarsuva"},{"id":"1449346","latitude":"56.26666670","longitude":"21.76666670","name":"Arkshva"},{"id":"1449347","latitude":"56.26666670","longitude":"21.76666670","name":"Arksva"},{"id":"1449348","latitude":"56.26666670","longitude":"21.76666670","name":"Arksvos"},{"id":"1449375","latitude":"56.20000000","longitude":"21.65000000","name":"Arsla"},{"id":"1449418","latitude":"56.23333330","longitude":"21.98333330","name":"\u00c5\u0081uby"},{"id":"1449429","latitude":"56.28333330","longitude":"21.95000000","name":"Augzeliai"},{"id":"1449435","latitude":"55.60000000","longitude":"22.35000000","name":"Aukshtagiryay"},{"id":"1449436","latitude":"55.70000000","longitude":"22.18333330","name":"Aukshtalishkyay"},{"id":"1449469","latitude":"55.60000000","longitude":"22.35000000","name":"Aukstagire"},{"id":"1449483","latitude":"55.71666670","longitude":"22.55000000","name":"Aukstieji Labunai"},{"id":"1449513","latitude":"56.36666670","longitude":"22.50000000","name":"Auksudys"},{"id":"1449522","latitude":"55.70000000","longitude":"22.18333330","name":"Auseliske"},{"id":"1449607","latitude":"55.93333330","longitude":"21.86666670","name":"Babrungas"},{"id":"1449608","latitude":"55.98333330","longitude":"21.88333330","name":"Babrungenai"},{"id":"1449609","latitude":"55.98333330","longitude":"21.88333330","name":"Babrungenay"},{"id":"1449610","latitude":"55.98333330","longitude":"21.88333330","name":"Babrungenu"},{"id":"1449649","latitude":"55.73333330","longitude":"22.28333330","name":"Bagenai"},{"id":"1449650","latitude":"55.73333330","longitude":"22.28333330","name":"Bagenay"},{"id":"1449736","latitude":"56.18333330","longitude":"22.31666670","name":"Balenai"},{"id":"1449738","latitude":"56.18333330","longitude":"22.31666670","name":"Balenay"},{"id":"1449739","latitude":"56.13333330","longitude":"22.25000000","name":"Baleneliai"},{"id":"1449740","latitude":"56.13333330","longitude":"22.25000000","name":"Balenelyay"},{"id":"1449741","latitude":"56.18333330","longitude":"22.31666670","name":"Balenos"},{"id":"1449742","latitude":"56.18333330","longitude":"22.31666670","name":"Balenu"},{"id":"1449745","latitude":"56.13333330","longitude":"22.25000000","name":"Balieneliu"},{"id":"1449781","latitude":"55.88333330","longitude":"22.50000000","name":"Balokishkis"},{"id":"1449782","latitude":"56.13333330","longitude":"22.25000000","name":"Balomele"},{"id":"1449801","latitude":"55.88333330","longitude":"22.50000000","name":"Baltakiske"},{"id":"1449808","latitude":"55.91666670","longitude":"21.61666670","name":"Baltmishkis"},{"id":"1449809","latitude":"55.91666670","longitude":"21.61666670","name":"Baltmiskiai"},{"id":"1449860","latitude":"55.70000000","longitude":"22.50000000","name":"Barakaucizna"},{"id":"1449861","latitude":"55.70000000","longitude":"22.50000000","name":"Barakelyay"},{"id":"1449902","latitude":"55.93333330","longitude":"22.48333330","name":"Bargainiai"},{"id":"1449925","latitude":"56.18333330","longitude":"21.88333330","name":"Barshyay"},{"id":"1449926","latitude":"56.18333330","longitude":"21.88333330","name":"Barsiai"},{"id":"1449928","latitude":"56.18333330","longitude":"21.88333330","name":"Barsiu"},{"id":"1449932","latitude":"55.76666670","longitude":"22.26666670","name":"Barstegai"},{"id":"1449933","latitude":"56.16666670","longitude":"21.86666670","name":"Barstichiyay"},{"id":"1449934","latitude":"56.16666670","longitude":"21.86666670","name":"Barstichyay"},{"id":"1449935","latitude":"56.16666670","longitude":"21.86666670","name":"Barstyciai"},{"id":"1449936","latitude":"56.16666670","longitude":"21.86666670","name":"Barstyciu"},{"id":"1449948","latitude":"56.16666670","longitude":"21.86666670","name":"Barszczyce"},{"id":"1449990","latitude":"55.85000000","longitude":"22.53333330","name":"Barvydziai"},{"id":"1450002","latitude":"56.05000000","longitude":"21.48333330","name":"Barzdzhyu Medsedzhyay"},{"id":"1450004","latitude":"56.05000000","longitude":"21.48333330","name":"Barzdziu"},{"id":"1450005","latitude":"56.05000000","longitude":"21.48333330","name":"Barzdziu Medsedziai"},{"id":"1450154","latitude":"56.10000000","longitude":"22.05000000","name":"Bertuliai"},{"id":"1450159","latitude":"55.65000000","longitude":"22.40000000","name":"Berze"},{"id":"1450168","latitude":"55.65000000","longitude":"22.40000000","name":"Berzha"},{"id":"1450177","latitude":"56.03333330","longitude":"21.80000000","name":"Berzhoras"},{"id":"1450178","latitude":"55.73333330","longitude":"22.05000000","name":"Berzhvaychyay"},{"id":"1450184","latitude":"56.03333330","longitude":"21.80000000","name":"Berzoras"},{"id":"1450185","latitude":"56.03333330","longitude":"21.80000000","name":"Berzoro"},{"id":"1450186","latitude":"56.03333330","longitude":"21.80000000","name":"Berzory"},{"id":"1450189","latitude":"55.73333330","longitude":"22.05000000","name":"Berzvaitis"},{"id":"1450253","latitude":"55.60000000","longitude":"22.30000000","name":"Bilenyay"},{"id":"1450254","latitude":"55.60000000","longitude":"22.30000000","name":"Bilioniai"},{"id":"1450255","latitude":"55.60000000","longitude":"22.30000000","name":"Bilionu"},{"id":"1450256","latitude":"55.60000000","longitude":"22.30000000","name":"Bilionys"},{"id":"1450286","latitude":"55.98333330","longitude":"22.35000000","name":"Birikai"},{"id":"1450287","latitude":"55.98333330","longitude":"22.35000000","name":"Birikyay"},{"id":"1450313","latitude":"55.88333330","longitude":"22.46666670","name":"Birzhenay"},{"id":"1450319","latitude":"55.88333330","longitude":"22.46666670","name":"Birzhuvenay"},{"id":"1450325","latitude":"55.88333330","longitude":"22.46666670","name":"Birzuvenai"},{"id":"1450336","latitude":"55.75000000","longitude":"22.60000000","name":"Blagovescenskoje"},{"id":"1450413","latitude":"56.18333330","longitude":"22.31666670","name":"Bolany"},{"id":"1450420","latitude":"56.21666670","longitude":"21.41666670","name":"Bol'shoye Palukne"},{"id":"1450429","latitude":"56.05000000","longitude":"21.48333330","name":"Bordzie Miedsiedy"},{"id":"1450439","latitude":"56.16666670","longitude":"21.86666670","name":"Borshchitse"},{"id":"1450440","latitude":"55.76666670","longitude":"22.26666670","name":"Borsteygis"},{"id":"1450441","latitude":"56.16666670","longitude":"21.86666670","name":"Borszczyce"},{"id":"1450447","latitude":"55.85000000","longitude":"22.53333330","name":"Borvidchyay"},{"id":"1450473","latitude":"55.93333330","longitude":"22.15000000","name":"Brazdeikiai"},{"id":"1450474","latitude":"55.93333330","longitude":"22.15000000","name":"Brazdeikiu"},{"id":"1450475","latitude":"55.93333330","longitude":"22.15000000","name":"Brazdeykyay"},{"id":"1450504","latitude":"56.13333330","longitude":"21.73333330","name":"Brotykai"},{"id":"1450515","latitude":"56.21666670","longitude":"22.30000000","name":"Bruzai"},{"id":"1450520","latitude":"56.21666670","longitude":"22.30000000","name":"Bruze"},{"id":"1450521","latitude":"56.21666670","longitude":"22.30000000","name":"Bruzhay"},{"id":"1450524","latitude":"56.21666670","longitude":"22.30000000","name":"Bruziai"},{"id":"1450525","latitude":"56.21666670","longitude":"22.30000000","name":"Bruzu"},{"id":"1450528","latitude":"55.78333330","longitude":"21.90000000","name":"Bubenai"},{"id":"1450541","latitude":"55.78333330","longitude":"21.90000000","name":"Bubyany"},{"id":"1450546","latitude":"55.95000000","longitude":"21.66666670","name":"Buchnay"},{"id":"1450562","latitude":"55.95000000","longitude":"21.66666670","name":"Bucniai"},{"id":"1450638","latitude":"56.31666670","longitude":"22.18333330","name":"Bugeniai"},{"id":"1450639","latitude":"56.31666670","longitude":"22.18333330","name":"Bugeniu"},{"id":"1450640","latitude":"56.31666670","longitude":"22.18333330","name":"Bugenyay"},{"id":"1450661","latitude":"56.33333330","longitude":"22.11666670","name":"Bukanciai"},{"id":"1450672","latitude":"56.36666670","longitude":"22.35000000","name":"Buknaiciai"},{"id":"1450673","latitude":"56.36666670","longitude":"22.35000000","name":"Buknaiciu"},{"id":"1450674","latitude":"56.36666670","longitude":"22.35000000","name":"Buknaychyay"},{"id":"1450675","latitude":"56.36666670","longitude":"22.35000000","name":"Buknicia"},{"id":"1450677","latitude":"56.33333330","longitude":"22.11666670","name":"Bukonchyay"},{"id":"1450678","latitude":"56.33333330","longitude":"22.11666670","name":"Bukonciai"},{"id":"1450679","latitude":"56.33333330","longitude":"22.11666670","name":"Bukonciu"},{"id":"1450683","latitude":"56.33333330","longitude":"22.11666670","name":"Bukoniu"},{"id":"1450711","latitude":"56.03333330","longitude":"22.16666670","name":"Buozenai"},{"id":"1450712","latitude":"56.03333330","longitude":"22.16666670","name":"Buozenu"},{"id":"1450722","latitude":"55.65000000","longitude":"22.26666670","name":"Burbishki"},{"id":"1450724","latitude":"55.71666670","longitude":"22.46666670","name":"Burbishkyay"},{"id":"1450728","latitude":"55.65000000","longitude":"22.26666670","name":"Burbiskiai"},{"id":"1450729","latitude":"55.71666670","longitude":"22.46666670","name":"Burbiskiai Didieji"},{"id":"1450753","latitude":"56.21666670","longitude":"22.30000000","name":"Burziai"},{"id":"1450849","latitude":"56.03333330","longitude":"22.16666670","name":"Buzhenay"},{"id":"1450880","latitude":"56.21666670","longitude":"22.50000000","name":"Cekai"},{"id":"1450889","latitude":"56.21666670","longitude":"22.50000000","name":"Ceku"},{"id":"1450897","latitude":"55.66666670","longitude":"22.28333330","name":"Cepaiciai"},{"id":"1450910","latitude":"56.21666670","longitude":"22.50000000","name":"Cheki"},{"id":"1450918","latitude":"55.66666670","longitude":"22.28333330","name":"Chepaychyay"},{"id":"1450948","latitude":"55.75000000","longitude":"22.60000000","name":"Chwa\u00c5\u201aojnie"},{"id":"1451005","latitude":"56.21666670","longitude":"22.50000000","name":"Czeki"},{"id":"1451023","latitude":"56.16666670","longitude":"21.98333330","name":"Dagiai"},{"id":"1451024","latitude":"56.16666670","longitude":"21.98333330","name":"Dagi"},{"id":"1451034","latitude":"56.16666670","longitude":"21.98333330","name":"Dagiu"},{"id":"1451035","latitude":"55.73333330","longitude":"22.03333330","name":"Daglaukis"},{"id":"1451041","latitude":"56.16666670","longitude":"21.98333330","name":"Dagyay"},{"id":"1451072","latitude":"56.23333330","longitude":"21.76666670","name":"Daktarai"},{"id":"1451074","latitude":"55.66666670","longitude":"22.15000000","name":"Dalgai"},{"id":"1451096","latitude":"55.61666670","longitude":"22.48333330","name":"Danily"},{"id":"1451100","latitude":"55.61666670","longitude":"22.48333330","name":"Danylos"},{"id":"1451108","latitude":"56.36666670","longitude":"22.11666670","name":"Dapsiai"},{"id":"1451127","latitude":"55.65000000","longitude":"22.31666670","name":"Dargiai"},{"id":"1451129","latitude":"56.33333330","longitude":"22.46666670","name":"Dargi"},{"id":"1451147","latitude":"56.33333330","longitude":"22.46666670","name":"Dargyay"},{"id":"1451172","latitude":"56.28333330","longitude":"22.30000000","name":"Daubariai"},{"id":"1451195","latitude":"55.80000000","longitude":"21.93333330","name":"Daugedai"},{"id":"1451197","latitude":"55.80000000","longitude":"21.93333330","name":"Daugeday"},{"id":"1451203","latitude":"55.76666670","longitude":"21.88333330","name":"Daugelaley"},{"id":"1451204","latitude":"55.76666670","longitude":"21.88333330","name":"Daugelaliai"},{"id":"1451221","latitude":"55.80000000","longitude":"21.93333330","name":"Daugiedai"},{"id":"1451222","latitude":"55.80000000","longitude":"21.93333330","name":"Daugiedu"},{"id":"1451241","latitude":"55.73333330","longitude":"22.03333330","name":"Dauglaukis"},{"id":"1451253","latitude":"55.75000000","longitude":"22.43333330","name":"Daukantai"},{"id":"1451269","latitude":"56.18333330","longitude":"21.48333330","name":"Daukshay"},{"id":"1451277","latitude":"56.18333330","longitude":"21.48333330","name":"Daukshyay"},{"id":"1451281","latitude":"56.18333330","longitude":"21.48333330","name":"Dauksiai"},{"id":"1451286","latitude":"56.18333330","longitude":"21.48333330","name":"Dauksiu"},{"id":"1451287","latitude":"56.18333330","longitude":"21.48333330","name":"Dauksze"},{"id":"1451307","latitude":"56.38333330","longitude":"22.03333330","name":"Dautari"},{"id":"1451349","latitude":"55.98333330","longitude":"22.30000000","name":"Degachyay"},{"id":"1451350","latitude":"55.98333330","longitude":"22.30000000","name":"Degaiciai"},{"id":"1451352","latitude":"55.98333330","longitude":"22.30000000","name":"Degaychyay"},{"id":"1451361","latitude":"56.06666670","longitude":"22.21666670","name":"Deginenai"},{"id":"1451366","latitude":"55.61666670","longitude":"22.23333330","name":"Degliske"},{"id":"1451367","latitude":"55.85000000","longitude":"22.65000000","name":"Degsne"},{"id":"1451371","latitude":"55.63333330","longitude":"22.11666670","name":"Deguchyay"},{"id":"1451375","latitude":"55.63333330","longitude":"22.11666670","name":"Deguciai"},{"id":"1451379","latitude":"55.63333330","longitude":"22.16666670","name":"Degutaliai"},{"id":"1451380","latitude":"55.63333330","longitude":"22.16666670","name":"Degutelyay"},{"id":"1451389","latitude":"55.85000000","longitude":"22.65000000","name":"Dekshne"},{"id":"1451398","latitude":"56.13333330","longitude":"21.75000000","name":"Derkinchai"},{"id":"1451399","latitude":"56.13333330","longitude":"21.75000000","name":"Derkinchay"},{"id":"1451400","latitude":"56.13333330","longitude":"21.75000000","name":"Derkinciai"},{"id":"1451401","latitude":"56.13333330","longitude":"21.75000000","name":"Derkincie"},{"id":"1451402","latitude":"56.13333330","longitude":"21.75000000","name":"Derkinciu"},{"id":"1451410","latitude":"55.90000000","longitude":"22.58333330","name":"Dervenay"},{"id":"1451439","latitude":"55.93333330","longitude":"21.60000000","name":"Diburey"},{"id":"1451456","latitude":"56.28333330","longitude":"21.60000000","name":"Didieji-Rusupiai"},{"id":"1451473","latitude":"55.95000000","longitude":"21.83333330","name":"Didvieciai"},{"id":"1451477","latitude":"55.70000000","longitude":"22.35000000","name":"Didysis Palukstis"},{"id":"1451491","latitude":"56.21666670","longitude":"21.41666670","name":"Didzioji Palukne"},{"id":"1451518","latitude":"55.86666670","longitude":"22.33333330","name":"Dilbai"},{"id":"1451519","latitude":"55.86666670","longitude":"22.33333330","name":"Dilbiai"},{"id":"1451520","latitude":"56.33333330","longitude":"21.86666670","name":"Dilbikiai"},{"id":"1451521","latitude":"56.33333330","longitude":"21.86666670","name":"Dilbikiu"},{"id":"1451522","latitude":"56.33333330","longitude":"21.86666670","name":"Dilbikyay"},{"id":"1451523","latitude":"56.33333330","longitude":"21.91666670","name":"Dilbinai"},{"id":"1451524","latitude":"55.86666670","longitude":"22.33333330","name":"Dilbu"},{"id":"1451537","latitude":"55.95000000","longitude":"22.36666670","name":"Dimitryay"},{"id":"1451544","latitude":"55.60000000","longitude":"22.46666670","name":"Dirgelai"},{"id":"1451546","latitude":"55.96666670","longitude":"22.21666670","name":"Dirksteliai"},{"id":"1451548","latitude":"56.06666670","longitude":"22.51666670","name":"Dirmeikiai"},{"id":"1451556","latitude":"55.90000000","longitude":"22.58333330","name":"Dirvonenai"},{"id":"1451566","latitude":"56.01666670","longitude":"22.01666670","name":"Dishlyay"},{"id":"1451568","latitude":"56.01666670","longitude":"22.01666670","name":"Disliai"},{"id":"1451569","latitude":"56.01666670","longitude":"22.01666670","name":"Disliu"},{"id":"1451601","latitude":"55.66666670","longitude":"22.15000000","name":"Dolgyay"},{"id":"1451636","latitude":"56.08333330","longitude":"21.78333330","name":"Dovainiai"},{"id":"1451696","latitude":"55.98333330","longitude":"22.45000000","name":"Draudikiai"},{"id":"1451701","latitude":"55.98333330","longitude":"22.45000000","name":"Dravdziki"},{"id":"1451710","latitude":"55.70000000","longitude":"22.28333330","name":"Drobuksciai"},{"id":"1451712","latitude":"55.70000000","longitude":"22.28333330","name":"Drobuksciu"},{"id":"1451713","latitude":"55.70000000","longitude":"22.28333330","name":"Drobukshchay"},{"id":"1451724","latitude":"55.93333330","longitude":"22.05000000","name":"Drukchyay"},{"id":"1451725","latitude":"55.93333330","longitude":"22.05000000","name":"Drukciai"},{"id":"1451731","latitude":"55.75000000","longitude":"21.90000000","name":"Druobstai"},{"id":"1451734","latitude":"55.75000000","longitude":"21.90000000","name":"Drupsty"},{"id":"1451759","latitude":"55.95000000","longitude":"22.63333330","name":"Dubenay"},{"id":"1451772","latitude":"55.95000000","longitude":"22.63333330","name":"Dubiniai"},{"id":"1451778","latitude":"55.95000000","longitude":"22.63333330","name":"Dubinyay"},{"id":"1451811","latitude":"55.86666670","longitude":"22.33333330","name":"Dulbyay"},{"id":"1451819","latitude":"55.60000000","longitude":"22.16666670","name":"Dulkiu-Laukas"},{"id":"1451820","latitude":"56.21666670","longitude":"22.06666670","name":"Dumaiciai"},{"id":"1451821","latitude":"56.21666670","longitude":"22.06666670","name":"Dumaiciu"},{"id":"1451822","latitude":"56.21666670","longitude":"22.06666670","name":"Dumajcie"},{"id":"1451823","latitude":"56.21666670","longitude":"22.06666670","name":"Dumaychyay"},{"id":"1451826","latitude":"56.03333330","longitude":"22.56666670","name":"Dumblouke"},{"id":"1451827","latitude":"56.03333330","longitude":"22.56666670","name":"Dumblovka"},{"id":"1451828","latitude":"56.03333330","longitude":"22.56666670","name":"Dumblowka"},{"id":"1451835","latitude":"56.03333330","longitude":"22.56666670","name":"Dumlauke"},{"id":"1451843","latitude":"55.95000000","longitude":"22.36666670","name":"Dumytrai"},{"id":"1451853","latitude":"55.76666670","longitude":"22.33333330","name":"Duobuliai"},{"id":"1451861","latitude":"55.96666670","longitude":"22.45000000","name":"Duseikiai"},{"id":"1451866","latitude":"55.96666670","longitude":"22.45000000","name":"Duseykyay"},{"id":"1451890","latitude":"55.75000000","longitude":"22.48333330","name":"Dvargudis"},{"id":"1451898","latitude":"55.60000000","longitude":"22.23333330","name":"Dvarvieciai"},{"id":"1451908","latitude":"55.60000000","longitude":"22.23333330","name":"Dvorvitse"},{"id":"1451914","latitude":"55.93333330","longitude":"21.60000000","name":"Dyburiai"},{"id":"1451924","latitude":"55.60000000","longitude":"22.46666670","name":"Dyrgyalyay"},{"id":"1451925","latitude":"55.96666670","longitude":"22.21666670","name":"Dyrkshtelyu"},{"id":"1451947","latitude":"55.98333330","longitude":"22.18333330","name":"Dziuginenai"},{"id":"1451952","latitude":"55.98333330","longitude":"22.18333330","name":"Dzyuginenay"},{"id":"1451973","latitude":"55.70000000","longitude":"22.13333330","name":"Eidininkai"},{"id":"1451982","latitude":"56.01666670","longitude":"22.36666670","name":"Eigirdziai"},{"id":"1451983","latitude":"56.01666670","longitude":"22.36666670","name":"Eigirdziu"},{"id":"1452009","latitude":"55.88333330","longitude":"21.61666670","name":"Eituciai"},{"id":"1452010","latitude":"56.01666670","longitude":"22.36666670","name":"Ejgirdzie"},{"id":"1452020","latitude":"55.93333330","longitude":"21.75000000","name":"Elksnenai"},{"id":"1452031","latitude":"56.00000000","longitude":"21.91666670","name":"Endriuskaiciai"},{"id":"1452037","latitude":"56.08333330","longitude":"21.58333330","name":"Erlenai"},{"id":"1452038","latitude":"56.08333330","longitude":"21.58333330","name":"Erlenay"},{"id":"1452039","latitude":"56.08333330","longitude":"21.58333330","name":"Erlenu"},{"id":"1452040","latitude":"56.20000000","longitude":"21.65000000","name":"Ersla"},{"id":"1452053","latitude":"55.70000000","longitude":"22.13333330","name":"Eydynikyay"},{"id":"1452057","latitude":"56.01666670","longitude":"22.36666670","name":"Eygirdzhyay"},{"id":"1452072","latitude":"55.88333330","longitude":"21.61666670","name":"Eytuychey"},{"id":"1452121","latitude":"56.06666670","longitude":"22.21666670","name":"Gadonow"},{"id":"1452122","latitude":"56.06666670","longitude":"22.21666670","name":"Gadunavas"},{"id":"1452123","latitude":"56.06666670","longitude":"22.21666670","name":"Gadunavo"},{"id":"1452140","latitude":"56.21666670","longitude":"21.93333330","name":"Gailaiciai"},{"id":"1452167","latitude":"55.86666670","longitude":"22.03333330","name":"Gaizupiai"},{"id":"1452168","latitude":"55.86666670","longitude":"22.03333330","name":"Gaizupiu"},{"id":"1452183","latitude":"55.91666670","longitude":"22.25000000","name":"Galkanciai"},{"id":"1452211","latitude":"55.61666670","longitude":"22.46666670","name":"Gardiske"},{"id":"1452239","latitude":"55.65000000","longitude":"22.33333330","name":"Gatautiske"},{"id":"1452245","latitude":"55.88333330","longitude":"22.25000000","name":"Gaubeliai"},{"id":"1452246","latitude":"55.88333330","longitude":"22.25000000","name":"Gaubeli"},{"id":"1452251","latitude":"56.00000000","longitude":"22.25000000","name":"Gaudikaiciai"},{"id":"1452256","latitude":"55.75000000","longitude":"22.46666670","name":"Gaudkalnis"},{"id":"1452259","latitude":"56.28333330","longitude":"22.23333330","name":"Gaudzhyay"},{"id":"1452261","latitude":"55.75000000","longitude":"22.46666670","name":"Gaugkal'ne"},{"id":"1452262","latitude":"55.86666670","longitude":"22.60000000","name":"Gaulenai"},{"id":"1452263","latitude":"55.86666670","longitude":"22.60000000","name":"Gaulenay"},{"id":"1452264","latitude":"55.86666670","longitude":"22.60000000","name":"Gaulenu"},{"id":"1452270","latitude":"56.16666670","longitude":"22.36666670","name":"Gauriliu"},{"id":"1452271","latitude":"56.16666670","longitude":"22.36666670","name":"Gaurilyay"},{"id":"1452273","latitude":"56.16666670","longitude":"22.36666670","name":"Gauryliai"},{"id":"1452274","latitude":"56.16666670","longitude":"22.36666670","name":"Gauryliu"},{"id":"1452287","latitude":"56.16666670","longitude":"22.36666670","name":"Gawryiy"},{"id":"1452311","latitude":"55.86666670","longitude":"22.03333330","name":"Gayzhupyay"},{"id":"1452319","latitude":"55.91666670","longitude":"22.35000000","name":"Geciai"},{"id":"1452325","latitude":"56.05000000","longitude":"21.58333330","name":"Gedgaudziai"},{"id":"1452327","latitude":"55.80000000","longitude":"22.11666670","name":"Gedikenai"},{"id":"1452328","latitude":"55.80000000","longitude":"22.11666670","name":"Gedikenay"},{"id":"1452329","latitude":"55.80000000","longitude":"22.11666670","name":"Gedikenu"},{"id":"1452345","latitude":"56.06666670","longitude":"22.13333330","name":"Gedrimai"},{"id":"1452346","latitude":"56.28333330","longitude":"21.90000000","name":"Gedrimay"},{"id":"1452347","latitude":"56.28333330","longitude":"21.90000000","name":"Gedrimu"},{"id":"1452379","latitude":"56.10000000","longitude":"21.91666670","name":"Gegrenai"},{"id":"1452380","latitude":"56.10000000","longitude":"21.91666670","name":"Gegrenay"},{"id":"1452381","latitude":"56.10000000","longitude":"21.91666670","name":"Gegrenu"},{"id":"1452395","latitude":"56.28333330","longitude":"22.23333330","name":"Geidziai"},{"id":"1452445","latitude":"55.68333330","longitude":"22.25000000","name":"Gel'zhichyay"},{"id":"1452447","latitude":"55.68333330","longitude":"22.25000000","name":"Gelzyciai"},{"id":"1452450","latitude":"55.75000000","longitude":"22.03333330","name":"Gemontlaukis"},{"id":"1452500","latitude":"55.96666670","longitude":"22.38333330","name":"Geruliai"},{"id":"1452501","latitude":"55.96666670","longitude":"22.38333330","name":"Gerulyay"},{"id":"1452523","latitude":"56.30000000","longitude":"21.75000000","name":"Gesalai"},{"id":"1452524","latitude":"56.30000000","longitude":"21.75000000","name":"Gesalay"},{"id":"1452525","latitude":"56.30000000","longitude":"21.75000000","name":"Gesaliu"},{"id":"1452529","latitude":"56.08333330","longitude":"21.90000000","name":"Getauchyay"},{"id":"1452530","latitude":"56.08333330","longitude":"21.90000000","name":"Getauciai"},{"id":"1452531","latitude":"56.08333330","longitude":"21.90000000","name":"Getauciu"},{"id":"1452534","latitude":"55.91666670","longitude":"22.30000000","name":"Getaute"},{"id":"1452561","latitude":"56.10000000","longitude":"21.91666670","name":"Giegrany"},{"id":"1452562","latitude":"56.08333330","longitude":"21.76666670","name":"Gielajcie"},{"id":"1452564","latitude":"56.08333330","longitude":"21.90000000","name":"Gietowcie"},{"id":"1452570","latitude":"55.75000000","longitude":"22.33333330","name":"Giktalay"},{"id":"1452572","latitude":"56.08333330","longitude":"21.76666670","name":"Gilaiciai"},{"id":"1452573","latitude":"56.08333330","longitude":"21.76666670","name":"Gilaiciu"},{"id":"1452576","latitude":"56.08333330","longitude":"21.76666670","name":"Gilaychyay"},{"id":"1452580","latitude":"55.75000000","longitude":"22.00000000","name":"Gilegirey"},{"id":"1452582","latitude":"55.75000000","longitude":"22.00000000","name":"Giliogeris"},{"id":"1452583","latitude":"55.75000000","longitude":"22.00000000","name":"Giliogiris"},{"id":"1452631","latitude":"55.75000000","longitude":"22.33333330","name":"Gintalai"},{"id":"1452632","latitude":"55.75000000","longitude":"22.33333330","name":"Gintalay"},{"id":"1452633","latitude":"56.05000000","longitude":"21.73333330","name":"Gintalishke"},{"id":"1452634","latitude":"56.05000000","longitude":"21.73333330","name":"Gintaliske"},{"id":"1452635","latitude":"56.05000000","longitude":"21.73333330","name":"Gintaliskes"},{"id":"1452638","latitude":"55.96666670","longitude":"22.36666670","name":"Gintauchyay"},{"id":"1452640","latitude":"55.96666670","longitude":"22.36666670","name":"Gintauciai"},{"id":"1452643","latitude":"56.05000000","longitude":"21.73333330","name":"Gintelishke"},{"id":"1452644","latitude":"56.05000000","longitude":"21.73333330","name":"Ginteliske"},{"id":"1452645","latitude":"56.05000000","longitude":"21.73333330","name":"Ginteliszki"},{"id":"1452647","latitude":"56.05000000","longitude":"21.73333330","name":"Gintoliske"},{"id":"1452664","latitude":"56.30000000","longitude":"21.86666670","name":"Girdeniai"},{"id":"1452665","latitude":"56.30000000","longitude":"21.86666670","name":"Girdeniu"},{"id":"1452666","latitude":"56.30000000","longitude":"21.86666670","name":"Girdenyay"},{"id":"1452673","latitude":"55.70000000","longitude":"21.83333330","name":"Girdvainiai"},{"id":"1452674","latitude":"55.70000000","longitude":"21.83333330","name":"Girdvainiu"},{"id":"1452675","latitude":"55.70000000","longitude":"21.83333330","name":"Girdvayney"},{"id":"1452688","latitude":"55.63333330","longitude":"22.01666670","name":"Girenai"},{"id":"1452690","latitude":"55.63333330","longitude":"22.01666670","name":"Girenay"},{"id":"1452691","latitude":"55.63333330","longitude":"22.01666670","name":"Girenu"},{"id":"1452717","latitude":"55.98333330","longitude":"22.65000000","name":"Girkantai"},{"id":"1452718","latitude":"55.81666670","longitude":"22.18333330","name":"Girkantiske"},{"id":"1452722","latitude":"55.98333330","longitude":"22.65000000","name":"Girkontay"},{"id":"1452723","latitude":"55.81666670","longitude":"22.18333330","name":"Girkontyshkyay"},{"id":"1452727","latitude":"55.81666670","longitude":"22.35000000","name":"Girmantiskes"},{"id":"1452728","latitude":"55.81666670","longitude":"22.35000000","name":"Girmentishkyay"},{"id":"1452747","latitude":"55.60000000","longitude":"22.26666670","name":"Girvainiai"},{"id":"1452748","latitude":"55.60000000","longitude":"22.26666670","name":"Girvainiu"},{"id":"1452752","latitude":"55.60000000","longitude":"22.26666670","name":"Girvaynyay"},{"id":"1452780","latitude":"55.78333330","longitude":"22.56666670","name":"Gludai"},{"id":"1452786","latitude":"55.70000000","longitude":"22.36666670","name":"Godeliai"},{"id":"1452787","latitude":"55.98333330","longitude":"21.78333330","name":"Godeliu"},{"id":"1452799","latitude":"55.91666670","longitude":"22.25000000","name":"Golkonchyay"},{"id":"1452802","latitude":"55.68333330","longitude":"22.38333330","name":"Gomaliai"},{"id":"1452803","latitude":"55.68333330","longitude":"22.38333330","name":"Gomalyay"},{"id":"1452804","latitude":"55.75000000","longitude":"22.03333330","name":"Gomantlaukis"},{"id":"1452805","latitude":"56.26666670","longitude":"21.78333330","name":"Gonaiciai"},{"id":"1452806","latitude":"56.26666670","longitude":"21.78333330","name":"Gonaychyay"},{"id":"1452809","latitude":"55.91666670","longitude":"22.56666670","name":"Gonvichyay"},{"id":"1452814","latitude":"55.61666670","longitude":"22.46666670","name":"Gordyshkyay"},{"id":"1452827","latitude":"55.65000000","longitude":"22.33333330","name":"Gotovtyshki"},{"id":"1452870","latitude":"55.71666670","longitude":"22.35000000","name":"Grauzai"},{"id":"1452878","latitude":"55.71666670","longitude":"22.35000000","name":"Grauzhyay"},{"id":"1452904","latitude":"56.10000000","longitude":"21.91666670","name":"Gregenai"},{"id":"1452911","latitude":"56.21666670","longitude":"22.01666670","name":"Greiste"},{"id":"1452916","latitude":"56.21666670","longitude":"22.01666670","name":"Grenste"},{"id":"1452929","latitude":"56.26666670","longitude":"21.93333330","name":"Gricaiciai"},{"id":"1452930","latitude":"56.26666670","longitude":"21.93333330","name":"Gricaiciu"},{"id":"1452933","latitude":"56.41666670","longitude":"22.21666670","name":"Grieze"},{"id":"1453008","latitude":"56.26666670","longitude":"21.93333330","name":"Gritsaychay"},{"id":"1453016","latitude":"56.21666670","longitude":"22.01666670","name":"Gronscie"},{"id":"1453036","latitude":"55.96666670","longitude":"22.00000000","name":"Grumbliai"},{"id":"1453037","latitude":"55.96666670","longitude":"22.00000000","name":"Grumbyay"},{"id":"1453052","latitude":"56.21666670","longitude":"22.01666670","name":"Gruste"},{"id":"1453093","latitude":"55.63333330","longitude":"22.43333330","name":"Gudaiciai"},{"id":"1453096","latitude":"56.18333330","longitude":"22.55000000","name":"Gudai"},{"id":"1453103","latitude":"55.63333330","longitude":"22.43333330","name":"Gudaychyay"},{"id":"1453112","latitude":"55.98333330","longitude":"21.78333330","name":"Gudeley"},{"id":"1453124","latitude":"55.80000000","longitude":"22.36666670","name":"Gudelis"},{"id":"1453134","latitude":"55.70000000","longitude":"22.36666670","name":"Gudelyay"},{"id":"1453154","latitude":"56.18333330","longitude":"22.55000000","name":"Gudy"},{"id":"1453171","latitude":"55.61666670","longitude":"22.28333330","name":"Gul'benay"},{"id":"1453173","latitude":"55.61666670","longitude":"22.28333330","name":"Gulbes"},{"id":"1453204","latitude":"55.78333330","longitude":"22.60000000","name":"Gurai"},{"id":"1453217","latitude":"55.78333330","longitude":"22.60000000","name":"Gurovo"},{"id":"1453244","latitude":"55.60000000","longitude":"21.91666670","name":"Gvaldai"},{"id":"1453245","latitude":"55.60000000","longitude":"21.91666670","name":"Gvaldu"},{"id":"1453246","latitude":"55.60000000","longitude":"21.91666670","name":"Gvaldy"},{"id":"1453267","latitude":"56.21666670","longitude":"22.56666670","name":"Gyvoliai"},{"id":"1453274","latitude":"56.28333330","longitude":"21.85000000","name":"I\u00c5\u201a\u00c5\u201aoki"},{"id":"1453279","latitude":"56.15000000","longitude":"21.53333330","name":"Igariai"},{"id":"1453280","latitude":"56.15000000","longitude":"21.53333330","name":"Igariu"},{"id":"1453281","latitude":"56.15000000","longitude":"21.53333330","name":"Igaryay"},{"id":"1453282","latitude":"56.16666670","longitude":"21.53333330","name":"Igeriai"},{"id":"1453298","latitude":"56.15000000","longitude":"21.53333330","name":"Igory"},{"id":"1453299","latitude":"56.28333330","longitude":"21.85000000","name":"Ilakiai"},{"id":"1453300","latitude":"56.28333330","longitude":"21.85000000","name":"Ilakyay"},{"id":"1453323","latitude":"56.03333330","longitude":"21.60000000","name":"Imbare"},{"id":"1453324","latitude":"56.03333330","longitude":"21.60000000","name":"Imbares"},{"id":"1453338","latitude":"56.03333330","longitude":"21.60000000","name":"Inbory"},{"id":"1453354","latitude":"55.66666670","longitude":"22.20000000","name":"Iodaynyay"},{"id":"1453361","latitude":"56.05000000","longitude":"22.50000000","name":"Iodsyay"},{"id":"1453370","latitude":"55.98333330","longitude":"22.38333330","name":"Ionaychyay"},{"id":"1453393","latitude":"55.90000000","longitude":"22.21666670","name":"Irtoganas"},{"id":"1453394","latitude":"55.90000000","longitude":"22.21666670","name":"Irtogenay"},{"id":"1453417","latitude":"56.38333330","longitude":"22.10000000","name":"Iuodelkelyay"},{"id":"1453424","latitude":"56.31666670","longitude":"21.63333330","name":"Ivanishki"},{"id":"1453433","latitude":"55.61666670","longitude":"22.13333330","name":"Ivoniskiai"},{"id":"1453434","latitude":"56.26666670","longitude":"21.73333330","name":"Iyedzhiotay"},{"id":"1453468","latitude":"56.10000000","longitude":"21.46666670","name":"Jakstaiciai"},{"id":"1453471","latitude":"55.85000000","longitude":"22.38333330","name":"Jaksteliskes"},{"id":"1453477","latitude":"55.81666670","longitude":"22.38333330","name":"Janapole"},{"id":"1453478","latitude":"55.81666670","longitude":"22.38333330","name":"Janapolio"},{"id":"1453486","latitude":"55.75000000","longitude":"21.80000000","name":"Jankaiciai"},{"id":"1453525","latitude":"55.71666670","longitude":"21.88333330","name":"Jaupenai"},{"id":"1453526","latitude":"56.31666670","longitude":"22.20000000","name":"Jautakiai"},{"id":"1453530","latitude":"56.08333330","longitude":"21.95000000","name":"Jazdauskiskiai"},{"id":"1453531","latitude":"56.08333330","longitude":"21.95000000","name":"Jazdauskiskiu"},{"id":"1453532","latitude":"56.08333330","longitude":"21.95000000","name":"Jazdowskiszki"},{"id":"1453533","latitude":"56.26666670","longitude":"21.73333330","name":"Jedziotai"},{"id":"1453534","latitude":"56.26666670","longitude":"21.73333330","name":"Jedziotu"},{"id":"1453551","latitude":"55.95000000","longitude":"21.80000000","name":"Jodenai"},{"id":"1453552","latitude":"56.00000000","longitude":"21.93333330","name":"Jogaudai"},{"id":"1453586","latitude":"55.91666670","longitude":"22.56666670","name":"Jonaiciai"},{"id":"1453596","latitude":"55.65000000","longitude":"22.36666670","name":"Jonelaiciai"},{"id":"1453640","latitude":"55.68333330","longitude":"22.00000000","name":"Juciai"},{"id":"1453642","latitude":"56.05000000","longitude":"22.50000000","name":"Judeje"},{"id":"1453645","latitude":"55.58333330","longitude":"21.81666670","name":"Judrenai"},{"id":"1453646","latitude":"55.58333330","longitude":"21.81666670","name":"Judrenu"},{"id":"1453648","latitude":"56.08333330","longitude":"21.51666670","name":"Judupiany"},{"id":"1453680","latitude":"55.66666670","longitude":"22.20000000","name":"Juodainiai"},{"id":"1453686","latitude":"56.38333330","longitude":"22.10000000","name":"Juodeikeliai"},{"id":"1453687","latitude":"56.38333330","longitude":"22.10000000","name":"Juodeikeliu"},{"id":"1453688","latitude":"55.83333330","longitude":"21.75000000","name":"Juodeikiai Antrieji"},{"id":"1453689","latitude":"55.83333330","longitude":"21.75000000","name":"Juodeikiai II"},{"id":"1453690","latitude":"55.85000000","longitude":"21.78333330","name":"Juodeikiai I"},{"id":"1453694","latitude":"55.85000000","longitude":"21.78333330","name":"Juodeikiai Pirmieji"},{"id":"1453697","latitude":"56.05000000","longitude":"22.50000000","name":"Juodejai"},{"id":"1453698","latitude":"56.05000000","longitude":"22.50000000","name":"Juodeju"},{"id":"1453701","latitude":"55.95000000","longitude":"21.80000000","name":"Juodenai"},{"id":"1453702","latitude":"55.95000000","longitude":"21.80000000","name":"Juodenu"},{"id":"1453705","latitude":"55.95000000","longitude":"21.80000000","name":"Juodienu"},{"id":"1453713","latitude":"56.35000000","longitude":"21.81666670","name":"Juodkaiciai"},{"id":"1453733","latitude":"55.98333330","longitude":"22.41666670","name":"Juodsode"},{"id":"1453736","latitude":"56.08333330","longitude":"21.51666670","name":"Juodupenai"},{"id":"1453737","latitude":"56.08333330","longitude":"21.51666670","name":"Juodupenu"},{"id":"1453849","latitude":"55.98333330","longitude":"21.71666670","name":"Kadaiciai"},{"id":"1453850","latitude":"55.98333330","longitude":"21.71666670","name":"Kadaiciu"},{"id":"1453855","latitude":"55.98333330","longitude":"21.71666670","name":"Kadaychey"},{"id":"1453858","latitude":"55.83333330","longitude":"22.25000000","name":"Kadshveykyay"},{"id":"1453881","latitude":"55.75000000","longitude":"22.31666670","name":"Kairiai"},{"id":"1453885","latitude":"56.15000000","longitude":"22.60000000","name":"Kairiskiai"},{"id":"1453886","latitude":"56.15000000","longitude":"22.60000000","name":"Kairiskiu"},{"id":"1453894","latitude":"56.15000000","longitude":"22.60000000","name":"Kajryszla"},{"id":"1453924","latitude":"56.03333330","longitude":"21.55000000","name":"Kalnalis"},{"id":"1453928","latitude":"56.03333330","longitude":"21.55000000","name":"Kalnelio"},{"id":"1453933","latitude":"55.60000000","longitude":"22.40000000","name":"Kalnenai"},{"id":"1453934","latitude":"55.60000000","longitude":"22.40000000","name":"Kalnenay"},{"id":"1453935","latitude":"56.03333330","longitude":"22.21666670","name":"Kalnenu"},{"id":"1453936","latitude":"56.03333330","longitude":"21.55000000","name":"Kalnieli"},{"id":"1453937","latitude":"56.15000000","longitude":"22.05000000","name":"Kalnijai"},{"id":"1453938","latitude":"56.15000000","longitude":"22.05000000","name":"Kalnijos"},{"id":"1453948","latitude":"55.81666670","longitude":"22.43333330","name":"Kal'nishki"},{"id":"1453950","latitude":"55.93333330","longitude":"22.11666670","name":"Kal'nishkyay"},{"id":"1453956","latitude":"55.93333330","longitude":"22.11666670","name":"Kalniskiai"},{"id":"1453957","latitude":"55.81666670","longitude":"22.43333330","name":"Kalniskiai Naujasis"},{"id":"1453961","latitude":"56.15000000","longitude":"22.05000000","name":"Kalnois"},{"id":"1453984","latitude":"56.11666670","longitude":"22.01666670","name":"Kalvariya"},{"id":"1454012","latitude":"56.11666670","longitude":"22.01666670","name":"Kalwarya"},{"id":"1454045","latitude":"56.16666670","longitude":"21.95000000","name":"Kancaiciai"},{"id":"1454047","latitude":"56.16666670","longitude":"21.95000000","name":"Kanchaychyay"},{"id":"1454069","latitude":"55.90333330","longitude":"22.04916670","name":"Kantauchyay"},{"id":"1454070","latitude":"55.90333330","longitude":"22.04916670","name":"Kantauciai"},{"id":"1454072","latitude":"56.15000000","longitude":"22.30000000","name":"Kantenay"},{"id":"1454073","latitude":"56.15000000","longitude":"22.30000000","name":"Kanteniai"},{"id":"1454096","latitude":"56.15000000","longitude":"22.53333330","name":"Kapenai"},{"id":"1454102","latitude":"55.70000000","longitude":"21.75000000","name":"Kapstatai"},{"id":"1454103","latitude":"55.70000000","longitude":"21.75000000","name":"Kapstatay"},{"id":"1454104","latitude":"55.70000000","longitude":"21.75000000","name":"Kapstotu"},{"id":"1454105","latitude":"55.88333330","longitude":"21.96666670","name":"Kapsudzhey"},{"id":"1454106","latitude":"55.88333330","longitude":"21.96666670","name":"Kapsudziai"},{"id":"1454107","latitude":"55.88333330","longitude":"21.96666670","name":"Kapsudziu"},{"id":"1454154","latitude":"55.85000000","longitude":"21.70000000","name":"Karklenai"},{"id":"1454155","latitude":"55.65000000","longitude":"22.51666670","name":"Karklenaliai"},{"id":"1454157","latitude":"55.85000000","longitude":"21.70000000","name":"Karklenay"},{"id":"1454160","latitude":"55.85000000","longitude":"21.70000000","name":"Karklenu"},{"id":"1454164","latitude":"55.65000000","longitude":"22.51666670","name":"Karklinelyay"},{"id":"1454203","latitude":"55.83333330","longitude":"22.25000000","name":"Karsteniai"},{"id":"1454219","latitude":"55.63333330","longitude":"22.38333330","name":"Karuziske"},{"id":"1454254","latitude":"55.91666670","longitude":"21.90000000","name":"Kaspariske"},{"id":"1454292","latitude":"56.23333330","longitude":"21.71666670","name":"Kaukolikai"},{"id":"1454293","latitude":"56.23333330","longitude":"21.71666670","name":"Kaukolikay"},{"id":"1454294","latitude":"56.23333330","longitude":"21.71666670","name":"Kaukoliki"},{"id":"1454295","latitude":"56.23333330","longitude":"21.71666670","name":"Kaukoliku"},{"id":"1454296","latitude":"56.23333330","longitude":"21.71666670","name":"Kaukolikyay"},{"id":"1454308","latitude":"55.96666670","longitude":"22.58333330","name":"Kaunatava"},{"id":"1454309","latitude":"55.96666670","longitude":"22.58333330","name":"Kaunatavas"},{"id":"1454310","latitude":"55.96666670","longitude":"22.58333330","name":"Kaunetavo"},{"id":"1454312","latitude":"55.96666670","longitude":"22.58333330","name":"Kaunotavo"},{"id":"1454318","latitude":"55.71666670","longitude":"22.21666670","name":"Kaupos"},{"id":"1454319","latitude":"55.71666670","longitude":"22.21666670","name":"Kaupyay"},{"id":"1454321","latitude":"55.91666670","longitude":"21.78333330","name":"Kausenai"},{"id":"1454322","latitude":"55.91666670","longitude":"21.78333330","name":"Kaush'enay"},{"id":"1454326","latitude":"56.15000000","longitude":"22.30000000","name":"Kautenai"},{"id":"1454350","latitude":"55.75000000","longitude":"22.31666670","name":"Kayre"},{"id":"1454352","latitude":"56.15000000","longitude":"22.60000000","name":"Kayrishkyay"},{"id":"1454417","latitude":"55.83333330","longitude":"22.30000000","name":"Kegai"},{"id":"1454421","latitude":"56.20000000","longitude":"22.53333330","name":"Kegriai"},{"id":"1454422","latitude":"56.20000000","longitude":"22.53333330","name":"Kegriu"},{"id":"1454423","latitude":"56.20000000","longitude":"22.53333330","name":"Kegryay"},{"id":"1454424","latitude":"55.83333330","longitude":"22.30000000","name":"Kegyay"},{"id":"1454454","latitude":"56.35000000","longitude":"22.05000000","name":"Kemauchyay"},{"id":"1454470","latitude":"56.35000000","longitude":"22.05000000","name":"Kentauciai"},{"id":"1454471","latitude":"56.35000000","longitude":"22.05000000","name":"Kentauciu"},{"id":"1454477","latitude":"55.91666670","longitude":"21.98333330","name":"Kepurenai"},{"id":"1454478","latitude":"55.91666670","longitude":"21.98333330","name":"Kepurenay"},{"id":"1454479","latitude":"55.91666670","longitude":"21.98333330","name":"Kepurenu"},{"id":"1454482","latitude":"55.73333330","longitude":"22.58333330","name":"Kerbedlaukis"},{"id":"1454492","latitude":"56.21666670","longitude":"21.50000000","name":"Kernai"},{"id":"1454501","latitude":"56.31666670","longitude":"21.80000000","name":"Kerviai"},{"id":"1454502","latitude":"56.31666670","longitude":"21.80000000","name":"Kerviu"},{"id":"1454503","latitude":"56.31666670","longitude":"21.80000000","name":"Kervyay"},{"id":"1454505","latitude":"55.68333330","longitude":"22.46666670","name":"Kesai"},{"id":"1454514","latitude":"56.18333330","longitude":"22.20000000","name":"Ketunai"},{"id":"1454515","latitude":"56.18333330","longitude":"22.20000000","name":"Ketunu"},{"id":"1454516","latitude":"56.18333330","longitude":"22.20000000","name":"Ketunyay"},{"id":"1454517","latitude":"55.83333330","longitude":"22.08333330","name":"Keturakiai"},{"id":"1454518","latitude":"55.83333330","longitude":"22.08333330","name":"Keturakyay"},{"id":"1454598","latitude":"56.20000000","longitude":"22.53333330","name":"Kiegry"},{"id":"1454613","latitude":"56.18333330","longitude":"22.20000000","name":"Kietuny"},{"id":"1454620","latitude":"55.80000000","longitude":"22.15000000","name":"Kiliunenai"},{"id":"1454621","latitude":"55.80000000","longitude":"22.15000000","name":"Kilnenay"},{"id":"1454679","latitude":"55.90000000","longitude":"22.61666670","name":"Kirkliai"},{"id":"1454680","latitude":"55.90000000","longitude":"22.61666670","name":"Kirkliukai"},{"id":"1454684","latitude":"55.90000000","longitude":"22.61666670","name":"Kirklyay"},{"id":"1454685","latitude":"55.90000000","longitude":"22.61666670","name":"Kirklyunay"},{"id":"1454701","latitude":"56.00000000","longitude":"22.45000000","name":"Kirshyay"},{"id":"1454702","latitude":"56.00000000","longitude":"22.45000000","name":"Kirsiai"},{"id":"1454718","latitude":"55.76666670","longitude":"22.21666670","name":"Kivaychyay"},{"id":"1454738","latitude":"55.85000000","longitude":"22.16666670","name":"Klaisiai"},{"id":"1454739","latitude":"55.68333330","longitude":"22.40000000","name":"Klaisiskiai"},{"id":"1454749","latitude":"56.28333330","longitude":"21.73333330","name":"Klauseikiai"},{"id":"1454750","latitude":"56.28333330","longitude":"21.73333330","name":"Klauseikiu"},{"id":"1454751","latitude":"56.28333330","longitude":"21.73333330","name":"Klauseykyay"},{"id":"1454764","latitude":"55.85000000","longitude":"22.16666670","name":"Klayshay"},{"id":"1454766","latitude":"55.68333330","longitude":"22.40000000","name":"Klayshishkyay"},{"id":"1454796","latitude":"55.88333330","longitude":"22.30000000","name":"Klibes"},{"id":"1454800","latitude":"55.88333330","longitude":"22.30000000","name":"Klibyay"},{"id":"1454842","latitude":"56.33333330","longitude":"22.40000000","name":"Knabikai"},{"id":"1454869","latitude":"55.75000000","longitude":"22.60000000","name":"Kolainiai"},{"id":"1454870","latitude":"55.75000000","longitude":"22.56666670","name":"Kolainiukai"},{"id":"1454871","latitude":"55.75000000","longitude":"22.60000000","name":"Kolainiu"},{"id":"1454872","latitude":"55.75000000","longitude":"22.60000000","name":"Kolaynyay"},{"id":"1454879","latitude":"56.03333330","longitude":"22.21666670","name":"Kolniany"},{"id":"1454906","latitude":"56.16666670","longitude":"21.95000000","name":"Konczajcie"},{"id":"1454915","latitude":"55.90333330","longitude":"22.04916670","name":"Kontauchyay"},{"id":"1454916","latitude":"56.15000000","longitude":"22.30000000","name":"Kontenie"},{"id":"1454918","latitude":"55.90333330","longitude":"22.04916670","name":"Kontowcie"},{"id":"1454985","latitude":"56.20000000","longitude":"21.60000000","name":"Krakes"},{"id":"1454986","latitude":"56.28333330","longitude":"22.40000000","name":"Krakiai"},{"id":"1454993","latitude":"56.20000000","longitude":"21.60000000","name":"Krakiu"},{"id":"1454998","latitude":"56.28333330","longitude":"22.40000000","name":"Krakyay"},{"id":"1455027","latitude":"55.75000000","longitude":"22.38333330","name":"Kraynyay"},{"id":"1455050","latitude":"55.90000000","longitude":"22.23333330","name":"Krepstai"},{"id":"1455069","latitude":"55.90000000","longitude":"22.23333330","name":"Kreyshtay"},{"id":"1455134","latitude":"56.20000000","longitude":"21.60000000","name":"Kroki"},{"id":"1455154","latitude":"56.28333330","longitude":"22.31666670","name":"Kruciai"},{"id":"1455168","latitude":"55.76666670","longitude":"22.53333330","name":"Kruopainiai"},{"id":"1455174","latitude":"55.76666670","longitude":"22.53333330","name":"Krupayne"},{"id":"1455237","latitude":"55.75000000","longitude":"22.38333330","name":"Kujainiai"},{"id":"1455262","latitude":"56.28333330","longitude":"21.50000000","name":"Kulai I"},{"id":"1455264","latitude":"56.13333330","longitude":"21.65000000","name":"Kulale"},{"id":"1455265","latitude":"56.13333330","longitude":"21.65000000","name":"Kulaliai"},{"id":"1455266","latitude":"56.13333330","longitude":"21.65000000","name":"Kulaliu"},{"id":"1455267","latitude":"56.13333330","longitude":"21.65000000","name":"Kulalyay"},{"id":"1455279","latitude":"56.26666670","longitude":"21.50000000","name":"Kuliai"},{"id":"1455308","latitude":"55.91666670","longitude":"22.53333330","name":"Kul'shiki"},{"id":"1455309","latitude":"55.71666670","longitude":"22.30000000","name":"Kul'shishki"},{"id":"1455310","latitude":"55.91666670","longitude":"22.53333330","name":"Kulsikai"},{"id":"1455311","latitude":"55.71666670","longitude":"22.30000000","name":"Kulsiskiai"},{"id":"1455312","latitude":"55.98333330","longitude":"21.96666670","name":"Kul'ske"},{"id":"1455313","latitude":"55.98333330","longitude":"21.96666670","name":"Kulskiai"},{"id":"1455331","latitude":"55.66666670","longitude":"22.55000000","name":"Kumpelke"},{"id":"1455407","latitude":"55.93333330","longitude":"22.40000000","name":"Kupriai"},{"id":"1455414","latitude":"55.93333330","longitude":"22.40000000","name":"Kupryay"},{"id":"1455468","latitude":"55.83333330","longitude":"22.43333330","name":"Kursai"},{"id":"1455471","latitude":"55.83333330","longitude":"22.43333330","name":"Kurshe"},{"id":"1455542","latitude":"55.91666670","longitude":"22.35000000","name":"Kveiliai"},{"id":"1455549","latitude":"55.91666670","longitude":"22.35000000","name":"Kveylyay"},{"id":"1455581","latitude":"55.76666670","longitude":"22.21666670","name":"Kyvaiciai"},{"id":"1455586","latitude":"55.68333330","longitude":"22.05000000","name":"Labardi"},{"id":"1455588","latitude":"55.68333330","longitude":"22.05000000","name":"Labardzhyay"},{"id":"1455590","latitude":"55.68333330","longitude":"22.05000000","name":"Labardziai"},{"id":"1455591","latitude":"55.68333330","longitude":"22.05000000","name":"Labardziu"},{"id":"1455605","latitude":"55.71666670","longitude":"22.55000000","name":"Labunavas"},{"id":"1455629","latitude":"56.08333330","longitude":"21.61666670","name":"Laiviai"},{"id":"1455630","latitude":"56.08333330","longitude":"21.61666670","name":"Laiviu"},{"id":"1455634","latitude":"56.08333330","longitude":"21.61666670","name":"Lajwie"},{"id":"1455655","latitude":"55.80000000","longitude":"22.45000000","name":"Lankadis"},{"id":"1455747","latitude":"55.88333330","longitude":"22.25000000","name":"Lauko Soda"},{"id":"1455748","latitude":"55.88333330","longitude":"22.25000000","name":"Laukosodos"},{"id":"1455755","latitude":"55.88333330","longitude":"22.25000000","name":"Lauksoda"},{"id":"1455758","latitude":"55.88333330","longitude":"22.25000000","name":"Lauksodis"},{"id":"1455763","latitude":"55.62055560","longitude":"22.23000000","name":"Laukuva"},{"id":"1455764","latitude":"55.62055560","longitude":"22.23000000","name":"Laukuvos"},{"id":"1455770","latitude":"56.20000000","longitude":"21.70000000","name":"Laumaiciai"},{"id":"1455771","latitude":"56.20000000","longitude":"21.70000000","name":"Laumaiciu"},{"id":"1455775","latitude":"56.20000000","longitude":"21.70000000","name":"Laumaychyay"},{"id":"1455780","latitude":"55.60000000","longitude":"22.36666670","name":"Laumenai"},{"id":"1455782","latitude":"55.60000000","longitude":"22.36666670","name":"Laumenay"},{"id":"1455784","latitude":"55.60000000","longitude":"22.36666670","name":"Laumenu"},{"id":"1455787","latitude":"55.78333330","longitude":"22.06666670","name":"Laurinaychyay"},{"id":"1455788","latitude":"55.78333330","longitude":"22.06666670","name":"Laurynaiciai"},{"id":"1455803","latitude":"56.06666670","longitude":"21.63333330","name":"Laviai"},{"id":"1455811","latitude":"56.20000000","longitude":"21.70000000","name":"Lawmajce"},{"id":"1455818","latitude":"56.08333330","longitude":"21.61666670","name":"Layvis"},{"id":"1455826","latitude":"55.96666670","longitude":"21.93333330","name":"Lazdeney"},{"id":"1455827","latitude":"55.96666670","longitude":"21.93333330","name":"Lazdeniai"},{"id":"1455856","latitude":"56.38333330","longitude":"22.25000000","name":"Leckava"},{"id":"1455857","latitude":"56.38333330","longitude":"22.25000000","name":"Leckavas"},{"id":"1455858","latitude":"56.38333330","longitude":"22.25000000","name":"Leckavos"},{"id":"1455861","latitude":"55.63333330","longitude":"21.96666670","name":"Legai"},{"id":"1455865","latitude":"55.63333330","longitude":"21.96666670","name":"L'egay"},{"id":"1455872","latitude":"55.63333330","longitude":"21.96666670","name":"Legu"},{"id":"1455877","latitude":"56.06666670","longitude":"22.63333330","name":"Leilenai"},{"id":"1455878","latitude":"56.06666670","longitude":"22.63333330","name":"Leilienu"},{"id":"1455879","latitude":"55.81666670","longitude":"22.56666670","name":"Leinartiske"},{"id":"1455884","latitude":"55.93333330","longitude":"21.65000000","name":"Leipgiriai"},{"id":"1455888","latitude":"56.06666670","longitude":"22.63333330","name":"Lejlany"},{"id":"1455900","latitude":"56.23333330","longitude":"22.45000000","name":"Lelaiciai"},{"id":"1455924","latitude":"55.60000000","longitude":"21.96666670","name":"Lembas"},{"id":"1455925","latitude":"55.60000000","longitude":"21.96666670","name":"Lembo"},{"id":"1455939","latitude":"55.80000000","longitude":"22.45000000","name":"Lenkaliai"},{"id":"1455940","latitude":"55.80000000","longitude":"22.45000000","name":"Lenkalyay"},{"id":"1455962","latitude":"55.93333330","longitude":"21.65000000","name":"L'epgirey"},{"id":"1455966","latitude":"55.93333330","longitude":"21.81666670","name":"L'eplauke"},{"id":"1455967","latitude":"55.96666670","longitude":"22.08333330","name":"Leplauke"},{"id":"1455986","latitude":"56.26666670","longitude":"22.35000000","name":"Leteniai"},{"id":"1455987","latitude":"56.26666670","longitude":"22.35000000","name":"Leteniu"},{"id":"1455988","latitude":"56.26666670","longitude":"22.35000000","name":"Letenyay"},{"id":"1455989","latitude":"56.38333330","longitude":"22.25000000","name":"Letskava"},{"id":"1456008","latitude":"56.06666670","longitude":"22.63333330","name":"Leylenay"},{"id":"1456009","latitude":"55.81666670","longitude":"22.56666670","name":"Leynartyshki"},{"id":"1456051","latitude":"55.93333330","longitude":"21.65000000","name":"Liepgiriai"},{"id":"1456052","latitude":"55.93333330","longitude":"21.65000000","name":"Liepgiriu"},{"id":"1456060","latitude":"55.93333330","longitude":"21.81666670","name":"Lieplaukale"},{"id":"1456061","latitude":"55.96666670","longitude":"22.08333330","name":"Lieplauke"},{"id":"1456062","latitude":"55.96666670","longitude":"22.08333330","name":"Lieplaukes"},{"id":"1456136","latitude":"55.76666670","longitude":"21.85000000","name":"Lioliai"},{"id":"1456139","latitude":"55.76666670","longitude":"22.01666670","name":"Lipaychyay"},{"id":"1456158","latitude":"56.18333330","longitude":"21.41666670","name":"Litvinai"},{"id":"1456159","latitude":"56.18333330","longitude":"21.41666670","name":"Litvinay"},{"id":"1456160","latitude":"56.18333330","longitude":"21.41666670","name":"Litvinu"},{"id":"1456161","latitude":"56.18333330","longitude":"21.41666670","name":"Litwiny"},{"id":"1456164","latitude":"55.76666670","longitude":"22.56666670","name":"Liubisiskiai"},{"id":"1456188","latitude":"55.96666670","longitude":"22.08333330","name":"Liyeplauke"},{"id":"1456212","latitude":"55.76666670","longitude":"22.01666670","name":"Lopaiciai"},{"id":"1456213","latitude":"55.76666670","longitude":"22.01666670","name":"Lopaiciu"},{"id":"1456214","latitude":"55.76666670","longitude":"22.01666670","name":"Lopaychyay"},{"id":"1456245","latitude":"55.81666670","longitude":"21.85000000","name":"Lukenay"},{"id":"1456249","latitude":"55.81666670","longitude":"21.85000000","name":"Luknenai"},{"id":"1456250","latitude":"55.81666670","longitude":"21.85000000","name":"Luknenu"},{"id":"1456251","latitude":"56.23333330","longitude":"21.41666670","name":"Luknes"},{"id":"1456253","latitude":"56.23333330","longitude":"21.45000000","name":"Luknie"},{"id":"1456254","latitude":"55.89472220","longitude":"22.52583330","name":"Lukniki"},{"id":"1456282","latitude":"56.23333330","longitude":"21.98333330","name":"Luoba"},{"id":"1456283","latitude":"56.23333330","longitude":"21.98333330","name":"Luobos"},{"id":"1456285","latitude":"55.89472220","longitude":"22.52583330","name":"Luoka"},{"id":"1456286","latitude":"55.89472220","longitude":"22.52583330","name":"Luoke"},{"id":"1456287","latitude":"55.89472220","longitude":"22.52583330","name":"Luokes"},{"id":"1456305","latitude":"56.38333330","longitude":"22.25000000","name":"Lyatskovo"},{"id":"1456343","latitude":"55.76666670","longitude":"22.56666670","name":"Lyubashishki"},{"id":"1456392","latitude":"56.28333330","longitude":"22.46666670","name":"Maigai"},{"id":"1456393","latitude":"56.28333330","longitude":"22.46666670","name":"Maigu"},{"id":"1456418","latitude":"56.10000000","longitude":"22.50000000","name":"Maldeniai"},{"id":"1456419","latitude":"56.10000000","longitude":"22.50000000","name":"Maldenie"},{"id":"1456420","latitude":"56.10000000","longitude":"22.50000000","name":"Maldeniu"},{"id":"1456421","latitude":"56.10000000","longitude":"22.50000000","name":"Mal'denyay"},{"id":"1456422","latitude":"55.71666670","longitude":"21.91666670","name":"Malduciai"},{"id":"1456437","latitude":"55.95000000","longitude":"22.31666670","name":"Malkarstai"},{"id":"1456439","latitude":"55.85000000","longitude":"22.60000000","name":"Malovenay"},{"id":"1456440","latitude":"56.23333330","longitude":"21.45000000","name":"Maloye Palukne"},{"id":"1456528","latitude":"56.31666670","longitude":"21.95000000","name":"Margininkai"},{"id":"1456583","latitude":"56.16666670","longitude":"21.58333330","name":"Masiady"},{"id":"1456609","latitude":"55.65000000","longitude":"22.03333330","name":"Matsei"},{"id":"1456642","latitude":"55.85000000","longitude":"22.63333330","name":"Maudziorai"},{"id":"1456648","latitude":"55.85000000","longitude":"22.63333330","name":"Mavdzyuray"},{"id":"1456650","latitude":"56.28333330","longitude":"22.46666670","name":"Maygay"},{"id":"1456657","latitude":"55.70000000","longitude":"22.28333330","name":"Mazasis Palukstis"},{"id":"1456661","latitude":"56.31666670","longitude":"22.33333330","name":"Mazeikiai"},{"id":"1456664","latitude":"56.31666670","longitude":"22.33333330","name":"Mazeikiu"},{"id":"1456685","latitude":"55.80000000","longitude":"21.70000000","name":"Mazheyi-Mostaychey"},{"id":"1456692","latitude":"56.31666670","longitude":"22.33333330","name":"Mazheykyay"},{"id":"1456701","latitude":"55.88333330","longitude":"21.66666670","name":"Mazhyavos"},{"id":"1456702","latitude":"55.88333330","longitude":"21.66666670","name":"Maziavos"},{"id":"1456703","latitude":"55.88333330","longitude":"21.66666670","name":"Maziavu"},{"id":"1456707","latitude":"55.80000000","longitude":"21.70000000","name":"Mazieji Mostaiciai"},{"id":"1456708","latitude":"56.26666670","longitude":"21.66666670","name":"Mazieji Sarke"},{"id":"1456710","latitude":"55.71666670","longitude":"22.46666670","name":"Maziejl Burbiskiai"},{"id":"1456715","latitude":"56.23333330","longitude":"21.45000000","name":"Mazoji Palukne"},{"id":"1456749","latitude":"55.81666670","longitude":"22.08333330","name":"Medingenai"},{"id":"1456750","latitude":"55.81666670","longitude":"22.08333330","name":"Medingenay"},{"id":"1456751","latitude":"55.81666670","longitude":"22.08333330","name":"Medingenu"},{"id":"1456756","latitude":"55.74055560","longitude":"22.36444440","name":"Medininkai"},{"id":"1456765","latitude":"55.75000000","longitude":"22.46666670","name":"Mediskiai"},{"id":"1456775","latitude":"56.06666670","longitude":"21.83333330","name":"Medsedy"},{"id":"1456777","latitude":"56.06666670","longitude":"21.83333330","name":"Medsedzhyay"},{"id":"1456779","latitude":"56.06666670","longitude":"21.83333330","name":"Medsedziai"},{"id":"1456780","latitude":"56.06666670","longitude":"21.83333330","name":"Medsedziu"},{"id":"1456782","latitude":"55.85000000","longitude":"22.21666670","name":"Medsodis"},{"id":"1456792","latitude":"55.75000000","longitude":"22.46666670","name":"Medyshkay"},{"id":"1456793","latitude":"55.91666670","longitude":"22.43333330","name":"Medyshkyay"},{"id":"1456794","latitude":"56.21666670","longitude":"22.40000000","name":"Medzhialenke"},{"id":"1456796","latitude":"56.21666670","longitude":"22.40000000","name":"Medzialenke"},{"id":"1456797","latitude":"56.21666670","longitude":"22.40000000","name":"Medzialenkes"},{"id":"1456799","latitude":"56.21666670","longitude":"22.40000000","name":"Medziolanki"},{"id":"1456894","latitude":"55.93333330","longitude":"21.95000000","name":"Merkeliai"},{"id":"1456916","latitude":"56.10000000","longitude":"22.60000000","name":"Meshkyay"},{"id":"1456924","latitude":"56.10000000","longitude":"22.60000000","name":"Meskiai"},{"id":"1456928","latitude":"56.10000000","longitude":"22.60000000","name":"Meskiu"},{"id":"1456998","latitude":"56.10000000","longitude":"22.60000000","name":"Mieszki"},{"id":"1457001","latitude":"55.76666670","longitude":"22.35000000","name":"Miezeiniai"},{"id":"1457101","latitude":"55.80000000","longitude":"22.50000000","name":"Miksodis"},{"id":"1457102","latitude":"56.16666670","longitude":"21.53333330","name":"Mikulciai"},{"id":"1457118","latitude":"55.86666670","longitude":"21.86666670","name":"Milasaiciai"},{"id":"1457120","latitude":"55.86666670","longitude":"21.86666670","name":"Milasaiciu"},{"id":"1457121","latitude":"55.86666670","longitude":"21.86666670","name":"Milashaychey"},{"id":"1457134","latitude":"56.26666670","longitude":"22.41666670","name":"Miliai"},{"id":"1457141","latitude":"55.81666670","longitude":"22.28333330","name":"Milkantai"},{"id":"1457142","latitude":"55.81666670","longitude":"22.28333330","name":"Mil'kantay"},{"id":"1457153","latitude":"55.81666670","longitude":"22.45000000","name":"Milvydiskiai"},{"id":"1457196","latitude":"55.83333330","longitude":"22.63333330","name":"Minubyay"},{"id":"1457197","latitude":"55.83333330","longitude":"22.63333330","name":"Minupiai"},{"id":"1457198","latitude":"55.83333330","longitude":"22.63333330","name":"Minupiu"},{"id":"1457199","latitude":"55.83333330","longitude":"22.63333330","name":"Minupyay"},{"id":"1457209","latitude":"55.96666670","longitude":"21.70000000","name":"Misenai"},{"id":"1457210","latitude":"55.96666670","longitude":"21.75000000","name":"Mises Ezeras"},{"id":"1457245","latitude":"56.13333330","longitude":"22.36666670","name":"Mitkaiciai"},{"id":"1457246","latitude":"56.13333330","longitude":"22.36666670","name":"Mitkaiciu"},{"id":"1457247","latitude":"56.13333330","longitude":"22.36666670","name":"Mitkajcie"},{"id":"1457248","latitude":"56.13333330","longitude":"22.36666670","name":"Mitkaychyay"},{"id":"1457276","latitude":"55.80000000","longitude":"22.50000000","name":"Mizheyedzhyay"},{"id":"1457277","latitude":"55.93333330","longitude":"22.48333330","name":"Mizhikyay"},{"id":"1457278","latitude":"55.78333330","longitude":"21.75000000","name":"Mizhuykay"},{"id":"1457279","latitude":"55.78333330","longitude":"21.75000000","name":"Mizhuykey"},{"id":"1457280","latitude":"55.93333330","longitude":"22.48333330","name":"Mizikai"},{"id":"1457281","latitude":"55.78333330","longitude":"21.75000000","name":"Miziku"},{"id":"1457284","latitude":"55.78333330","longitude":"21.75000000","name":"Mizuikai"},{"id":"1457285","latitude":"55.78333330","longitude":"21.75000000","name":"Mizuikiu"},{"id":"1457311","latitude":"55.85000000","longitude":"22.60000000","name":"Moluvenai"},{"id":"1457334","latitude":"56.16666670","longitude":"21.58333330","name":"Mosedis"},{"id":"1457335","latitude":"56.16666670","longitude":"21.58333330","name":"Mosedzio"},{"id":"1457339","latitude":"55.80000000","longitude":"21.70000000","name":"Mostaiciai Mazieji"},{"id":"1457350","latitude":"55.65000000","longitude":"22.03333330","name":"Motejai"},{"id":"1457369","latitude":"56.31666670","longitude":"22.33333330","name":"Mozejki"},{"id":"1457374","latitude":"55.76666670","longitude":"22.35000000","name":"Mozheykyay"},{"id":"1457383","latitude":"55.91666670","longitude":"22.28333330","name":"Muitaiciai"},{"id":"1457396","latitude":"56.31666670","longitude":"22.33333330","name":"Muravjovo"},{"id":"1457398","latitude":"56.31666670","longitude":"22.33333330","name":"Murawlewo"},{"id":"1457412","latitude":"55.91666670","longitude":"22.28333330","name":"Muytaychyay"},{"id":"1457426","latitude":"56.28333330","longitude":"21.85000000","name":"Myasto Ilakyay"},{"id":"1457436","latitude":"55.96666670","longitude":"21.70000000","name":"Myshany"},{"id":"1457438","latitude":"56.10000000","longitude":"21.71666670","name":"Naciany"},{"id":"1457444","latitude":"56.30000000","longitude":"22.38333330","name":"Naikiai"},{"id":"1457445","latitude":"56.30000000","longitude":"22.38333330","name":"Naikiu"},{"id":"1457446","latitude":"56.30000000","longitude":"22.38333330","name":"Naiku"},{"id":"1457474","latitude":"55.75000000","longitude":"21.93333330","name":"Narchalvishkiye"},{"id":"1457493","latitude":"56.11666670","longitude":"21.46666670","name":"Narmantai"},{"id":"1457499","latitude":"55.95000000","longitude":"22.06666670","name":"Naruciai"},{"id":"1457508","latitude":"55.90000000","longitude":"21.70000000","name":"Narvaisiai"},{"id":"1457510","latitude":"55.90000000","longitude":"21.70000000","name":"Narvaisiu"},{"id":"1457512","latitude":"55.90000000","longitude":"21.70000000","name":"Narvayshey"},{"id":"1457515","latitude":"56.30000000","longitude":"21.58333330","name":"Narvidzhyay"},{"id":"1457518","latitude":"56.30000000","longitude":"21.58333330","name":"Narvydziai"},{"id":"1457519","latitude":"56.30000000","longitude":"21.58333330","name":"Narvydziu"},{"id":"1457612","latitude":"55.63333330","longitude":"22.36666670","name":"Naumiestele"},{"id":"1457621","latitude":"56.23333330","longitude":"21.81666670","name":"Nausedai"},{"id":"1457629","latitude":"55.88333330","longitude":"21.78333330","name":"Nausodis"},{"id":"1457657","latitude":"56.30000000","longitude":"22.38333330","name":"Naykyay"},{"id":"1457737","latitude":"56.08333330","longitude":"22.41666670","name":"Nerimdaiciai"},{"id":"1457738","latitude":"56.08333330","longitude":"22.41666670","name":"Nerimdaiciu"},{"id":"1457739","latitude":"56.08333330","longitude":"22.41666670","name":"Nerimdaychyay"},{"id":"1457743","latitude":"55.95000000","longitude":"22.08333330","name":"Neshakuchyay"},{"id":"1457744","latitude":"55.95000000","longitude":"22.08333330","name":"Nesukuociai"},{"id":"1457757","latitude":"56.10000000","longitude":"22.28333330","name":"Nevarany"},{"id":"1457758","latitude":"55.68333330","longitude":"22.43333330","name":"Nevardenai"},{"id":"1457759","latitude":"55.68333330","longitude":"22.43333330","name":"Nevardena"},{"id":"1457760","latitude":"55.68333330","longitude":"22.43333330","name":"Nevardenay"},{"id":"1457761","latitude":"55.68333330","longitude":"22.43333330","name":"Nevardenu"},{"id":"1457762","latitude":"56.10000000","longitude":"22.28333330","name":"Nevarenai"},{"id":"1457763","latitude":"56.10000000","longitude":"22.28333330","name":"Nevarenay"},{"id":"1457764","latitude":"56.10000000","longitude":"22.28333330","name":"Nevarenu"},{"id":"1457775","latitude":"56.18333330","longitude":"21.58333330","name":"Nevochyay"},{"id":"1457777","latitude":"56.18333330","longitude":"21.58333330","name":"Nevociai"},{"id":"1457778","latitude":"56.18333330","longitude":"21.58333330","name":"Nevociu"},{"id":"1457801","latitude":"56.08333330","longitude":"22.41666670","name":"Nierymdajcie"},{"id":"1457802","latitude":"56.10000000","longitude":"22.28333330","name":"Niewierany"},{"id":"1457803","latitude":"56.18333330","longitude":"21.58333330","name":"Niewojce"},{"id":"1457839","latitude":"55.75000000","longitude":"21.93333330","name":"Norgalviskiai"},{"id":"1457889","latitude":"56.10000000","longitude":"21.71666670","name":"Notenai"},{"id":"1457890","latitude":"56.10000000","longitude":"21.71666670","name":"Notenay"},{"id":"1457891","latitude":"56.10000000","longitude":"21.71666670","name":"Notenu"},{"id":"1457968","latitude":"55.93333330","longitude":"21.91666670","name":"Nugarey"},{"id":"1457969","latitude":"55.93333330","longitude":"21.91666670","name":"Nugariai"},{"id":"1458050","latitude":"56.05000000","longitude":"21.95000000","name":"Olki"},{"id":"1458053","latitude":"56.03333330","longitude":"22.05000000","name":"Olsiady"},{"id":"1458080","latitude":"56.25000000","longitude":"21.66666670","name":"Opule"},{"id":"1458084","latitude":"56.08333330","longitude":"21.58333330","name":"Orlany"},{"id":"1458118","latitude":"55.96666670","longitude":"21.75000000","name":"Ozero Videykyay"},{"id":"1458159","latitude":"56.01666670","longitude":"22.60000000","name":"Pabalve"},{"id":"1458160","latitude":"56.01666670","longitude":"22.60000000","name":"Pabalves"},{"id":"1458172","latitude":"55.76666670","longitude":"22.46666670","name":"Paberzhulis Pervyy"},{"id":"1458186","latitude":"55.76666670","longitude":"22.46666670","name":"Pabirzulio"},{"id":"1458187","latitude":"55.76666670","longitude":"22.46666670","name":"Pabirzulis Didysis"},{"id":"1458266","latitude":"55.78333330","longitude":"22.51666670","name":"Padvariai"},{"id":"1458276","latitude":"56.16666670","longitude":"22.08333330","name":"Padvarninkai"},{"id":"1458283","latitude":"55.96666670","longitude":"22.05000000","name":"Paezere"},{"id":"1458288","latitude":"55.63333330","longitude":"22.30000000","name":"Paezeris"},{"id":"1458292","latitude":"55.96666670","longitude":"22.05000000","name":"Paezeriu"},{"id":"1458295","latitude":"55.63333330","longitude":"22.30000000","name":"Paezheris"},{"id":"1458331","latitude":"55.70000000","longitude":"22.50000000","name":"Pagirgzdute"},{"id":"1458332","latitude":"55.70000000","longitude":"22.48333330","name":"Pagirgzdutis"},{"id":"1458347","latitude":"55.76666670","longitude":"22.55000000","name":"Pagludziai"},{"id":"1458385","latitude":"55.96666670","longitude":"21.98333330","name":"Paisiotai"},{"id":"1458408","latitude":"55.66666670","longitude":"22.11666670","name":"Pajomantis"},{"id":"1458425","latitude":"55.68333330","longitude":"21.93333330","name":"Pajurio"},{"id":"1458427","latitude":"55.68333330","longitude":"21.93333330","name":"Pajuris"},{"id":"1458441","latitude":"56.28333330","longitude":"21.65000000","name":"Pakalnishkyay"},{"id":"1458451","latitude":"56.28333330","longitude":"21.65000000","name":"Pakalniskiai"},{"id":"1458457","latitude":"56.28333330","longitude":"21.65000000","name":"Pakalniskiu"},{"id":"1458462","latitude":"56.25000000","longitude":"22.51666670","name":"Pakalupys"},{"id":"1458474","latitude":"55.90000000","longitude":"22.38333330","name":"Pakapiai"},{"id":"1458503","latitude":"55.90000000","longitude":"21.90000000","name":"Pakirkshnoyas"},{"id":"1458504","latitude":"55.90000000","longitude":"21.90000000","name":"Pakirksnojis"},{"id":"1458543","latitude":"55.86666670","longitude":"22.30000000","name":"Pakulniskes"},{"id":"1458557","latitude":"55.88333330","longitude":"21.66666670","name":"Pakutavenay"},{"id":"1458558","latitude":"55.88333330","longitude":"21.66666670","name":"Pakutavenu"},{"id":"1458560","latitude":"55.88333330","longitude":"21.66666670","name":"Pakutuvenai"},{"id":"1458561","latitude":"55.88333330","longitude":"21.66666670","name":"Pakutuvenu"},{"id":"1458581","latitude":"55.70000000","longitude":"21.93333330","name":"Palaychey"},{"id":"1458584","latitude":"55.78333330","longitude":"22.58333330","name":"Palbine"},{"id":"1458595","latitude":"55.63333330","longitude":"22.43333330","name":"Palentinis"},{"id":"1458600","latitude":"55.86666670","longitude":"22.46666670","name":"Palepyay"},{"id":"1458615","latitude":"55.86666670","longitude":"22.46666670","name":"Paliepiai"},{"id":"1458649","latitude":"55.78333330","longitude":"22.58333330","name":"Paloniai I"},{"id":"1458650","latitude":"55.78333330","longitude":"22.58333330","name":"Paloniai Pirmieji"},{"id":"1458660","latitude":"56.21666670","longitude":"21.41666670","name":"Palukne"},{"id":"1458662","latitude":"56.21666670","longitude":"21.41666670","name":"Paluknes"},{"id":"1458671","latitude":"55.68333330","longitude":"22.33333330","name":"Palukscio"},{"id":"1458672","latitude":"55.95000000","longitude":"21.70000000","name":"Palukshchey"},{"id":"1458673","latitude":"55.68333330","longitude":"22.33333330","name":"Palukshtis"},{"id":"1458674","latitude":"55.68333330","longitude":"22.33333330","name":"Palukstis Didysis"},{"id":"1458675","latitude":"55.68333330","longitude":"22.33333330","name":"Palukstis"},{"id":"1458682","latitude":"55.95000000","longitude":"21.70000000","name":"Palusciai"},{"id":"1458683","latitude":"55.95000000","longitude":"21.70000000","name":"Palusciu"},{"id":"1458727","latitude":"55.73333330","longitude":"22.41666670","name":"Panakatis"},{"id":"1458801","latitude":"55.95000000","longitude":"21.63333330","name":"Pap'evis"},{"id":"1458803","latitude":"55.95000000","longitude":"21.63333330","name":"Papieviai"},{"id":"1458804","latitude":"55.75000000","longitude":"21.86666670","name":"Papilalis"},{"id":"1458837","latitude":"55.95000000","longitude":"22.58333330","name":"Paprudziai"},{"id":"1458854","latitude":"55.80000000","longitude":"22.53333330","name":"Paramoch'"},{"id":"1458856","latitude":"55.80000000","longitude":"22.53333330","name":"Paramotis"},{"id":"1458895","latitude":"55.68333330","longitude":"22.21666670","name":"Paseikis"},{"id":"1458918","latitude":"55.95000000","longitude":"22.51666670","name":"Pashkovenay"},{"id":"1458931","latitude":"56.25000000","longitude":"21.93333330","name":"Pasile"},{"id":"1458934","latitude":"56.25000000","longitude":"21.93333330","name":"Pasiles"},{"id":"1458958","latitude":"55.95000000","longitude":"22.51666670","name":"Paskuvenai"},{"id":"1458971","latitude":"56.10000000","longitude":"22.11666670","name":"Pasruoje"},{"id":"1458972","latitude":"56.10000000","longitude":"22.11666670","name":"Pasruoye"},{"id":"1459029","latitude":"55.91666670","longitude":"22.41666670","name":"Patumsaliai"},{"id":"1459030","latitude":"55.86666670","longitude":"22.61666670","name":"Patumsiai"},{"id":"1459032","latitude":"55.75000000","longitude":"22.13333330","name":"Patveris"},{"id":"1459033","latitude":"55.76666670","longitude":"22.03333330","name":"Patyris"},{"id":"1459036","latitude":"55.95000000","longitude":"22.03333330","name":"Paukshtakis"},{"id":"1459037","latitude":"55.95000000","longitude":"22.03333330","name":"Paukshtakyay"},{"id":"1459038","latitude":"55.95000000","longitude":"22.03333330","name":"Paukstakiai"},{"id":"1459050","latitude":"55.91138890","longitude":"21.84416670","name":"P\u00c5\u201aungiany"},{"id":"1459077","latitude":"55.76666670","longitude":"22.48333330","name":"Pavandene"},{"id":"1459078","latitude":"55.76666670","longitude":"22.48333330","name":"Pavandenio"},{"id":"1459079","latitude":"55.76666670","longitude":"22.48333330","name":"Pavandenis"},{"id":"1459080","latitude":"55.76666670","longitude":"22.48333330","name":"Pavandenys"},{"id":"1459136","latitude":"55.70000000","longitude":"22.03333330","name":"Pavlyay"},{"id":"1459154","latitude":"55.96666670","longitude":"22.05000000","name":"Payezheryay"},{"id":"1459157","latitude":"55.96666670","longitude":"21.98333330","name":"Payshintay"},{"id":"1459170","latitude":"55.68333330","longitude":"21.93333330","name":"Payuris"},{"id":"1459190","latitude":"55.78333330","longitude":"22.03333330","name":"Pazeros"},{"id":"1459193","latitude":"55.78333330","longitude":"22.03333330","name":"Pazheryay"},{"id":"1459196","latitude":"55.75000000","longitude":"21.71666670","name":"Pazhvelsis"},{"id":"1459203","latitude":"55.75000000","longitude":"21.71666670","name":"Pazvelsis"},{"id":"1459206","latitude":"55.75000000","longitude":"21.71666670","name":"Pazvelsys"},{"id":"1459210","latitude":"55.63333330","longitude":"22.51666670","name":"Pechule"},{"id":"1459211","latitude":"55.70000000","longitude":"22.03333330","name":"Pechulishki"},{"id":"1459212","latitude":"55.63333330","longitude":"22.51666670","name":"Peciuliai"},{"id":"1459213","latitude":"55.70000000","longitude":"22.03333330","name":"Peciuliske"},{"id":"1459225","latitude":"55.70000000","longitude":"21.93333330","name":"Pelaiciai"},{"id":"1459229","latitude":"56.11666670","longitude":"21.41666670","name":"Peldziai"},{"id":"1459270","latitude":"55.60000000","longitude":"22.41666670","name":"Pempes"},{"id":"1459276","latitude":"55.60000000","longitude":"22.41666670","name":"Pempo"},{"id":"1459314","latitude":"55.96666670","longitude":"22.51666670","name":"Pervainiai"},{"id":"1459329","latitude":"55.96666670","longitude":"22.51666670","name":"Pervonyay"},{"id":"1459331","latitude":"56.05000000","longitude":"21.50000000","name":"Pesciai"},{"id":"1459344","latitude":"56.00000000","longitude":"22.48333330","name":"Peteklenai"},{"id":"1459359","latitude":"55.88333330","longitude":"22.43333330","name":"Petraiciai"},{"id":"1459361","latitude":"56.08333330","longitude":"22.28333330","name":"Petraiciu"},{"id":"1459362","latitude":"56.08333330","longitude":"22.28333330","name":"Petrajcie"},{"id":"1459364","latitude":"55.90000000","longitude":"22.58333330","name":"Petrakyay"},{"id":"1459373","latitude":"55.88333330","longitude":"22.43333330","name":"Petraychay"},{"id":"1459376","latitude":"56.08333330","longitude":"22.28333330","name":"Petraychyay"},{"id":"1459382","latitude":"55.90000000","longitude":"22.58333330","name":"Petrikiai"},{"id":"1459406","latitude":"55.70000000","longitude":"22.03333330","name":"Piaules"},{"id":"1459417","latitude":"56.16666670","longitude":"22.38333330","name":"Pievenai"},{"id":"1459418","latitude":"56.16666670","longitude":"22.38333330","name":"Pievienu"},{"id":"1459421","latitude":"56.16666670","longitude":"22.38333330","name":"Piewiany"},{"id":"1459439","latitude":"56.41666670","longitude":"22.11666670","name":"Pikeliai"},{"id":"1459447","latitude":"56.41666670","longitude":"22.11666670","name":"Pikeliu"},{"id":"1459449","latitude":"56.41666670","longitude":"22.11666670","name":"Pikelyay"},{"id":"1459540","latitude":"55.78333330","longitude":"21.81666670","name":"Pivoray"},{"id":"1459542","latitude":"55.78333330","longitude":"21.81666670","name":"Pivoru"},{"id":"1459545","latitude":"56.16666670","longitude":"22.38333330","name":"Piyevenay"},{"id":"1459564","latitude":"56.05000000","longitude":"21.81666670","name":"Plateliai"},{"id":"1459565","latitude":"56.05000000","longitude":"21.81666670","name":"Plateliu"},{"id":"1459566","latitude":"56.05000000","longitude":"21.81666670","name":"Platelyai"},{"id":"1459567","latitude":"56.05000000","longitude":"21.81666670","name":"Platelyay"},{"id":"1459578","latitude":"55.78333330","longitude":"22.13333330","name":"Plauskiniai"},{"id":"1459579","latitude":"55.78333330","longitude":"22.13333330","name":"Plauskinyay"},{"id":"1459596","latitude":"56.03333330","longitude":"22.36666670","name":"Pleliai"},{"id":"1459597","latitude":"56.21666670","longitude":"22.35000000","name":"Plenakai"},{"id":"1459598","latitude":"56.21666670","longitude":"22.35000000","name":"Plenakiai"},{"id":"1459599","latitude":"56.21666670","longitude":"22.35000000","name":"Plenaki"},{"id":"1459600","latitude":"56.21666670","longitude":"22.35000000","name":"Plenakyay"},{"id":"1459609","latitude":"56.21666670","longitude":"22.35000000","name":"Plienakiu"},{"id":"1459614","latitude":"55.85000000","longitude":"22.10000000","name":"Plikiai"},{"id":"1459622","latitude":"55.85000000","longitude":"22.10000000","name":"Plikyay"},{"id":"1459627","latitude":"56.15000000","longitude":"22.18333330","name":"Plinkses"},{"id":"1459641","latitude":"56.05000000","longitude":"21.81666670","name":"Plotele"},{"id":"1459643","latitude":"55.91138890","longitude":"21.84416670","name":"Plunge"},{"id":"1459644","latitude":"55.91138890","longitude":"21.84416670","name":"Plunges"},{"id":"1459645","latitude":"55.61666670","longitude":"21.86666670","name":"Plunkenai"},{"id":"1459646","latitude":"55.61666670","longitude":"21.86666670","name":"Plunkenay"},{"id":"1459647","latitude":"55.85000000","longitude":"22.28333330","name":"Pluotine"},{"id":"1459654","latitude":"55.85000000","longitude":"22.28333330","name":"Plutine"},{"id":"1459689","latitude":"56.01666670","longitude":"22.60000000","name":"Pobolwiany"},{"id":"1459739","latitude":"55.65000000","longitude":"22.31666670","name":"Podvernikay-Darzho"},{"id":"1459740","latitude":"55.78333330","longitude":"22.51666670","name":"Podvorantsy"},{"id":"1459745","latitude":"55.78333330","longitude":"22.51666670","name":"Podvorniki"},{"id":"1459751","latitude":"55.70000000","longitude":"22.48333330","name":"Pogerzhduchyay"},{"id":"1459775","latitude":"55.86666670","longitude":"22.30000000","name":"Pokal'nishki"},{"id":"1459791","latitude":"55.90000000","longitude":"22.38333330","name":"Pokopis"},{"id":"1459821","latitude":"55.63333330","longitude":"22.43333330","name":"Polontina"},{"id":"1459827","latitude":"56.21666670","longitude":"21.41666670","name":"Poluknie"},{"id":"1459886","latitude":"55.95000000","longitude":"22.58333330","name":"Poprudze"},{"id":"1459911","latitude":"55.78333330","longitude":"22.28333330","name":"Poshaltinis"},{"id":"1459917","latitude":"55.68333330","longitude":"22.21666670","name":"Posheykyay"},{"id":"1459920","latitude":"56.25000000","longitude":"21.93333330","name":"Poshile"},{"id":"1459949","latitude":"56.10000000","longitude":"22.11666670","name":"Posrui"},{"id":"1459960","latitude":"56.25000000","longitude":"21.93333330","name":"Poszylany"},{"id":"1459963","latitude":"56.00000000","longitude":"22.48333330","name":"Poteklanay"},{"id":"1459967","latitude":"55.76666670","longitude":"22.03333330","name":"Potiryay"},{"id":"1460014","latitude":"55.63333330","longitude":"22.30000000","name":"Pozere"},{"id":"1460015","latitude":"55.63333330","longitude":"22.30000000","name":"Pozeres"},{"id":"1460023","latitude":"55.63333330","longitude":"22.30000000","name":"Pozhere"},{"id":"1460036","latitude":"55.60000000","longitude":"22.10000000","name":"Pradimas"},{"id":"1460038","latitude":"55.83333330","longitude":"21.68333330","name":"Pragiedruliai"},{"id":"1460046","latitude":"55.60000000","longitude":"22.10000000","name":"Prapimo"},{"id":"1460048","latitude":"55.60000000","longitude":"22.10000000","name":"Prapymas"},{"id":"1460098","latitude":"55.75000000","longitude":"22.21666670","name":"Pribitka"},{"id":"1460100","latitude":"55.75000000","longitude":"22.21666670","name":"Pribytkay"},{"id":"1460143","latitude":"55.88333330","longitude":"21.75000000","name":"Prusaley"},{"id":"1460144","latitude":"55.88333330","longitude":"21.75000000","name":"Prusaliai"},{"id":"1460145","latitude":"55.88333330","longitude":"21.75000000","name":"Prusaliu"},{"id":"1460149","latitude":"55.88333330","longitude":"21.75000000","name":"Pruseliu"},{"id":"1460168","latitude":"56.10000000","longitude":"21.86666670","name":"Puchkoryay"},{"id":"1460172","latitude":"56.10000000","longitude":"21.86666670","name":"Puckoriai"},{"id":"1460174","latitude":"56.10000000","longitude":"21.86666670","name":"Puckoriu"},{"id":"1460185","latitude":"56.18333330","longitude":"21.88333330","name":"Puki-Barsze"},{"id":"1460201","latitude":"56.25000000","longitude":"21.53333330","name":"Puodkaliai"},{"id":"1460209","latitude":"56.18333330","longitude":"21.90000000","name":"Puoke"},{"id":"1460240","latitude":"55.95000000","longitude":"22.23333330","name":"Purpliai"},{"id":"1460242","latitude":"56.38333330","longitude":"22.43333330","name":"Purpliu"},{"id":"1460244","latitude":"56.38333330","longitude":"22.43333330","name":"Purplyay"},{"id":"1460245","latitude":"55.85000000","longitude":"21.95000000","name":"Purvaiciai"},{"id":"1460246","latitude":"55.85000000","longitude":"21.95000000","name":"Purvaiciu"},{"id":"1460247","latitude":"55.85000000","longitude":"21.95000000","name":"Purvaychey"},{"id":"1460248","latitude":"55.70000000","longitude":"22.01666670","name":"Purveliai"},{"id":"1460305","latitude":"56.10000000","longitude":"21.86666670","name":"Puszkary"},{"id":"1460310","latitude":"56.23333330","longitude":"21.55000000","name":"Putkale"},{"id":"1460326","latitude":"55.60000000","longitude":"22.45000000","name":"Putviai"},{"id":"1460327","latitude":"55.60000000","longitude":"22.45000000","name":"Putviniskiai"},{"id":"1460328","latitude":"55.60000000","longitude":"22.45000000","name":"Putvinskiai"},{"id":"1460329","latitude":"55.60000000","longitude":"22.45000000","name":"Putvinskyay"},{"id":"1460374","latitude":"55.78333330","longitude":"21.81666670","name":"Pyvorai"},{"id":"1460375","latitude":"55.78333330","longitude":"21.81666670","name":"Pyvoriai"},{"id":"1460381","latitude":"56.28333330","longitude":"22.03333330","name":"Racaliai"},{"id":"1460390","latitude":"56.28333330","longitude":"22.16666670","name":"Rachyay"},{"id":"1460392","latitude":"56.28333330","longitude":"22.16666670","name":"Raciai"},{"id":"1460395","latitude":"56.28333330","longitude":"22.16666670","name":"Raciu"},{"id":"1460468","latitude":"55.96666670","longitude":"22.30000000","name":"Rainiai"},{"id":"1460533","latitude":"55.86666670","longitude":"22.45000000","name":"Rapaliai"},{"id":"1460578","latitude":"56.23333330","longitude":"21.86666670","name":"Raudoniai"},{"id":"1460598","latitude":"55.96666670","longitude":"22.30000000","name":"Raynyay"},{"id":"1460613","latitude":"55.71666670","longitude":"22.38333330","name":"Razmai"},{"id":"1460614","latitude":"55.71666670","longitude":"22.38333330","name":"Razmy"},{"id":"1460624","latitude":"55.66666670","longitude":"22.30000000","name":"Reistriai"},{"id":"1460625","latitude":"56.35000000","longitude":"22.35000000","name":"Reiviciai"},{"id":"1460626","latitude":"56.35000000","longitude":"22.35000000","name":"Reivyciai"},{"id":"1460627","latitude":"56.35000000","longitude":"22.35000000","name":"Reivyciu"},{"id":"1460629","latitude":"56.26666670","longitude":"22.53333330","name":"Rekechyay"},{"id":"1460630","latitude":"56.26666670","longitude":"22.53333330","name":"Rekeciai"},{"id":"1460631","latitude":"56.26666670","longitude":"22.53333330","name":"Rekeciu"},{"id":"1460641","latitude":"55.73333330","longitude":"22.51666670","name":"Reksciai"},{"id":"1460643","latitude":"55.73333330","longitude":"22.51666670","name":"Rekstsyay"},{"id":"1460656","latitude":"56.25000000","longitude":"22.06666670","name":"Renava"},{"id":"1460657","latitude":"56.25000000","longitude":"22.06666670","name":"Renavas"},{"id":"1460658","latitude":"56.25000000","longitude":"22.06666670","name":"Renavos"},{"id":"1460659","latitude":"56.25000000","longitude":"22.06666670","name":"Renowo"},{"id":"1460660","latitude":"55.65000000","longitude":"22.15000000","name":"Renschyay"},{"id":"1460661","latitude":"55.65000000","longitude":"22.15000000","name":"Rensciai"},{"id":"1460662","latitude":"55.65000000","longitude":"22.15000000","name":"Renstsyay"},{"id":"1460665","latitude":"55.80000000","longitude":"21.78333330","name":"Repsaiciai"},{"id":"1460666","latitude":"55.80000000","longitude":"21.78333330","name":"Repsaiciu"},{"id":"1460668","latitude":"55.80000000","longitude":"21.78333330","name":"Repshaychey"},{"id":"1460671","latitude":"55.65000000","longitude":"22.15000000","name":"Resciai"},{"id":"1460674","latitude":"55.63333330","longitude":"22.28333330","name":"Reshkete"},{"id":"1460676","latitude":"55.71944440","longitude":"21.93111110","name":"Retavas"},{"id":"1460677","latitude":"55.71944440","longitude":"21.93111110","name":"Retowo"},{"id":"1460682","latitude":"56.35000000","longitude":"22.35000000","name":"Reyvichay"},{"id":"1460698","latitude":"55.73333330","longitude":"22.45000000","name":"Ridikai"},{"id":"1460709","latitude":"55.63333330","longitude":"22.28333330","name":"Riesketai"},{"id":"1460710","latitude":"55.71944440","longitude":"21.93111110","name":"Rietavas"},{"id":"1460711","latitude":"55.71944440","longitude":"21.93111110","name":"Rietavo"},{"id":"1460712","latitude":"56.35000000","longitude":"22.35000000","name":"Rievieciai"},{"id":"1460728","latitude":"55.63333330","longitude":"21.90000000","name":"Rimge"},{"id":"1460749","latitude":"55.88333330","longitude":"22.10000000","name":"Rimuchyay"},{"id":"1460751","latitude":"55.88333330","longitude":"22.10000000","name":"Rimuciai"},{"id":"1460757","latitude":"55.63333330","longitude":"21.90000000","name":"Rindes"},{"id":"1460760","latitude":"55.88333330","longitude":"22.38333330","name":"Ringaliai"},{"id":"1460780","latitude":"55.95000000","longitude":"22.23333330","name":"Riskenai"},{"id":"1460782","latitude":"56.40000000","longitude":"22.05000000","name":"Ritinay"},{"id":"1460783","latitude":"56.40000000","longitude":"22.05000000","name":"Ritine"},{"id":"1460784","latitude":"56.40000000","longitude":"22.05000000","name":"Ritines"},{"id":"1460857","latitude":"55.86666670","longitude":"22.45000000","name":"Ropalis"},{"id":"1460870","latitude":"56.08333330","longitude":"22.03333330","name":"Rotinenai"},{"id":"1460871","latitude":"56.08333330","longitude":"22.03333330","name":"Rotinenay"},{"id":"1460872","latitude":"56.08333330","longitude":"22.03333330","name":"Rotinenu"},{"id":"1460882","latitude":"56.08333330","longitude":"22.03333330","name":"Rotyniany"},{"id":"1460890","latitude":"55.85000000","longitude":"22.11666670","name":"Rubeliai"},{"id":"1460896","latitude":"55.91666670","longitude":"22.20000000","name":"Rubezaiciai"},{"id":"1460897","latitude":"55.91666670","longitude":"22.20000000","name":"Rubezaiciu"},{"id":"1460898","latitude":"55.91666670","longitude":"22.20000000","name":"Rubezhaychyay"},{"id":"1460899","latitude":"56.16666670","longitude":"22.21666670","name":"Rubikai"},{"id":"1460924","latitude":"56.03333330","longitude":"21.71666670","name":"Rudaiciai"},{"id":"1460926","latitude":"56.03333330","longitude":"21.71666670","name":"Rudaiciu"},{"id":"1460927","latitude":"56.03333330","longitude":"21.71666670","name":"Rudajcie"},{"id":"1460939","latitude":"56.03333330","longitude":"21.71666670","name":"Rudaychyay"},{"id":"1460975","latitude":"55.73333330","longitude":"22.45000000","name":"Rudukishkyay"},{"id":"1460976","latitude":"55.91666670","longitude":"22.41666670","name":"Rudupiai"},{"id":"1460978","latitude":"55.91666670","longitude":"22.41666670","name":"Rudupiu"},{"id":"1460979","latitude":"55.91666670","longitude":"22.41666670","name":"Rudupyay"},{"id":"1461012","latitude":"55.91666670","longitude":"22.38333330","name":"Ruisenai"},{"id":"1461017","latitude":"56.18333330","longitude":"21.66666670","name":"Rukai"},{"id":"1461021","latitude":"56.18333330","longitude":"21.66666670","name":"Rukay"},{"id":"1461024","latitude":"56.18333330","longitude":"21.66666670","name":"Ruki"},{"id":"1461051","latitude":"56.18333330","longitude":"21.66666670","name":"Ruku"},{"id":"1461069","latitude":"56.20000000","longitude":"21.81666670","name":"Rumsaiciai"},{"id":"1461070","latitude":"56.20000000","longitude":"21.81666670","name":"Rumsaiciu"},{"id":"1461073","latitude":"56.20000000","longitude":"21.81666670","name":"Rumshaychyay"},{"id":"1461108","latitude":"55.65000000","longitude":"22.46666670","name":"Rushkyay"},{"id":"1461117","latitude":"55.65000000","longitude":"22.46666670","name":"Ruska"},{"id":"1461118","latitude":"55.63333330","longitude":"22.20000000","name":"Ruskiai"},{"id":"1461144","latitude":"55.91666670","longitude":"22.38333330","name":"Ruyshinay"},{"id":"1461145","latitude":"56.35000000","longitude":"22.18333330","name":"Ruzgai"},{"id":"1461174","latitude":"55.93333330","longitude":"22.18333330","name":"Ryshkenay"},{"id":"1461177","latitude":"55.93333330","longitude":"22.18333330","name":"Ryskenai"},{"id":"1461178","latitude":"55.88333330","longitude":"22.38333330","name":"Ryygayle"},{"id":"1461203","latitude":"56.15000000","longitude":"21.51666670","name":"Sairaminiai"},{"id":"1461207","latitude":"56.20000000","longitude":"21.50000000","name":"Sakaliai"},{"id":"1461211","latitude":"56.20000000","longitude":"21.50000000","name":"Sakaliu"},{"id":"1461245","latitude":"56.06666670","longitude":"21.56666670","name":"Salantai"},{"id":"1461246","latitude":"56.06666670","longitude":"21.56666670","name":"Salantay"},{"id":"1461247","latitude":"56.06666670","longitude":"21.56666670","name":"Salantu"},{"id":"1461248","latitude":"56.06666670","longitude":"21.56666670","name":"Salanty"},{"id":"1461287","latitude":"55.78333330","longitude":"22.28333330","name":"Saltupiai"},{"id":"1461309","latitude":"55.68333330","longitude":"22.55000000","name":"Sandvaryay"},{"id":"1461338","latitude":"56.06666670","longitude":"22.20000000","name":"Sarakai"},{"id":"1461339","latitude":"56.06666670","longitude":"22.20000000","name":"Sarakay"},{"id":"1461340","latitude":"55.76666670","longitude":"22.60000000","name":"Sarakiske"},{"id":"1461342","latitude":"56.06666670","longitude":"22.20000000","name":"Saraku"},{"id":"1461361","latitude":"56.26666670","longitude":"21.66666670","name":"Sarke"},{"id":"1461362","latitude":"56.26666670","longitude":"21.66666670","name":"Sarkes"},{"id":"1461364","latitude":"55.86666670","longitude":"21.93333330","name":"Sarkiai"},{"id":"1461369","latitude":"56.13333330","longitude":"21.96666670","name":"Sarnele"},{"id":"1461370","latitude":"56.13333330","longitude":"21.96666670","name":"Sarneles"},{"id":"1461377","latitude":"55.86666670","longitude":"22.13333330","name":"Sasaiciai"},{"id":"1461388","latitude":"56.00000000","longitude":"21.68333330","name":"Sateikai"},{"id":"1461389","latitude":"56.00000000","longitude":"21.68333330","name":"Sateikiai"},{"id":"1461390","latitude":"56.00000000","longitude":"21.68333330","name":"Sateikiu"},{"id":"1461392","latitude":"56.16666670","longitude":"21.75000000","name":"Sates"},{"id":"1461399","latitude":"56.15000000","longitude":"21.51666670","name":"Satraminiai"},{"id":"1461400","latitude":"56.15000000","longitude":"21.51666670","name":"Satraminiu"},{"id":"1461402","latitude":"56.11666670","longitude":"21.55000000","name":"Saucikiai"},{"id":"1461403","latitude":"56.11666670","longitude":"21.55000000","name":"Sauciku"},{"id":"1461426","latitude":"56.15000000","longitude":"21.58333330","name":"Saukliai"},{"id":"1461427","latitude":"56.15000000","longitude":"21.58333330","name":"Saukliu"},{"id":"1461441","latitude":"55.90000000","longitude":"22.03333330","name":"Sausdravenai"},{"id":"1461444","latitude":"55.86666670","longitude":"22.15000000","name":"Saushile"},{"id":"1461446","latitude":"55.86666670","longitude":"22.15000000","name":"Sausile"},{"id":"1461447","latitude":"55.86666670","longitude":"22.15000000","name":"Sausilis"},{"id":"1461453","latitude":"56.11666670","longitude":"22.51666670","name":"Savarina"},{"id":"1461473","latitude":"55.90000000","longitude":"22.03333330","name":"Sayezdrovenay"},{"id":"1461485","latitude":"56.26666670","longitude":"21.53333330","name":"Schoden"},{"id":"1461488","latitude":"55.83333330","longitude":"22.38333330","name":"Sebai"},{"id":"1461490","latitude":"56.16666670","longitude":"22.10000000","name":"Seda"},{"id":"1461493","latitude":"56.16666670","longitude":"22.10000000","name":"Sedos"},{"id":"1461514","latitude":"56.16666670","longitude":"21.48333330","name":"Sekai"},{"id":"1461521","latitude":"55.98333330","longitude":"21.63333330","name":"Seleney"},{"id":"1461522","latitude":"55.98333330","longitude":"21.63333330","name":"Seleniai"},{"id":"1461543","latitude":"55.81666670","longitude":"22.41666670","name":"Semitishki"},{"id":"1461544","latitude":"55.86666670","longitude":"21.63333330","name":"Semuliai"},{"id":"1461554","latitude":"55.68333330","longitude":"22.55000000","name":"Sendvariai"},{"id":"1461556","latitude":"55.81666670","longitude":"22.00000000","name":"Sendvory"},{"id":"1461576","latitude":"56.33333330","longitude":"22.01666670","name":"Senmieste"},{"id":"1461583","latitude":"56.11666670","longitude":"21.41666670","name":"Serapinai"},{"id":"1461611","latitude":"56.23333330","longitude":"22.23333330","name":"Serksnenai"},{"id":"1461612","latitude":"56.23333330","longitude":"22.23333330","name":"Serksnenu"},{"id":"1461613","latitude":"56.15000000","longitude":"21.60000000","name":"Serksniai"},{"id":"1461614","latitude":"56.15000000","longitude":"21.60000000","name":"Serksniu"},{"id":"1461639","latitude":"55.83333330","longitude":"22.38333330","name":"Sevby"},{"id":"1461644","latitude":"55.63333330","longitude":"22.46666670","name":"Severenai"},{"id":"1461662","latitude":"56.20000000","longitude":"21.50000000","name":"Shakole"},{"id":"1461697","latitude":"56.26666670","longitude":"21.66666670","name":"Sharke"},{"id":"1461698","latitude":"55.86666670","longitude":"21.93333330","name":"Sharkey"},{"id":"1461704","latitude":"56.13333330","longitude":"21.96666670","name":"Sharnele"},{"id":"1461714","latitude":"56.00000000","longitude":"21.68333330","name":"Shateiki"},{"id":"1461716","latitude":"56.16666670","longitude":"21.75000000","name":"Shates"},{"id":"1461717","latitude":"56.00000000","longitude":"21.68333330","name":"Shateykey"},{"id":"1461718","latitude":"56.00000000","longitude":"21.68333330","name":"Shateykyay"},{"id":"1461722","latitude":"56.15000000","longitude":"21.51666670","name":"Shatrominyay"},{"id":"1461725","latitude":"56.11666670","longitude":"21.55000000","name":"Shauchikyay"},{"id":"1461731","latitude":"56.15000000","longitude":"21.58333330","name":"Shauklyay"},{"id":"1461758","latitude":"55.86666670","longitude":"21.63333330","name":"Sh'emuley"},{"id":"1461760","latitude":"56.23333330","longitude":"22.23333330","name":"Sherkshnenay"},{"id":"1461761","latitude":"56.15000000","longitude":"21.60000000","name":"Sherkshnyay"},{"id":"1461764","latitude":"55.86666670","longitude":"22.13333330","name":"Sheshaychyay"},{"id":"1461775","latitude":"56.00000000","longitude":"21.68333330","name":"Sheteykey"},{"id":"1461812","latitude":"55.95000000","longitude":"22.33333330","name":"Shilinay"},{"id":"1461859","latitude":"55.80000000","longitude":"22.55000000","name":"Shlagiryay"},{"id":"1461875","latitude":"55.98333330","longitude":"21.98333330","name":"Shlyachki"},{"id":"1461920","latitude":"55.80000000","longitude":"22.46666670","name":"Shukaychyay"},{"id":"1461934","latitude":"56.25000000","longitude":"21.81666670","name":"Shul'petryay"},{"id":"1461940","latitude":"55.81666670","longitude":"22.60000000","name":"Shunkyay"},{"id":"1461943","latitude":"55.68333330","longitude":"22.20000000","name":"Shuraychyay"},{"id":"1461982","latitude":"56.16666670","longitude":"22.10000000","name":"Siady"},{"id":"1462027","latitude":"55.90000000","longitude":"22.28333330","name":"Sideray"},{"id":"1462029","latitude":"55.90000000","longitude":"22.28333330","name":"Sideriai"},{"id":"1462031","latitude":"55.90000000","longitude":"22.28333330","name":"Sideriu"},{"id":"1462048","latitude":"56.21666670","longitude":"21.35000000","name":"Sikupyay"},{"id":"1462086","latitude":"55.95000000","longitude":"22.33333330","name":"Siline"},{"id":"1462131","latitude":"55.86666670","longitude":"21.63333330","name":"Simuliai"},{"id":"1462132","latitude":"55.86666670","longitude":"21.63333330","name":"Simuliu"},{"id":"1462133","latitude":"55.81666670","longitude":"22.41666670","name":"Simutiske"},{"id":"1462155","latitude":"55.98333330","longitude":"22.20000000","name":"Siraiciai"},