[{"id":"138100","latitude":"39.81972220","longitude":"46.77888890","name":"Afatlu"},{"id":"141120","latitude":"39.81666670","longitude":"46.73333330","name":"Fakhlul"},{"id":"143203","latitude":"39.81527780","longitude":"46.75194440","name":"Khankendy"},{"id":"143326","latitude":"39.90000000","longitude":"46.86666670","name":"Khodzhalinskaya"},{"id":"143371","latitude":"39.90000000","longitude":"46.86666670","name":"Khozhalinskaya"},{"id":"144253","latitude":"39.69833330","longitude":"46.84277780","name":"Madatkend"},{"id":"144254","latitude":"39.69833330","longitude":"46.84277780","name":"Madatshen"},{"id":"144491","latitude":"39.69833330","longitude":"46.84277780","name":"M\u00c7\u009dd\u00c7\u009ddk\u00c7\u009dnd"},{"id":"144863","latitude":"39.68305560","longitude":"46.85194440","name":"Moshkhmaat"},{"id":"144864","latitude":"39.68305560","longitude":"46.85194440","name":"Moshkhmhat"},{"id":"144866","latitude":"39.68305560","longitude":"46.85194440","name":"Mosxmhat"},{"id":"145537","latitude":"39.81666670","longitude":"46.73333330","name":"Pakhlyu"},{"id":"147255","latitude":"39.81527780","longitude":"46.75194440","name":"Stepanakert"},{"id":"147705","latitude":"39.68333330","longitude":"46.86666670","name":"Tukhnakal"},{"id":"147706","latitude":"39.68333330","longitude":"46.86666670","name":"Tukhnakaya"},{"id":"148113","latitude":"39.81527780","longitude":"46.75194440","name":"Xank\u00c7\u009dndi"},{"id":"148178","latitude":"39.90000000","longitude":"46.86666670","name":"Xocal\u00c4\u00b1"}]