[{"id":"138403","latitude":"39.75027780","longitude":"46.63138890","name":"Aliahk'uch'ular"},{"id":"138404","latitude":"39.75027780","longitude":"46.63138890","name":"Aliahqulular"},{"id":"138405","latitude":"39.75027780","longitude":"46.63138890","name":"Aliakhkulular"},{"id":"138799","latitude":"39.83694440","longitude":"46.80861110","name":"Asag\u00c4\u00b1 Quscular"},{"id":"138939","latitude":"39.83694440","longitude":"46.80861110","name":"Ashagy Kushchular"},{"id":"139524","latitude":"39.65833330","longitude":"46.60000000","name":"Berdadzor"},{"id":"139533","latitude":"39.65833330","longitude":"46.60000000","name":"Bertadzor"},{"id":"139790","latitude":"39.65833330","longitude":"46.60194440","name":"Boyuk Galad\u00c7\u009dr\u00c7\u009dsi"},{"id":"139803","latitude":"39.65833330","longitude":"46.60194440","name":"Boyuk Qalad\u00c7\u009dr\u00c7\u009dsi"},{"id":"139989","latitude":"39.78416670","longitude":"46.60055560","name":"Cayk\u00c7\u009dnd"},{"id":"140145","latitude":"39.78416670","longitude":"46.60055560","name":"Ch'ayk'end"},{"id":"140463","latitude":"39.74166670","longitude":"46.74916670","name":"Dasalt\u00c4\u00b1"},{"id":"140474","latitude":"39.74166670","longitude":"46.74916670","name":"Dashalty"},{"id":"140502","latitude":"39.68333330","longitude":"46.60000000","name":"Dashtagog"},{"id":"140503","latitude":"39.68333330","longitude":"46.60000000","name":"Dashtaog"},{"id":"141657","latitude":"39.67361110","longitude":"46.60444440","name":"G\u00f6ytala"},{"id":"142004","latitude":"39.63722220","longitude":"46.60277780","name":"Hinshen"},{"id":"142061","latitude":"39.67722220","longitude":"46.58750000","name":"Ieghtsahogh"},{"id":"142122","latitude":"39.74361110","longitude":"46.59666670","name":"Imamk'ul"},{"id":"142130","latitude":"39.74361110","longitude":"46.59666670","name":"Imamqulular"},{"id":"142135","latitude":"39.74361110","longitude":"46.59666670","name":"Imankouloular"},{"id":"142137","latitude":"39.74361110","longitude":"46.59666670","name":"Imankuluklar"},{"id":"142192","latitude":"39.75027780","longitude":"46.63138890","name":"Isaboulagh"},{"id":"142417","latitude":"39.67361110","longitude":"46.60444440","name":"Kanach't'ala"},{"id":"142418","latitude":"39.67361110","longitude":"46.60444440","name":"Kanashtala"},{"id":"142502","latitude":"39.68055560","longitude":"46.58805560","name":"Karadagly"},{"id":"142721","latitude":"39.74166670","longitude":"46.74916670","name":"K'arintak"},{"id":"143134","latitude":"39.76694440","longitude":"46.68305560","name":"Khalfali"},{"id":"143135","latitude":"39.76694440","longitude":"46.68305560","name":"Khalfalikyshlak"},{"id":"143184","latitude":"39.74888890","longitude":"46.58972220","name":"Khanali"},{"id":"143185","latitude":"39.75611110","longitude":"46.61111110","name":"Khanalp'eya"},{"id":"143188","latitude":"39.74888890","longitude":"46.58972220","name":"Khanaly"},{"id":"143210","latitude":"39.75611110","longitude":"46.61111110","name":"Khanlikp'aya"},{"id":"143214","latitude":"39.75611110","longitude":"46.61111110","name":"Khanlykhpeya"},{"id":"143218","latitude":"39.75611110","longitude":"46.61111110","name":"Khanlykpeya"},{"id":"143287","latitude":"39.67000000","longitude":"46.57416670","name":"Kherikhan"},{"id":"143288","latitude":"39.67000000","longitude":"46.57416670","name":"Kherkhan"},{"id":"143505","latitude":"39.63722220","longitude":"46.60277780","name":"Kirov"},{"id":"143547","latitude":"39.68861110","longitude":"46.48138890","name":"Kizilov"},{"id":"143715","latitude":"39.63722220","longitude":"46.60277780","name":"Koynashen"},{"id":"143855","latitude":"39.83694440","longitude":"46.80861110","name":"Kushchular"},{"id":"144088","latitude":"39.76472220","longitude":"46.71027780","name":"Lac\u00c4\u00b1nlar"},{"id":"144090","latitude":"39.76472220","longitude":"46.71027780","name":"Lach'inlar"},{"id":"144188","latitude":"39.68750000","longitude":"46.64305560","name":"Lisagor"},{"id":"144308","latitude":"39.82944440","longitude":"46.79333330","name":"Mal\u00c4\u00b1b\u00c7\u009dyli"},{"id":"144317","latitude":"39.82944440","longitude":"46.79333330","name":"Malibeyli"},{"id":"144324","latitude":"39.82944440","longitude":"46.79333330","name":"Malybeyli"},{"id":"144363","latitude":"39.76833330","longitude":"46.62888890","name":"Mamishlar"},{"id":"144508","latitude":"39.76833330","longitude":"46.62888890","name":"M\u00c7\u009dmisl\u00c7\u009dr"},{"id":"144634","latitude":"39.65833330","longitude":"46.60194440","name":"Metskaladeresi"},{"id":"144635","latitude":"39.65833330","longitude":"46.60194440","name":"Metsqalad\u00c7\u009dr\u00c7\u009dsi"},{"id":"144637","latitude":"39.65833330","longitude":"46.60194440","name":"Mets Shen"},{"id":"144764","latitude":"39.77555560","longitude":"46.66166670","name":"Mirz\u00c7\u009dl\u00c7\u009dr"},{"id":"145887","latitude":"39.68055560","longitude":"46.58805560","name":"Qaradagl\u00c4\u00b1"},{"id":"146537","latitude":"39.77305560","longitude":"46.63333330","name":"S\u00c4\u00b1rlan"},{"id":"146644","latitude":"39.75388890","longitude":"46.62805560","name":"S\u00c7\u009dfixanlar"},{"id":"146980","latitude":"39.77305560","longitude":"46.63333330","name":"Shirlan"},{"id":"147027","latitude":"39.77305560","longitude":"46.63333330","name":"Shrlan"},{"id":"147053","latitude":"39.75000000","longitude":"46.70000000","name":"Shushulu"},{"id":"147100","latitude":"39.77305560","longitude":"46.63333330","name":"Shyrlan"},{"id":"147339","latitude":"39.75000000","longitude":"46.70000000","name":"Susulu"},{"id":"147677","latitude":"39.66666670","longitude":"46.61250000","name":"Tsaghkadzor"},{"id":"147684","latitude":"39.66666670","longitude":"46.61250000","name":"Tsaxkadzor"},{"id":"147742","latitude":"39.68750000","longitude":"46.64305560","name":"Turssu"},{"id":"148100","latitude":"39.74888890","longitude":"46.58972220","name":"Xanal\u00c4\u00b1"},{"id":"148116","latitude":"39.75611110","longitude":"46.61111110","name":"Xanl\u00c4\u00b1qp\u00c7\u009dy\u00c7\u009d"},{"id":"148157","latitude":"39.76694440","longitude":"46.68305560","name":"X\u00c7\u009dlf\u00c7\u009dli"},{"id":"148164","latitude":"39.67000000","longitude":"46.57416670","name":"X\u00c7\u009drxan"},{"id":"148295","latitude":"39.67722220","longitude":"46.58750000","name":"Yeghtsahogh"},{"id":"148296","latitude":"39.67722220","longitude":"46.58750000","name":"Yegtsaog"},{"id":"148303","latitude":"39.67722220","longitude":"46.58750000","name":"Yekhtsahogh"},{"id":"148304","latitude":"39.67722220","longitude":"46.58750000","name":"Yekhtsaveg"},{"id":"148425","latitude":"39.67722220","longitude":"46.58750000","name":"Yextsahog"},{"id":"148504","latitude":"39.83333330","longitude":"46.81666670","name":"Yukhary Kushchular"},{"id":"148582","latitude":"39.83333330","longitude":"46.81666670","name":"Yuxar\u00c4\u00b1 Kuscular"},{"id":"148666","latitude":"39.74972220","longitude":"46.67333330","name":"Zaman-Payasy"},{"id":"148667","latitude":"39.74972220","longitude":"46.67333330","name":"Zamanp\u00c7\u009dy\u00c7\u009dsi"},{"id":"148668","latitude":"39.74972220","longitude":"46.67333330","name":"Zamanpeyasi"},{"id":"148684","latitude":"39.71722220","longitude":"46.67611110","name":"Zar\u00c4\u00b1sl\u00c4\u00b1"},{"id":"148710","latitude":"39.71722220","longitude":"46.67611110","name":"Zarisli"},{"id":"148711","latitude":"39.71722220","longitude":"46.67611110","name":"Zarist"},{"id":"148715","latitude":"39.71722220","longitude":"46.67611110","name":"Zarysly"}]