[{"id":"1478438","latitude":"31.51444440","longitude":"-7.37305560","name":"A\ufffdlane"},{"id":"1478446","latitude":"31.50000000","longitude":"-8.20000000","name":"A\ufffdouint--Ma\ufffdzouza"},{"id":"1478453","latitude":"31.45000000","longitude":"-7.78333330","name":"Aarich"},{"id":"1478468","latitude":"31.18333330","longitude":"-7.78333330","name":"Ab\ufffdachen"},{"id":"1478472","latitude":"31.46638890","longitude":"-7.28527780","name":"Abaddou"},{"id":"1478475","latitude":"31.46638890","longitude":"-7.28527780","name":"Abado"},{"id":"1478476","latitude":"31.46638890","longitude":"-7.28527780","name":"Abadou"},{"id":"1478484","latitude":"31.31666670","longitude":"-9.05000000","name":"Abarbar"},{"id":"1478501","latitude":"31.55000000","longitude":"-8.11666670","name":"Abda"},{"id":"1478528","latitude":"31.31666670","longitude":"-9.05000000","name":"Aberber"},{"id":"1478576","latitude":"31.41666670","longitude":"-8.03333330","name":"Achbarou"},{"id":"1478594","latitude":"31.50000000","longitude":"-8.53333330","name":"Achouirou"},{"id":"1478602","latitude":"31.21666670","longitude":"-9.05000000","name":"Adaghas"},{"id":"1478608","latitude":"31.01666670","longitude":"-9.16666670","name":"Adar"},{"id":"1478611","latitude":"31.06666670","longitude":"-8.73333330","name":"Adardour"},{"id":"1478616","latitude":"31.21666670","longitude":"-9.05000000","name":"Adarras"},{"id":"1478617","latitude":"31.31277780","longitude":"-7.56777780","name":"Adarza"},{"id":"1478618","latitude":"31.11666670","longitude":"-8.50000000","name":"Adassil"},{"id":"1478630","latitude":"31.16666670","longitude":"-8.85000000","name":"Addar"},{"id":"1478640","latitude":"31.16666670","longitude":"-8.85000000","name":"Adder"},{"id":"1478644","latitude":"31.44833330","longitude":"-8.96416670","name":"Ad Doummisat"},{"id":"1478645","latitude":"31.44833330","longitude":"-8.96416670","name":"Ad Doummissat"},{"id":"1478647","latitude":"31.11666670","longitude":"-8.63333330","name":"Addouz"},{"id":"1478656","latitude":"31.06666670","longitude":"-8.73333330","name":"Aderdour"},{"id":"1478658","latitude":"31.16666670","longitude":"-9.26666670","name":"Aderfi\ufffde"},{"id":"1478659","latitude":"31.16666670","longitude":"-9.26666670","name":"Aderfis"},{"id":"1478660","latitude":"31.21666670","longitude":"-9.05000000","name":"Aderras"},{"id":"1478688","latitude":"31.47111110","longitude":"-8.56138890","name":"Adouifir"},{"id":"1478689","latitude":"31.47111110","longitude":"-8.56138890","name":"Adouifire"},{"id":"1478696","latitude":"30.91666670","longitude":"-8.43333330","name":"Adouz"},{"id":"1478714","latitude":"31.18333330","longitude":"-8.31666670","name":"Adrhous"},{"id":"1478723","latitude":"31.47111110","longitude":"-8.56138890","name":"Adwifir"},{"id":"1478756","latitude":"31.00000000","longitude":"-8.90000000","name":"Afella Izdaten"},{"id":"1478757","latitude":"31.00000000","longitude":"-8.90000000","name":"Afella Izdatene"},{"id":"1478768","latitude":"30.95000000","longitude":"-8.73333330","name":"Afensou"},{"id":"1478787","latitude":"30.95000000","longitude":"-8.73333330","name":"Afersou"},{"id":"1478798","latitude":"31.48333330","longitude":"-8.75000000","name":"Afid"},{"id":"1478821","latitude":"31.34250000","longitude":"-7.42222220","name":"Afra"},{"id":"1478843","latitude":"31.33333330","longitude":"-9.20000000","name":"Aftas"},{"id":"1478861","latitude":"30.96666670","longitude":"-8.71666670","name":"Agadir"},{"id":"1478868","latitude":"31.25833330","longitude":"-9.20472220","name":"Agadir A\ufffdt Ameur"},{"id":"1478870","latitude":"31.32694440","longitude":"-8.65805560","name":"Agadir aj Jdid"},{"id":"1478880","latitude":"31.50000000","longitude":"-8.15000000","name":"Agadir Bou Setta"},{"id":"1478881","latitude":"31.45000000","longitude":"-8.13333330","name":"Agadir Chems"},{"id":"1478884","latitude":"31.32694440","longitude":"-8.65805560","name":"Agadir Djedid"},{"id":"1478890","latitude":"31.32694440","longitude":"-8.65805560","name":"Agadir el Jedid"},{"id":"1478894","latitude":"31.20000000","longitude":"-8.98333330","name":"Agadir Hourrach"},{"id":"1478911","latitude":"31.23333330","longitude":"-8.78333330","name":"Agadir Inflass"},{"id":"1478912","latitude":"31.23333330","longitude":"-8.78333330","name":"Agadir Infless"},{"id":"1478913","latitude":"31.26666670","longitude":"-8.76666670","name":"Agadir Irigdalene"},{"id":"1478914","latitude":"31.26666670","longitude":"-8.76666670","name":"Agadir Irijdalene"},{"id":"1478924","latitude":"31.32694440","longitude":"-8.65805560","name":"Agadir Jdid"},{"id":"1478926","latitude":"31.32694440","longitude":"-8.65805560","name":"Agadir Jedid"},{"id":"1478928","latitude":"31.32694440","longitude":"-8.65805560","name":"Agadir Lajdid"},{"id":"1478934","latitude":"31.25000000","longitude":"-8.78333330","name":"Agadir Mansour Mhndou"},{"id":"1478936","latitude":"31.25000000","longitude":"-8.78333330","name":"Agadir Mohand"},{"id":"1478937","latitude":"31.25000000","longitude":"-8.78333330","name":"Agadir Mohand Ou Mansour"},{"id":"1478939","latitude":"30.90000000","longitude":"-8.08333330","name":"Agadir n' Afra"},{"id":"1478943","latitude":"31.15000000","longitude":"-8.10000000","name":"Agadir n'Bourd"},{"id":"1478946","latitude":"31.33333330","longitude":"-7.91666670","name":"Agadir n'Igourram\ufffdn"},{"id":"1478947","latitude":"31.33333330","longitude":"-7.91666670","name":"Agadir n'Igourramene"},{"id":"1478958","latitude":"31.33333330","longitude":"-7.91666670","name":"Agadir n Ougrramene"},{"id":"1478962","latitude":"31.35000000","longitude":"-7.85000000","name":"Agadir n'Tafent"},{"id":"1478970","latitude":"31.10000000","longitude":"-9.00000000","name":"Agadir ouamesse"},{"id":"1478973","latitude":"31.13333330","longitude":"-8.66666670","name":"Agadir Ouazeg"},{"id":"1478977","latitude":"30.90000000","longitude":"-8.08333330","name":"Agadir oufra"},{"id":"1478981","latitude":"31.55666670","longitude":"-8.73500000","name":"Agadir Roho"},{"id":"1478986","latitude":"30.93333330","longitude":"-8.28333330","name":"Agadir Tagoundaft"},{"id":"1478987","latitude":"31.36666670","longitude":"-8.03333330","name":"Agadir Tassaout"},{"id":"1478988","latitude":"31.36666670","longitude":"-8.03333330","name":"Agadir Tassawt"},{"id":"1479000","latitude":"31.25000000","longitude":"-8.73333330","name":"Agafa\ufffd"},{"id":"1479002","latitude":"31.25000000","longitude":"-8.73333330","name":"Agafaie"},{"id":"1479008","latitude":"30.95000000","longitude":"-9.03333330","name":"Agalgal"},{"id":"1479012","latitude":"31.45000000","longitude":"-7.21666670","name":"Agansou"},{"id":"1479020","latitude":"31.28333330","longitude":"-7.65000000","name":"Agarde"},{"id":"1479042","latitude":"31.03333330","longitude":"-8.11666670","name":"Agdi"},{"id":"1479051","latitude":"31.06666670","longitude":"-8.95000000","name":"Agendoh"},{"id":"1479060","latitude":"31.11666670","longitude":"-8.91666670","name":"Aghaballou"},{"id":"1479061","latitude":"31.48138890","longitude":"-7.39305560","name":"Aghabalou"},{"id":"1479066","latitude":"31.26666670","longitude":"-7.80000000","name":"Aghazzane"},{"id":"1479075","latitude":"31.23333330","longitude":"-8.15000000","name":"Aghbalou"},{"id":"1479087","latitude":"31.15000000","longitude":"-8.68333330","name":"Aghelane"},{"id":"1479119","latitude":"30.95000000","longitude":"-9.03333330","name":"Aglaglal"},{"id":"1479122","latitude":"30.95000000","longitude":"-9.03333330","name":"Aglegal"},{"id":"1479133","latitude":"31.00000000","longitude":"-8.93333330","name":"Agni"},{"id":"1479136","latitude":"31.16666670","longitude":"-8.06666670","name":"Agnie"},{"id":"1479180","latitude":"31.57388890","longitude":"-7.55138890","name":"Agoujbal"},{"id":"1479181","latitude":"31.57388890","longitude":"-7.55138890","name":"Agoujgal"},{"id":"1479196","latitude":"31.15000000","longitude":"-8.90000000","name":"Agoumad"},{"id":"1479207","latitude":"31.00000000","longitude":"-8.93333330","name":"Agouni"},{"id":"1479239","latitude":"31.45333330","longitude":"-7.22861110","name":"Agourd"},{"id":"1479252","latitude":"31.20000000","longitude":"-9.18333330","name":"Agoute"},{"id":"1479254","latitude":"31.20000000","longitude":"-9.18333330","name":"Agouti"},{"id":"1479265","latitude":"31.53333330","longitude":"-7.25000000","name":"Agrif"},{"id":"1479277","latitude":"31.26666670","longitude":"-7.80000000","name":"Agsarane"},{"id":"1479295","latitude":"31.33333330","longitude":"-7.85000000","name":"Aguejdide"},{"id":"1479308","latitude":"31.38333330","longitude":"-7.85000000","name":"Aguelmous"},{"id":"1479316","latitude":"31.45000000","longitude":"-7.21666670","name":"Aguennsou"},{"id":"1479320","latitude":"31.45000000","longitude":"-7.21666670","name":"Aguensou"},{"id":"1479324","latitude":"31.51666670","longitude":"-7.20000000","name":"Aguensouk"},{"id":"1479330","latitude":"31.13333330","longitude":"-8.18333330","name":"Aguer"},{"id":"1479331","latitude":"31.00000000","longitude":"-8.05000000","name":"Aguerda"},{"id":"1479337","latitude":"31.13333330","longitude":"-8.18333330","name":"Aguerd"},{"id":"1479364","latitude":"31.20000000","longitude":"-7.75000000","name":"Aguerd n'Ourtane"},{"id":"1479365","latitude":"31.20000000","longitude":"-7.75000000","name":"Aguerd n Ourtene"},{"id":"1479381","latitude":"31.01666670","longitude":"-8.98333330","name":"Aguerd Oumziou"},{"id":"1479387","latitude":"31.28333330","longitude":"-8.08333330","name":"Aguergour"},{"id":"1479389","latitude":"31.23333330","longitude":"-8.93333330","name":"Aguerksawene"},{"id":"1479390","latitude":"31.16666670","longitude":"-7.91666670","name":"Aguerrioual"},{"id":"1479394","latitude":"31.01666670","longitude":"-8.75000000","name":"Aguersili"},{"id":"1479395","latitude":"31.16666670","longitude":"-7.91666670","name":"Aguersioual"},{"id":"1479397","latitude":"31.01666670","longitude":"-8.75000000","name":"Aguerssag\ufffdne"},{"id":"1479408","latitude":"30.98333330","longitude":"-8.08333330","name":"Aguerzra"},{"id":"1479413","latitude":"31.30000000","longitude":"-7.98333330","name":"Aguinane"},{"id":"1479433","latitude":"31.61666670","longitude":"-7.53333330","name":"Aheji"},{"id":"1479475","latitude":"31.57722220","longitude":"-9.08694440","name":"Ahl Brahim"},{"id":"1479490","latitude":"31.40000000","longitude":"-8.65000000","name":"Ahl Lahrima"},{"id":"1479513","latitude":"31.51666670","longitude":"-7.90000000","name":"Ahmar"},{"id":"1479527","latitude":"31.50000000","longitude":"-8.35000000","name":"Ahmed Salem"},{"id":"1479531","latitude":"31.48333330","longitude":"-7.76666670","name":"Ahnaou"},{"id":"1479560","latitude":"31.21666670","longitude":"-8.91666670","name":"A\ufffdda Mahgoud Etdir"},{"id":"1479606","latitude":"31.58638890","longitude":"-8.61138890","name":"A\ufffdn Be\ufffdda"},{"id":"1479689","latitude":"31.58333330","longitude":"-7.58333330","name":"A\ufffdn er Rmel"},{"id":"1479725","latitude":"31.55000000","longitude":"-7.91666670","name":"A\ufffdn Jdid"},{"id":"1479752","latitude":"31.01666670","longitude":"-8.53333330","name":"A\ufffdn Ktof"},{"id":"1479857","latitude":"31.31666670","longitude":"-8.48333330","name":"A\ufffdt Aba\ufffdd"},{"id":"1479864","latitude":"31.20000000","longitude":"-8.86666670","name":"A\ufffdt Abdallah"},{"id":"1479905","latitude":"31.39416670","longitude":"-8.77305560","name":"A\ufffdt Addi"},{"id":"1479948","latitude":"31.43333330","longitude":"-7.28333330","name":"A\ufffdt A\ufffdssa"},{"id":"1479969","latitude":"31.26666670","longitude":"-8.26666670","name":"A\ufffdt al Awr"},{"id":"1479977","latitude":"31.53333330","longitude":"-8.31666670","name":"A\ufffdt Ali"},{"id":"1479998","latitude":"31.43333330","longitude":"-7.76666670","name":"A\ufffdt Ali Ou Allah"},{"id":"1480018","latitude":"31.58333330","longitude":"-7.53333330","name":"A\ufffdt Ali ou Mha\ufffdk"},{"id":"1480020","latitude":"31.53333330","longitude":"-8.31666670","name":"A\ufffdt Ali Ou Moussa"},{"id":"1480035","latitude":"31.21666670","longitude":"-8.75000000","name":"A\ufffdt Alizine el Mellah"},{"id":"1480044","latitude":"31.05000000","longitude":"-8.98333330","name":"A\ufffdt Allah"},{"id":"1480048","latitude":"31.05000000","longitude":"-8.98333330","name":"A\ufffdt Allal"},{"id":"1480054","latitude":"31.43333330","longitude":"-7.25000000","name":"A\ufffdt Alou"},{"id":"1480058","latitude":"31.01666670","longitude":"-9.13333330","name":"A\ufffdt Al Qarmoudi"},{"id":"1480059","latitude":"31.38333330","longitude":"-8.55000000","name":"A\ufffdt Amane"},{"id":"1480063","latitude":"31.30000000","longitude":"-8.20000000","name":"A\ufffdt Amara"},{"id":"1480064","latitude":"31.28333330","longitude":"-8.21666670","name":"A\ufffdt Amara Bour"},{"id":"1480065","latitude":"31.28333330","longitude":"-8.21666670","name":"A\ufffdt Amara el Bour"},{"id":"1480066","latitude":"31.30000000","longitude":"-8.20000000","name":"A\ufffdt Amara el Oued"},{"id":"1480067","latitude":"31.30000000","longitude":"-8.20000000","name":"A\ufffdt Amara el Ouled"},{"id":"1480071","latitude":"31.21666670","longitude":"-9.20000000","name":"A\ufffdt Amar"},{"id":"1480080","latitude":"31.26666670","longitude":"-7.83333330","name":"A\ufffdt Amer"},{"id":"1480090","latitude":"31.45000000","longitude":"-7.11666670","name":"A\ufffdt Ameur"},{"id":"1480114","latitude":"31.26666670","longitude":"-7.48333330","name":"Ait Amza"},{"id":"1480123","latitude":"31.26666670","longitude":"-8.26666670","name":"A\ufffdt Aouer"},{"id":"1480142","latitude":"31.16666670","longitude":"-8.38333330","name":"A\ufffdt Atman"},{"id":"1480144","latitude":"31.16666670","longitude":"-8.38333330","name":"A\ufffdt Atmane"},{"id":"1480165","latitude":"31.56666670","longitude":"-7.71666670","name":"A\ufffdt Azouk"},{"id":"1480170","latitude":"31.51666670","longitude":"-8.25000000","name":"A\ufffdt Azzi"},{"id":"1480176","latitude":"31.38333330","longitude":"-8.55000000","name":"A\ufffdt Ba Amrane"},{"id":"1480183","latitude":"30.95000000","longitude":"-8.71666670","name":"A\ufffdt Ba Hammou"},{"id":"1480191","latitude":"31.78333330","longitude":"-8.03333330","name":"A\ufffdt Bakri"},{"id":"1480207","latitude":"31.41666670","longitude":"-7.71666670","name":"A\ufffdt Bel Haj"},{"id":"1480210","latitude":"31.46666670","longitude":"-7.70000000","name":"A\ufffdt Belkassem"},{"id":"1480213","latitude":"31.40000000","longitude":"-8.51666670","name":"A\ufffdt Bella"},{"id":"1480215","latitude":"31.43333330","longitude":"-7.70000000","name":"A\ufffdt Bel Lahs\ufffdn"},{"id":"1480216","latitude":"31.43333330","longitude":"-7.70000000","name":"A\ufffdt Bel Lahsene"},{"id":"1480217","latitude":"31.80000000","longitude":"-8.05000000","name":"A\ufffdt Bella Ou Sa\ufffdd"},{"id":"1480228","latitude":"31.43333330","longitude":"-7.76666670","name":"A\ufffdt Ben Alla"},{"id":"1480231","latitude":"31.36666670","longitude":"-7.38333330","name":"A\ufffdt Ben Amer"},{"id":"1480245","latitude":"31.65000000","longitude":"-8.40000000","name":"A\ufffdt Ben Jilali"},{"id":"1480264","latitude":"31.55027780","longitude":"-7.30000000","name":"A\ufffdt Ben Taleb"},{"id":"1480272","latitude":"31.43333330","longitude":"-7.70000000","name":"A\ufffdt Ben Zidane"},{"id":"1480274","latitude":"31.52972220","longitude":"-7.73444440","name":"A\ufffdt Berkhous"},{"id":"1480290","latitude":"31.80000000","longitude":"-8.05000000","name":"A\ufffdt Bla Ou Sa\ufffdd"},{"id":"1480293","latitude":"31.46666670","longitude":"-7.13333330","name":"A\ufffdt Bohi"},{"id":"1480316","latitude":"31.83333330","longitude":"-8.05000000","name":"A\ufffdt Bou chennt"},{"id":"1480317","latitude":"31.83333330","longitude":"-8.05000000","name":"A\ufffdt Bouchent"},{"id":"1480375","latitude":"31.46666670","longitude":"-7.83333330","name":"Ait Boummi"},{"id":"1480381","latitude":"31.48333330","longitude":"-7.83333330","name":"A\ufffdt Bou Nit"},{"id":"1480382","latitude":"31.46666670","longitude":"-7.83333330","name":"A\ufffdt Bounnit"},{"id":"1480391","latitude":"31.21666670","longitude":"-8.36666670","name":"A\ufffdt Bourd"},{"id":"1480392","latitude":"31.61666670","longitude":"-7.70000000","name":"A\ufffdt Bourhim"},{"id":"1480395","latitude":"31.53333330","longitude":"-8.31666670","name":"A\ufffdt Bou Riah"},{"id":"1480399","latitude":"31.21666670","longitude":"-8.36666670","name":"A\ufffdt Bouro"},{"id":"1480404","latitude":"31.56666670","longitude":"-7.90000000","name":"A\ufffdt Bou Setta"},{"id":"1480415","latitude":"31.48333330","longitude":"-7.86666670","name":"A\ufffdt Bou Zguia"},{"id":"1480426","latitude":"31.51666670","longitude":"-8.18333330","name":"A\ufffdt Brahim"},{"id":"1480440","latitude":"31.56666670","longitude":"-8.16666670","name":"A\ufffdt Cha\ufffdb"},{"id":"1480445","latitude":"31.20000000","longitude":"-7.76666670","name":"A\ufffdt Ch\ufffdo"},{"id":"1480446","latitude":"31.53333330","longitude":"-8.23333330","name":"A\ufffdt Chaouia"},{"id":"1480481","latitude":"31.48333330","longitude":"-8.18333330","name":"A\ufffdt Daoud"},{"id":"1480494","latitude":"31.48333330","longitude":"-8.18333330","name":"Ait Daud"},{"id":"1480496","latitude":"31.48333330","longitude":"-8.18333330","name":"A\ufffdt Dawd"},{"id":"1480500","latitude":"31.35000000","longitude":"-8.35000000","name":"A\ufffdt Dib"},{"id":"1480513","latitude":"31.33333330","longitude":"-8.50000000","name":"A\ufffdt el Aaoud"},{"id":"1480520","latitude":"31.26666670","longitude":"-8.26666670","name":"A\ufffdt el Aour"},{"id":"1480521","latitude":"31.35000000","longitude":"-8.53333330","name":"A\ufffdt el Arbi"},{"id":"1480529","latitude":"31.53333330","longitude":"-8.26666670","name":"A\ufffdt el Borja"},{"id":"1480541","latitude":"31.55000000","longitude":"-7.36666670","name":"A\ufffdt El Ghazi"},{"id":"1480553","latitude":"31.41666670","longitude":"-7.71666670","name":"A\ufffdt el hadj"},{"id":"1480582","latitude":"31.66666670","longitude":"-8.15000000","name":"A\ufffdt-el-Kasa"},{"id":"1480599","latitude":"31.55000000","longitude":"-7.36666670","name":"A\ufffdt el Rhazi"},{"id":"1480611","latitude":"31.43333330","longitude":"-7.83333330","name":"A\ufffdt Ezzate"},{"id":"1480613","latitude":"31.43333330","longitude":"-7.76666670","name":"A\ufffdt Fars"},{"id":"1480617","latitude":"31.46666670","longitude":"-7.61666670","name":"A\ufffdt Faska"},{"id":"1480628","latitude":"31.40000000","longitude":"-7.70000000","name":"A\ufffdt Ghemat"},{"id":"1480649","latitude":"31.56666670","longitude":"-8.20000000","name":"A\ufffdt Haddou"},{"id":"1480658","latitude":"31.39416670","longitude":"-8.77305560","name":"A\ufffdt Hadi"},{"id":"1480659","latitude":"31.39416670","longitude":"-8.77305560","name":"A\ufffdt Hadi Rass el A\ufffdne"},{"id":"1480665","latitude":"31.35000000","longitude":"-8.83333330","name":"A\ufffdt Ha\ufffdba"},{"id":"1480678","latitude":"31.16666670","longitude":"-8.23333330","name":"A\ufffdt Hamad"},{"id":"1480680","latitude":"31.38333330","longitude":"-8.55000000","name":"A\ufffdt Haman"},{"id":"1480685","latitude":"31.16666670","longitude":"-8.23333330","name":"A\ufffdt Hamed"},{"id":"1480693","latitude":"31.50000000","longitude":"-7.91666670","name":"A\ufffdt Hamid"},{"id":"1480697","latitude":"31.55416670","longitude":"-7.44222220","name":"A\ufffdt Hammad"},{"id":"1480725","latitude":"31.45000000","longitude":"-7.63333330","name":"A\ufffdt Hamza"},{"id":"1480738","latitude":"31.32416670","longitude":"-8.62027780","name":"A\ufffdt Hassa\ufffdn"},{"id":"1480752","latitude":"31.51666670","longitude":"-8.65000000","name":"A\ufffdt Hassine"},{"id":"1480807","latitude":"31.48333330","longitude":"-7.33333330","name":"A\ufffdt Idar"},{"id":"1480832","latitude":"31.11666670","longitude":"-8.35000000","name":"A\ufffdt Ihala"},{"id":"1480834","latitude":"31.11666670","longitude":"-8.35000000","name":"A\ufffdt Ihla"},{"id":"1480836","latitude":"31.64777780","longitude":"-7.33361110","name":"A\ufffdt Ikho"},{"id":"1480837","latitude":"31.55000000","longitude":"-8.35000000","name":"A\ufffdt Ikhoumane"},{"id":"1480838","latitude":"31.55000000","longitude":"-8.35000000","name":"A\ufffdt Ikhoumane Sahraoui"},{"id":"1480839","latitude":"31.55000000","longitude":"-8.31666670","name":"A\ufffdt Ikhoumane Sebt"},{"id":"1480842","latitude":"31.64777780","longitude":"-7.33361110","name":"A\ufffdt Ikro"},{"id":"1480870","latitude":"31.10000000","longitude":"-8.91666670","name":"A\ufffdt Irmer"},{"id":"1480900","latitude":"31.46666670","longitude":"-7.75000000","name":"A\ufffdt Kadour"},{"id":"1480911","latitude":"31.46666670","longitude":"-7.75000000","name":"A\ufffdt Keddour"},{"id":"1480917","latitude":"31.46666670","longitude":"-7.86666670","name":"A\ufffdt Kerroum"},{"id":"1480923","latitude":"31.31666670","longitude":"-8.05000000","name":"A\ufffdt Khald"},{"id":"1480924","latitude":"31.31666670","longitude":"-8.05000000","name":"A\ufffdt Khaled"},{"id":"1480943","latitude":"30.90000000","longitude":"-9.10000000","name":"A\ufffdt Khetab Oufella"},{"id":"1480944","latitude":"30.88333330","longitude":"-9.11666670","name":"A\ufffdt Khetab Ouzedder"},{"id":"1480947","latitude":"31.48888890","longitude":"-7.06666670","name":"A\ufffdt Khlat"},{"id":"1480948","latitude":"31.48888890","longitude":"-7.06666670","name":"A\ufffdt Khleb"},{"id":"1480967","latitude":"30.90000000","longitude":"-9.10000000","name":"A\ufffdt Ktab"},{"id":"1480968","latitude":"30.90000000","longitude":"-9.10000000","name":"A\ufffdt Ktab Oufella"},{"id":"1480969","latitude":"30.88333330","longitude":"-9.11666670","name":"Ait Ktab Ouzder"},{"id":"1480982","latitude":"31.56666670","longitude":"-8.33333330","name":"A\ufffdt Lahcen"},{"id":"1480985","latitude":"31.48333330","longitude":"-8.48333330","name":"A\ufffdt Lahcen Hmjoune"},{"id":"1480991","latitude":"31.48333330","longitude":"-8.48333330","name":"A\ufffdt Lahs\ufffdn"},{"id":"1480996","latitude":"31.48333330","longitude":"-8.48333330","name":"A\ufffdt Lahsene"},{"id":"1481014","latitude":"31.33333330","longitude":"-8.50000000","name":"A\ufffdt Lalloud"},{"id":"1481016","latitude":"31.35000000","longitude":"-8.53333330","name":"A\ufffdt Larbi"},{"id":"1481054","latitude":"31.90000000","longitude":"-8.01666670","name":"A\ufffdt Lil"},{"id":"1481060","latitude":"31.21666670","longitude":"-8.91666670","name":"A\ufffdt Mahfoud"},{"id":"1481076","latitude":"31.43333330","longitude":"-7.40000000","name":"A\ufffdt Mannsour"},{"id":"1481080","latitude":"31.25000000","longitude":"-8.50000000","name":"A\ufffdt Mansour"},{"id":"1481084","latitude":"31.53333330","longitude":"-8.30000000","name":"A\ufffdt M\ufffdouch"},{"id":"1481091","latitude":"31.23333330","longitude":"-8.30000000","name":"A\ufffdt Matate"},{"id":"1481096","latitude":"31.50000000","longitude":"-8.20000000","name":"A\ufffdt Mazou"},{"id":"1481104","latitude":"31.20000000","longitude":"-8.85000000","name":"A\ufffdt Mechkouk"},{"id":"1481117","latitude":"31.53333330","longitude":"-8.18333330","name":"A\ufffdt Melloul"},{"id":"1481118","latitude":"31.53333330","longitude":"-8.18333330","name":"A\ufffdt Melloule"},{"id":"1481129","latitude":"31.10000000","longitude":"-8.26666670","name":"A\ufffdt Merzoug"},{"id":"1481138","latitude":"31.73333330","longitude":"-8.08333330","name":"A\ufffdt-Messaoud"},{"id":"1481144","latitude":"31.23333330","longitude":"-8.30000000","name":"A\ufffdt Mettat"},{"id":"1481156","latitude":"31.03333330","longitude":"-8.76666670","name":"A\ufffdt Mhand"},{"id":"1481165","latitude":"31.55000000","longitude":"-7.23333330","name":"A\ufffdt Mimoun"},{"id":"1481168","latitude":"31.55000000","longitude":"-7.23333330","name":"A\ufffdt mimoune"},{"id":"1481169","latitude":"31.26666670","longitude":"-8.58333330","name":"A\ufffdt Mked"},{"id":"1481170","latitude":"31.26666670","longitude":"-8.58333330","name":"A\ufffdt Mkeud"},{"id":"1481187","latitude":"31.51666670","longitude":"-8.36666670","name":"A\ufffdt Moulay Ahmed"},{"id":"1481217","latitude":"31.61666670","longitude":"-7.61666670","name":"A\ufffdt Mriouat"},{"id":"1481230","latitude":"31.45000000","longitude":"-7.80000000","name":"A\ufffdt Namous"},{"id":"1481265","latitude":"31.51666670","longitude":"-8.28333330","name":"A\ufffdt Otmane"},{"id":"1481266","latitude":"31.59111110","longitude":"-7.73916670","name":"A\ufffdt Ouaaksou"},{"id":"1481275","latitude":"31.41666670","longitude":"-7.76666670","name":"A\ufffdt Ouadouz"},{"id":"1481276","latitude":"31.21666670","longitude":"-8.33333330","name":"A\ufffdt Ouagana"},{"id":"1481277","latitude":"31.16666670","longitude":"-8.76666670","name":"A\ufffdt Ouagenna"},{"id":"1481281","latitude":"31.25000000","longitude":"-8.71666670","name":"A\ufffdt Ouagouriane"},{"id":"1481282","latitude":"31.21666670","longitude":"-8.33333330","name":"A\ufffdt Ouaguena"},{"id":"1481284","latitude":"31.45000000","longitude":"-7.13333330","name":"A\ufffdt Ouahi"},{"id":"1481326","latitude":"31.26666670","longitude":"-8.30000000","name":"A\ufffdt Ouassern"},{"id":"1481333","latitude":"31.26666670","longitude":"-8.30000000","name":"A\ufffdt Ouazarene"},{"id":"1481349","latitude":"31.41888890","longitude":"-7.79638890","name":"A\ufffdt Ou Bohou"},{"id":"1481369","latitude":"31.63333330","longitude":"-7.63333330","name":"A\ufffdt Oufkir"},{"id":"1481373","latitude":"31.23333330","longitude":"-8.70000000","name":"A\ufffdt Oughrar"},{"id":"1481379","latitude":"31.23333330","longitude":"-8.70000000","name":"A\ufffdt Ou Guare"},{"id":"1481380","latitude":"31.23333330","longitude":"-8.70000000","name":"A\ufffdt Ou Guera"},{"id":"1481386","latitude":"31.55000000","longitude":"-8.31666670","name":"A\ufffdt Ouhoumane"},{"id":"1481402","latitude":"31.42166670","longitude":"-7.46444440","name":"A\ufffdt Ouiksene"},{"id":"1481410","latitude":"31.63333330","longitude":"-7.63333330","name":"A\ufffdt Oukfir"},{"id":"1481414","latitude":"31.05000000","longitude":"-8.85000000","name":"A\ufffdt Oukrim Tijine"},{"id":"1481430","latitude":"31.56833330","longitude":"-7.26722220","name":"A\ufffdt Oumghar"},{"id":"1481450","latitude":"31.13333330","longitude":"-8.91666670","name":"A\ufffdt Ourhiat"},{"id":"1481451","latitude":"31.56472220","longitude":"-7.66805560","name":"A\ufffdt Ourir"},{"id":"1481469","latitude":"31.16666670","longitude":"-8.76666670","name":"A\ufffdt Ouzguenna"},{"id":"1481473","latitude":"31.71666670","longitude":"-8.10000000","name":"A\ufffdt Quaazou"},{"id":"1481487","latitude":"31.28333330","longitude":"-8.25000000","name":"A\ufffdt Razine"},{"id":"1481504","latitude":"31.40000000","longitude":"-7.70000000","name":"A\ufffdt Rhemat"},{"id":"1481511","latitude":"31.50000000","longitude":"-8.25000000","name":"A\ufffdt Rohia"},{"id":"1481515","latitude":"31.28333330","longitude":"-8.25000000","name":"A\ufffdt Rzine"},{"id":"1481533","latitude":"31.11666670","longitude":"-8.65000000","name":"A\ufffdt Sa\ufffdd"},{"id":"1481543","latitude":"31.08333330","longitude":"-9.25000000","name":"A\ufffdt Sa\ufffdd Ou Ali"},{"id":"1481553","latitude":"31.53333330","longitude":"-7.78333330","name":"A\ufffdt Salah"},{"id":"1481556","latitude":"31.40000000","longitude":"-7.90000000","name":"A\ufffdt Salam"},{"id":"1481557","latitude":"31.40000000","longitude":"-7.73333330","name":"A\ufffdt Salan"},{"id":"1481610","latitude":"31.36666670","longitude":"-9.20000000","name":"A\ufffdt Simouri"},{"id":"1481618","latitude":"31.30000000","longitude":"-8.21666670","name":"A\ufffdt Slimane"},{"id":"1481624","latitude":"31.23333330","longitude":"-8.33333330","name":"A\ufffdt Smil"},{"id":"1481625","latitude":"31.23333330","longitude":"-8.33333330","name":"A\ufffdt Smile"},{"id":"1481653","latitude":"31.41666670","longitude":"-7.71666670","name":"A\ufffdt Tagannt"},{"id":"1481655","latitude":"31.41666670","longitude":"-7.71666670","name":"A\ufffdt Tagant"},{"id":"1481656","latitude":"31.50000000","longitude":"-7.43333330","name":"A\ufffdt Taghzoute"},{"id":"1481660","latitude":"31.38333330","longitude":"-8.50000000","name":"A\ufffdt Tahar"},{"id":"1481662","latitude":"31.58722220","longitude":"-7.48805560","name":"A\ufffdt Tahassannt"},{"id":"1481705","latitude":"31.50000000","longitude":"-7.43333330","name":"A\ufffdt Tarzout"},{"id":"1481718","latitude":"31.48333330","longitude":"-7.33333330","name":"A\ufffdt Tidar"},{"id":"1481736","latitude":"31.50000000","longitude":"-8.25000000","name":"A\ufffdt Toudart"},{"id":"1481737","latitude":"31.50000000","longitude":"-8.25000000","name":"A\ufffdt Touddert"},{"id":"1481741","latitude":"31.56666670","longitude":"-7.53333330","name":"A\ufffdt Touini"},{"id":"1481746","latitude":"31.56666670","longitude":"-7.53333330","name":"A\ufffdt toumi"},{"id":"1481752","latitude":"31.36666670","longitude":"-9.20000000","name":"A\ufffdt Tsimouri"},{"id":"1481754","latitude":"31.56472220","longitude":"-7.66805560","name":"Ait Urir"},{"id":"1481764","latitude":"31.42166670","longitude":"-7.46444440","name":"A\ufffdt Wiksen"},{"id":"1481819","latitude":"31.55000000","longitude":"-8.36666670","name":"A\ufffdt Za\ufffdd"},{"id":"1481825","latitude":"31.43333330","longitude":"-7.83333330","name":"A\ufffdt Zat"},{"id":"1481828","latitude":"31.56666670","longitude":"-7.71666670","name":"A\ufffdt Zdoigue"},{"id":"1481832","latitude":"31.55000000","longitude":"-8.36666670","name":"A\ufffdt Ze\ufffdd"},{"id":"1481838","latitude":"31.43333330","longitude":"-7.83333330","name":"A\ufffdt Zett"},{"id":"1481845","latitude":"31.03333330","longitude":"-8.06666670","name":"A\ufffdt Zitoun"},{"id":"1481909","latitude":"31.51666670","longitude":"-7.88333330","name":"Akhatar"},{"id":"1481918","latitude":"31.00000000","longitude":"-8.91666670","name":"Akhferga"},{"id":"1481919","latitude":"31.00000000","longitude":"-8.91666670","name":"Akhfrga"},{"id":"1481921","latitude":"31.35000000","longitude":"-8.08333330","name":"Akhlij"},{"id":"1481922","latitude":"31.48333330","longitude":"-7.76666670","name":"Akhnaou"},{"id":"1481924","latitude":"31.30000000","longitude":"-8.45000000","name":"Akimakh"},{"id":"1481925","latitude":"31.31666670","longitude":"-7.51666670","name":"Akiss"},{"id":"1481936","latitude":"31.45000000","longitude":"-7.83333330","name":"Akkara"},{"id":"1481938","latitude":"31.37361110","longitude":"-7.77500000","name":"Aklije"},{"id":"1481946","latitude":"31.38333330","longitude":"-7.56666670","name":"Akoudamane"},{"id":"1481955","latitude":"31.31666670","longitude":"-7.78333330","name":"Akroufla Dyar Amassine"},{"id":"1481965","latitude":"31.50000000","longitude":"-8.03333330","name":"Ala el Ma"},{"id":"1481970","latitude":"31.23333330","longitude":"-8.06666670","name":"Al `A\ufffdn"},{"id":"1481983","latitude":"31.51444440","longitude":"-7.37305560","name":"Alane"},{"id":"1481994","latitude":"30.98333330","longitude":"-9.15000000","name":"Alatas"},{"id":"1481995","latitude":"30.98333330","longitude":"-9.15000000","name":"Alatas Amadl\ufffdne"},{"id":"1481998","latitude":"30.98333330","longitude":"-9.15000000","name":"Alates"},{"id":"1482013","latitude":"31.47250000","longitude":"-8.97777780","name":"Al Bioutat"},{"id":"1482014","latitude":"31.45583330","longitude":"-9.02500000","name":"Al Borja"},{"id":"1482015","latitude":"31.18333330","longitude":"-8.91666670","name":"Al Borj"},{"id":"1482045","latitude":"31.26666670","longitude":"-8.58333330","name":"Al Ghra\ufffdbi"},{"id":"1482047","latitude":"31.23333330","longitude":"-8.66666670","name":"Algo"},{"id":"1482097","latitude":"31.50000000","longitude":"-8.46666670","name":"Alioua"},{"id":"1482104","latitude":"31.50000000","longitude":"-8.46666670","name":"Aliouia"},{"id":"1482129","latitude":"31.03333330","longitude":"-8.11666670","name":"Alla"},{"id":"1482142","latitude":"31.51444440","longitude":"-7.37305560","name":"Allane"},{"id":"1482147","latitude":"30.95000000","longitude":"-8.66666670","name":"Allous"},{"id":"1482153","latitude":"31.06666670","longitude":"-8.85000000","name":"Alma"},{"id":"1482176","latitude":"31.06666670","longitude":"-8.85000000","name":"Almes"},{"id":"1482207","latitude":"31.33333330","longitude":"-8.01666670","name":"Alouarg"},{"id":"1482213","latitude":"31.01666670","longitude":"-8.51666670","name":"Alous"},{"id":"1482237","latitude":"31.13333330","longitude":"-9.01666670","name":"Amadine"},{"id":"1482240","latitude":"30.86666670","longitude":"-8.26666670","name":"Amagdoul"},{"id":"1482243","latitude":"31.52388890","longitude":"-7.09611110","name":"Amaghdourene"},{"id":"1482285","latitude":"31.51361110","longitude":"-7.70111110","name":"Amanouz"},{"id":"1482311","latitude":"31.36361110","longitude":"-7.42972220","name":"Amascara"},{"id":"1482318","latitude":"31.16666670","longitude":"-8.61666670","name":"Amassine"},{"id":"1482327","latitude":"31.26666670","longitude":"-7.80000000","name":"Amazar"},{"id":"1482339","latitude":"31.26666670","longitude":"-7.80000000","name":"Amazzer"},{"id":"1482362","latitude":"30.86666670","longitude":"-8.26666670","name":"Amegdoul"},{"id":"1482367","latitude":"31.37194440","longitude":"-7.85861110","name":"Amehlige"},{"id":"1482371","latitude":"31.05000000","longitude":"-9.06666670","name":"Amekdrane"},{"id":"1482372","latitude":"31.36361110","longitude":"-7.42972220","name":"Amekha"},{"id":"1482373","latitude":"31.37194440","longitude":"-7.85861110","name":"Amekhlij"},{"id":"1482374","latitude":"31.36361110","longitude":"-7.42972220","name":"Amekra"},{"id":"1482381","latitude":"31.23555560","longitude":"-7.65138890","name":"Amellouai"},{"id":"1482382","latitude":"31.23555560","longitude":"-7.65138890","name":"Amellougui"},{"id":"1482387","latitude":"31.16666670","longitude":"-7.73333330","name":"Amenzal"},{"id":"1482388","latitude":"31.16666670","longitude":"-7.73333330","name":"Amenzel"},{"id":"1482410","latitude":"31.26666670","longitude":"-7.86666670","name":"Amerzouast"},{"id":"1482416","latitude":"31.40000000","longitude":"-7.65000000","name":"Ameskalli"},{"id":"1482419","latitude":"31.25000000","longitude":"-8.93333330","name":"Ameskennid"},{"id":"1482426","latitude":"31.39500000","longitude":"-9.11194440","name":"Ameskeslane"},{"id":"1482428","latitude":"31.36361110","longitude":"-7.42972220","name":"Ameskra"},{"id":"1482430","latitude":"31.00000000","longitude":"-8.46666670","name":"Amesloh"},{"id":"1482433","latitude":"31.40000000","longitude":"-7.31666670","name":"Amesmsa"},{"id":"1482447","latitude":"31.26666670","longitude":"-7.86666670","name":"Amezouast"},{"id":"1482452","latitude":"30.98333330","longitude":"-9.06666670","name":"Amezri"},{"id":"1482455","latitude":"31.50000000","longitude":"-7.80000000","name":"Amezrou"},{"id":"1482466","latitude":"31.20000000","longitude":"-8.18333330","name":"Amgh\ufffdrssa"},{"id":"1482470","latitude":"30.88333330","longitude":"-8.56666670","name":"Amguernis"},{"id":"1482478","latitude":"31.21666670","longitude":"-8.25000000","name":"Amimiz"},{"id":"1482481","latitude":"30.90000000","longitude":"-8.48333330","name":"Amisioui"},{"id":"1482482","latitude":"31.21666670","longitude":"-8.25000000","name":"Amismiz"},{"id":"1482484","latitude":"31.21666670","longitude":"-8.25000000","name":"Amizmiz"},{"id":"1482497","latitude":"31.23555560","longitude":"-7.65138890","name":"Amlouggui"},{"id":"1482502","latitude":"31.28333330","longitude":"-8.05000000","name":"Ammasennikik"},{"id":"1482503","latitude":"31.28333330","longitude":"-8.05000000","name":"Ammassenkik"},{"id":"1482509","latitude":"30.86666670","longitude":"-9.03333330","name":"Amnzgar"},{"id":"1482511","latitude":"31.55000000","longitude":"-7.85000000","name":"Amotane"},{"id":"1482530","latitude":"31.61666670","longitude":"-7.61666670","name":"Amraouite"},{"id":"1482532","latitude":"31.20000000","longitude":"-8.18333330","name":"Amrharas"},{"id":"1482541","latitude":"31.40000000","longitude":"-7.31666670","name":"Amsamsa"},{"id":"1482545","latitude":"31.40000000","longitude":"-7.31666670","name":"Amsemsa"},{"id":"1482557","latitude":"31.25000000","longitude":"-8.93333330","name":"Amskenid"},{"id":"1482559","latitude":"30.98333330","longitude":"-8.03333330","name":"Amslam"},{"id":"1482560","latitude":"31.00000000","longitude":"-8.46666670","name":"Amsloh"},{"id":"1482579","latitude":"31.13333330","longitude":"-8.28333330","name":"Amza\ufffdne"},{"id":"1482583","latitude":"31.46666670","longitude":"-7.60000000","name":"Amzaourou"},{"id":"1482594","latitude":"30.76666670","longitude":"-8.08333330","name":"Amznass"},{"id":"1482595","latitude":"30.76666670","longitude":"-8.08333330","name":"Amznes"},{"id":"1482597","latitude":"31.50000000","longitude":"-7.80000000","name":"Amzou"},{"id":"1482606","latitude":"30.98333330","longitude":"-9.06666670","name":"Amzra"},{"id":"1482607","latitude":"30.98333330","longitude":"-9.06666670","name":"Amzri"},{"id":"1482614","latitude":"30.96666670","longitude":"-8.30000000","name":"Anag"},{"id":"1482619","latitude":"31.20000000","longitude":"-9.23333330","name":"Anamar"},{"id":"1482621","latitude":"31.27583330","longitude":"-7.66638890","name":"Anamer"},{"id":"1482627","latitude":"31.50000000","longitude":"-7.53333330","name":"Anameur"},{"id":"1482632","latitude":"31.11666670","longitude":"-8.41666670","name":"Anammer"},{"id":"1482636","latitude":"30.98333330","longitude":"-8.93333330","name":"Anamra"},{"id":"1482638","latitude":"31.10000000","longitude":"-8.35000000","name":"Anamrou"},{"id":"1482646","latitude":"31.20000000","longitude":"-8.45000000","name":"Anbdour"},{"id":"1482648","latitude":"31.01666670","longitude":"-8.70000000","name":"Anchkrir"},{"id":"1482662","latitude":"31.20000000","longitude":"-8.45000000","name":"Anebdour"},{"id":"1482670","latitude":"31.18333330","longitude":"-8.36666670","name":"Anefrioune"},{"id":"1482684","latitude":"31.11666670","longitude":"-8.31666670","name":"Anerni"},{"id":"1482713","latitude":"31.20000000","longitude":"-8.90000000","name":"Anflous"},{"id":"1482722","latitude":"31.00000000","longitude":"-8.53333330","name":"Angourt"},{"id":"1482733","latitude":"31.31666670","longitude":"-7.70000000","name":"Anines"},{"id":"1482735","latitude":"31.31666670","longitude":"-7.70000000","name":"Aninns"},{"id":"1482736","latitude":"31.31666670","longitude":"-7.70000000","name":"Anins"},{"id":"1482747","latitude":"31.41666670","longitude":"-8.03333330","name":"Annamer"},{"id":"1482749","latitude":"31.50000000","longitude":"-7.53333330","name":"Annameur"},{"id":"1482768","latitude":"31.42472220","longitude":"-8.93833330","name":"An Nzala"},{"id":"1482815","latitude":"31.26666670","longitude":"-7.48333330","name":"Anza"},{"id":"1482821","latitude":"31.20000000","longitude":"-9.23333330","name":"Anzammer"},{"id":"1482838","latitude":"31.01666670","longitude":"-9.16666670","name":"Aodar"},{"id":"1482847","latitude":"31.40000000","longitude":"-8.30000000","name":"Aorich"},{"id":"1482867","latitude":"30.98333330","longitude":"-8.40000000","name":"Aoudid"},{"id":"1482872","latitude":"30.98333330","longitude":"-8.60000000","name":"Aoufour"},{"id":"1482880","latitude":"31.26666670","longitude":"-7.75000000","name":"Aoughir"},{"id":"1482927","latitude":"31.26666670","longitude":"-8.48333330","name":"Aourar"},{"id":"1482930","latitude":"31.26666670","longitude":"-7.75000000","name":"Aourhir"},{"id":"1482937","latitude":"31.26666670","longitude":"-7.75000000","name":"Aourir"},{"id":"1482959","latitude":"31.21666670","longitude":"-8.11666670","name":"Aouzar"},{"id":"1482962","latitude":"31.21666670","longitude":"-8.11666670","name":"Aouzer"},{"id":"1482966","latitude":"31.21666670","longitude":"-8.11666670","name":"Aouzert"},{"id":"1482978","latitude":"31.51666670","longitude":"-8.13333330","name":"Aquine-Mazouz"},{"id":"1482985","latitude":"31.25000000","longitude":"-8.85000000","name":"Aralel n'Ait Sidi Hammou"},{"id":"1482991","latitude":"31.25000000","longitude":"-8.86666670","name":"Aratale Bihi"},{"id":"1482992","latitude":"31.25000000","longitude":"-8.86666670","name":"Aratel n' A\ufffdt Bihi"},{"id":"1482993","latitude":"31.25000000","longitude":"-8.85000000","name":"Aratel n'A\ufffdt Sidi Hammou"},{"id":"1483008","latitude":"31.23333330","longitude":"-8.76666670","name":"Arba des Douirane"},{"id":"1483025","latitude":"31.42361110","longitude":"-7.52083330","name":"Arba' Tighedoui\ufffdne"},{"id":"1483026","latitude":"31.42361110","longitude":"-7.52083330","name":"Arba' Tighedouine"},{"id":"1483030","latitude":"31.15000000","longitude":"-8.68333330","name":"Archelane"},{"id":"1483036","latitude":"31.21666670","longitude":"-8.10000000","name":"Ardamene"},{"id":"1483043","latitude":"31.06666670","longitude":"-8.88333330","name":"Arella"},{"id":"1483055","latitude":"31.41666670","longitude":"-7.38333330","name":"Arg n' Ou'annou"},{"id":"1483065","latitude":"31.30000000","longitude":"-7.98333330","name":"Arguioun"},{"id":"1483079","latitude":"31.11666670","longitude":"-8.91666670","name":"Arhbalou"},{"id":"1483094","latitude":"30.95000000","longitude":"-8.21666670","name":"Arhbarine"},{"id":"1483100","latitude":"31.15000000","longitude":"-8.68333330","name":"Arhelane"},{"id":"1483101","latitude":"31.06666670","longitude":"-8.88333330","name":"Arhella"},{"id":"1483134","latitude":"31.15000000","longitude":"-7.93333330","name":"Arhr\ufffdn"},{"id":"1483135","latitude":"31.15000000","longitude":"-7.93333330","name":"Arhrene"},{"id":"1483142","latitude":"31.45000000","longitude":"-8.75000000","name":"Arib"},{"id":"1483144","latitude":"31.45000000","longitude":"-8.75000000","name":"Arib Nouaceur"},{"id":"1483155","latitude":"31.13666670","longitude":"-7.92194440","name":"Armd"},{"id":"1483163","latitude":"31.40000000","longitude":"-8.66666670","name":"Aroufia"},{"id":"1483167","latitude":"31.13666670","longitude":"-7.92194440","name":"Aroumd"},{"id":"1483168","latitude":"31.13666670","longitude":"-7.92194440","name":"Around"},{"id":"1483172","latitude":"31.13666670","longitude":"-7.92194440","name":"Arremd"},{"id":"1483177","latitude":"31.13666670","longitude":"-7.92194440","name":"Arround"},{"id":"1483183","latitude":"31.25000000","longitude":"-8.85000000","name":"Artal shammou"},{"id":"1483189","latitude":"31.26666670","longitude":"-8.66666670","name":"Arzioum"},{"id":"1483193","latitude":"31.30000000","longitude":"-8.00000000","name":"Asaflala"},{"id":"1483205","latitude":"31.35000000","longitude":"-7.45000000","name":"Asats"},{"id":"1483211","latitude":"30.93333330","longitude":"-8.61666670","name":"Asdim"},{"id":"1483217","latitude":"31.30000000","longitude":"-8.00000000","name":"Aseflada"},{"id":"1483236","latitude":"31.23333330","longitude":"-7.68333330","name":"Asgaour"},{"id":"1483240","latitude":"31.23333330","longitude":"-7.68333330","name":"Asggaour"},{"id":"1483245","latitude":"31.28333330","longitude":"-8.18333330","name":"Asgoun"},{"id":"1483247","latitude":"31.28333330","longitude":"-8.18333330","name":"Asgounn A\ufffdt Khalde"},{"id":"1483248","latitude":"31.33333330","longitude":"-7.76666670","name":"Asguine"},{"id":"1483261","latitude":"31.45083330","longitude":"-7.15611110","name":"Askanfou"},{"id":"1483275","latitude":"31.40000000","longitude":"-7.51666670","name":"Aslioum"},{"id":"1483278","latitude":"31.40000000","longitude":"-7.51666670","name":"Asloun"},{"id":"1483283","latitude":"31.25000000","longitude":"-7.98333330","name":"Asni"},{"id":"1483312","latitude":"30.90000000","longitude":"-8.93333330","name":"Assaka"},{"id":"1483321","latitude":"30.90000000","longitude":"-9.00000000","name":"Assaka n' Chorfa"},{"id":"1483322","latitude":"31.66666670","longitude":"-7.85000000","name":"Assakane"},{"id":"1483327","latitude":"31.30000000","longitude":"-8.40000000","name":"Assakoui"},{"id":"1483329","latitude":"31.26666670","longitude":"-7.96666670","name":"Assalda"},{"id":"1483341","latitude":"31.38333330","longitude":"-7.58333330","name":"Assammer"},{"id":"1483358","latitude":"31.35000000","longitude":"-7.45000000","name":"Assats"},{"id":"1483364","latitude":"31.26666670","longitude":"-7.96666670","name":"Asselda"},{"id":"1483398","latitude":"31.23333330","longitude":"-7.68333330","name":"Assgaour"},{"id":"1483418","latitude":"31.55000000","longitude":"-8.08333330","name":"Assofid Essrir"},{"id":"1483421","latitude":"31.55000000","longitude":"-8.08333330","name":"Assoufid"},{"id":"1483426","latitude":"30.93333330","longitude":"-8.28333330","name":"Assoul"},{"id":"1483481","latitude":"31.00000000","longitude":"-8.05000000","name":"Auguardine"},{"id":"1483487","latitude":"31.23555560","longitude":"-7.65138890","name":"Aulougui"},{"id":"1483499","latitude":"31.11666670","longitude":"-8.78333330","name":"Awinnas"},{"id":"1483510","latitude":"31.48333330","longitude":"-8.45000000","name":"Ayad"},{"id":"1483515","latitude":"31.48333330","longitude":"-8.45000000","name":"Ayed"},{"id":"1483543","latitude":"30.95000000","longitude":"-8.26666670","name":"Azal"},{"id":"1483559","latitude":"31.43333330","longitude":"-7.26666670","name":"Azarif"},{"id":"1483563","latitude":"31.26666670","longitude":"-8.73333330","name":"Azarouane"},{"id":"1483593","latitude":"31.26666670","longitude":"-8.73333330","name":"Azerouane"},{"id":"1483596","latitude":"31.01666670","longitude":"-8.46666670","name":"Azerzou"},{"id":"1483604","latitude":"31.16666670","longitude":"-8.51666670","name":"Azg n'Tiguidar"},{"id":"1483605","latitude":"31.13333330","longitude":"-8.31666670","name":"Azgour"},{"id":"1483618","latitude":"31.45000000","longitude":"-8.15000000","name":"Azib Bel Aoud"},{"id":"1483626","latitude":"31.45000000","longitude":"-8.40000000","name":"Azib el Aoud"},{"id":"1483631","latitude":"31.55000000","longitude":"-7.78333330","name":"Azib el hadj kappaj"},{"id":"1483632","latitude":"31.46666670","longitude":"-8.43333330","name":"Azib el Mahareg"},{"id":"1483634","latitude":"31.46666670","longitude":"-8.43333330","name":"Azib el Marog"},{"id":"1483635","latitude":"31.45000000","longitude":"-8.40000000","name":"Azib el Oued"},{"id":"1483644","latitude":"30.95000000","longitude":"-8.51666670","name":"Azib Imourhlane"},{"id":"1483645","latitude":"31.51666670","longitude":"-8.68333330","name":"Azib Jemaa"},{"id":"1483649","latitude":"31.45000000","longitude":"-8.40000000","name":"Azib Lahoued"},{"id":"1483651","latitude":"31.65000000","longitude":"-7.71666670","name":"Azib Moulay Abd el Krim"},{"id":"1483653","latitude":"31.56666670","longitude":"-8.31666670","name":"Azib Moulay Athmane"},{"id":"1483659","latitude":"31.58333330","longitude":"-7.83333330","name":"Azib Oulad L\ufffddem"},{"id":"1483664","latitude":"32.06666670","longitude":"-8.21666670","name":"Azib Salah"},{"id":"1483665","latitude":"32.06666670","longitude":"-8.21666670","name":"Azib Sallah"},{"id":"1483667","latitude":"31.36666670","longitude":"-7.98333330","name":"Azib Sekko\ufffdm"},{"id":"1483670","latitude":"31.40000000","longitude":"-8.15000000","name":"Azib Sidi Tahar"},{"id":"1483673","latitude":"31.78333330","longitude":"-8.38333330","name":"Azib-Sidi-Zouine"},{"id":"1483683","latitude":"31.36666670","longitude":"-7.98333330","name":"Azib Zekkoum"},{"id":"1483710","latitude":"31.55000000","longitude":"-7.85000000","name":"Azoubane"},{"id":"1483711","latitude":"31.26666670","longitude":"-8.71666670","name":"Azouggar Lalla Aziza"},{"id":"1483738","latitude":"31.53333330","longitude":"-7.25000000","name":"Azrif"},{"id":"1483744","latitude":"31.21666670","longitude":"-8.26666670","name":"Azrou"},{"id":"1483751","latitude":"30.98333330","longitude":"-8.58333330","name":"Azrou Mell\ufffdn"},{"id":"1483752","latitude":"30.98333330","longitude":"-8.58333330","name":"Azrou Mellene"},{"id":"1483753","latitude":"31.36666670","longitude":"-7.76666670","name":"Azrou Melloul"},{"id":"1483761","latitude":"31.05000000","longitude":"-8.90000000","name":"Azzaou\ufffda Tamaroute"},{"id":"1483763","latitude":"31.01666670","longitude":"-8.28333330","name":"Azzazdine"},{"id":"1483847","latitude":"31.43333330","longitude":"-7.91666670","name":"Bakader"},{"id":"1483853","latitude":"31.65000000","longitude":"-7.75000000","name":"Bakka"},{"id":"1483871","latitude":"31.10000000","longitude":"-8.83333330","name":"Baoum"},{"id":"1483872","latitude":"31.10000000","longitude":"-8.83333330","name":"Baoun"},{"id":"1483875","latitude":"31.28333330","longitude":"-8.33333330","name":"Bararha"},{"id":"1483896","latitude":"31.37222220","longitude":"-9.00972220","name":"Batenchih"},{"id":"1483897","latitude":"31.37222220","longitude":"-9.00972220","name":"Batennchech"},{"id":"1483898","latitude":"31.37222220","longitude":"-9.00972220","name":"Baterchih"},{"id":"1483899","latitude":"31.37222220","longitude":"-9.00972220","name":"Batni-Chikh"},{"id":"1483939","latitude":"31.83333330","longitude":"-8.40000000","name":"Belal"},{"id":"1483942","latitude":"31.48333330","longitude":"-8.16666670","name":"Bel Azouz"},{"id":"1483944","latitude":"31.75000000","longitude":"-8.16666670","name":"Bel Azri"},{"id":"1483945","latitude":"31.51666670","longitude":"-8.75000000","name":"Bel Bachir"},{"id":"1483969","latitude":"31.55000000","longitude":"-8.05000000","name":"Bellouk"},{"id":"1483979","latitude":"31.20000000","longitude":"-8.91666670","name":"Belziz"},{"id":"1484004","latitude":"31.48333330","longitude":"-8.16666670","name":"Ben Azzouz"},{"id":"1484008","latitude":"31.26666670","longitude":"-8.30000000","name":"Ben Bouiha"},{"id":"1484009","latitude":"31.56666670","longitude":"-7.63333330","name":"Ben Bouih"},{"id":"1484030","latitude":"31.60000000","longitude":"-9.10000000","name":"Ben Haouj"},{"id":"1484264","latitude":"31.99194440","longitude":"-8.00222220","name":"Beni Moussa"},{"id":"1484343","latitude":"31.58333330","longitude":"-7.86666670","name":"Ben Larbi"},{"id":"1484347","latitude":"31.56666670","longitude":"-8.36666670","name":"Ben Nasser"},{"id":"1484348","latitude":"31.56666670","longitude":"-8.36666670","name":"Ben Nasseur"},{"id":"1484362","latitude":"31.01666670","longitude":"-9.01666670","name":"Ben Takemoust"},{"id":"1484373","latitude":"31.43333330","longitude":"-7.70000000","name":"Ben Zidane Koukasse"},{"id":"1484400","latitude":"31.56666670","longitude":"-7.95000000","name":"Berrada"},{"id":"1484405","latitude":"31.80000000","longitude":"-8.25000000","name":"Berrechgoun"},{"id":"1484462","latitude":"31.21666670","longitude":"-8.85000000","name":"Biougra"},{"id":"1484468","latitude":"31.90000000","longitude":"-8.23333330","name":"Bir Chelh"},{"id":"1484471","latitude":"31.30000000","longitude":"-8.60000000","name":"Bir er Roumi"},{"id":"1484483","latitude":"31.61666670","longitude":"-7.96666670","name":"Bir Sidi Youssef"},{"id":"1484502","latitude":"31.63333330","longitude":"-7.85000000","name":"Blid\ufffdn"},{"id":"1484503","latitude":"31.63333330","longitude":"-7.85000000","name":"Blidene"},{"id":"1484535","latitude":"31.25000000","longitude":"-8.65000000","name":"Borj Agharghar"},{"id":"1484536","latitude":"31.26666670","longitude":"-8.66666670","name":"Borj Arharhar"},{"id":"1484554","latitude":"31.26694440","longitude":"-9.18138890","name":"Bouabout"},{"id":"1484555","latitude":"31.26694440","longitude":"-9.18138890","name":"Bouaboute"},{"id":"1484593","latitude":"31.15000000","longitude":"-9.13333330","name":"Bou Amsa"},{"id":"1484597","latitude":"31.35000000","longitude":"-8.75000000","name":"Bouanfir"},{"id":"1484629","latitude":"31.48333330","longitude":"-7.91666670","name":"Bou Azza"},{"id":"1484657","latitude":"31.83333330","longitude":"-8.05000000","name":"Bouchennt"},{"id":"1484684","latitude":"31.56666670","longitude":"-8.28333330","name":"Boudhir"},{"id":"1484700","latitude":"31.58333330","longitude":"-7.70000000","name":"Bou el Khaker"},{"id":"1484729","latitude":"31.41666670","longitude":"-7.96666670","name":"Bou Glas"},{"id":"1484739","latitude":"31.41666670","longitude":"-7.76666670","name":"Bou Haddou"},{"id":"1484743","latitude":"31.41666670","longitude":"-7.76666670","name":"Bouhadou"},{"id":"1484759","latitude":"31.88333330","longitude":"-8.23333330","name":"Bouhane"},{"id":"1484782","latitude":"31.38333330","longitude":"-9.06666670","name":"Bouhmissa"},{"id":"1484804","latitude":"31.21666670","longitude":"-8.85000000","name":"Bouigra"},{"id":"1484806","latitude":"31.56666670","longitude":"-8.33333330","name":"Bouihat"},{"id":"1484811","latitude":"31.55000000","longitude":"-7.35000000","name":"Bou Imizgane"},{"id":"1484812","latitude":"31.55000000","longitude":"-7.35000000","name":"Bou Imzgane"},{"id":"1484816","latitude":"31.90000000","longitude":"-8.23333330","name":"Bouir Chleh"},{"id":"1484817","latitude":"31.90000000","longitude":"-8.23333330","name":"Bouir Chleuh"},{"id":"1484832","latitude":"31.08333330","longitude":"-8.25000000","name":"Bouizl"},{"id":"1484834","latitude":"31.56666670","longitude":"-7.63333330","name":"Bouizrane el Foukani"},{"id":"1484846","latitude":"31.20000000","longitude":"-8.63333330","name":"Boujeret"},{"id":"1484848","latitude":"31.20000000","longitude":"-8.63333330","name":"Boujerj"},{"id":"1484862","latitude":"31.40000000","longitude":"-7.95000000","name":"Bou Kedir"},{"id":"1484871","latitude":"31.53333330","longitude":"-7.75000000","name":"Bou Khaoua"},{"id":"1484894","latitude":"31.20000000","longitude":"-8.78333330","name":"Bou Lahouene"},{"id":"1484897","latitude":"31.56666670","longitude":"-7.93333330","name":"Bou Lanouar"},{"id":"1484899","latitude":"31.20000000","longitude":"-8.78333330","name":"Bou-Laouane"},{"id":"1484902","latitude":"31.20000000","longitude":"-8.78333330","name":"Boulehouane"},{"id":"1484913","latitude":"31.61805560","longitude":"-9.01027780","name":"Boulla"},{"id":"1484940","latitude":"31.68333330","longitude":"-8.08333330","name":"Bou-Mehracha Azib-Layadi"},{"id":"1484980","latitude":"31.59333330","longitude":"-8.02388890","name":"Bou-Okkaz"},{"id":"1484981","latitude":"31.38333330","longitude":"-9.06666670","name":"Bou Ouahmisa"},{"id":"1484983","latitude":"31.38333330","longitude":"-9.06666670","name":"Bou Ouamissa"},{"id":"1484987","latitude":"31.41666670","longitude":"-7.96666670","name":"Bou Ouglas"},{"id":"1485013","latitude":"31.44555560","longitude":"-8.52361110","name":"Bou Rekba"},{"id":"1485028","latitude":"31.46666670","longitude":"-8.15000000","name":"Bou Rial"},{"id":"1485029","latitude":"31.44555560","longitude":"-8.52361110","name":"Bourkeb"},{"id":"1485042","latitude":"31.53333330","longitude":"-8.20000000","name":"Bourzik"},{"id":"1485067","latitude":"31.51666670","longitude":"-8.15000000","name":"Bou Setta"},{"id":"1485086","latitude":"31.08333330","longitude":"-8.80000000","name":"Bou Tagradine"},{"id":"1485111","latitude":"31.56666670","longitude":"-7.78333330","name":"Bou Touil"},{"id":"1485126","latitude":"31.43333330","longitude":"-7.93333330","name":"Bou Yauma\ufffdn"},{"id":"1485132","latitude":"31.34222220","longitude":"-9.06500000","name":"Bou Zargoun"},{"id":"1485137","latitude":"31.23333330","longitude":"-8.75000000","name":"Bouzedouk"},{"id":"1485144","latitude":"31.56666670","longitude":"-7.63333330","name":"Bouzerane Foukani"},{"id":"1485154","latitude":"31.50083330","longitude":"-8.78694440","name":"Bouzid"},{"id":"1485155","latitude":"31.53333330","longitude":"-8.21666670","name":"Bou Zid"},{"id":"1485205","latitude":"31.43333330","longitude":"-7.83333330","name":"Brisa"},{"id":"1485267","latitude":"31.71666670","longitude":"-8.06666670","name":"Ca\ufffdd Jilali"},{"id":"1485274","latitude":"31.58333330","longitude":"-8.23333330","name":"Ca\ufffdd Tahar"},{"id":"1485306","latitude":"31.41666670","longitude":"-7.85000000","name":"Ch\ufffdaba"},{"id":"1485307","latitude":"31.58333330","longitude":"-7.63333330","name":"Chaaba el Foukania"},{"id":"1485316","latitude":"31.51944440","longitude":"-7.91138890","name":"Ch\ufffdba"},{"id":"1485326","latitude":"31.33333330","longitude":"-8.90000000","name":"Cha\ufffdba"},{"id":"1485330","latitude":"31.60166670","longitude":"-7.84194440","name":"Cha\ufffdbate"},{"id":"1485351","latitude":"31.56666670","longitude":"-8.11666670","name":"Chaouf"},{"id":"1485353","latitude":"31.53333330","longitude":"-8.23333330","name":"Chaou\ufffda"},{"id":"1485365","latitude":"31.51944440","longitude":"-7.91138890","name":"Charba"},{"id":"1485404","latitude":"31.53333330","longitude":"-8.11666670","name":"Chegoura"},{"id":"1485425","latitude":"32.06666670","longitude":"-8.20000000","name":"Che\ufffdkh Lahsene"},{"id":"1485436","latitude":"32.06666670","longitude":"-8.21666670","name":"Che\ufffdkh Salah"},{"id":"1485446","latitude":"31.68333330","longitude":"-8.03333330","name":"Chelalgat"},{"id":"1485451","latitude":"31.53333330","longitude":"-8.28333330","name":"Chems"},{"id":"1485460","latitude":"31.61666670","longitude":"-8.28333330","name":"Cherarda"},{"id":"1485467","latitude":"31.71666670","longitude":"-8.18333330","name":"Cherif"},{"id":"1485469","latitude":"31.41666670","longitude":"-8.75000000","name":"Cherkaoua"},{"id":"1485485","latitude":"31.54444440","longitude":"-8.76611110","name":"Chichaoua"},{"id":"1485487","latitude":"31.54444440","longitude":"-8.76611110","name":"Chichaua"},{"id":"1485491","latitude":"31.23333330","longitude":"-7.71666670","name":"Chiker"},{"id":"1485539","latitude":"31.56666670","longitude":"-7.50000000","name":"Chorfa"},{"id":"1485578","latitude":"31.56666670","longitude":"-7.81666670","name":"Chouiter"},{"id":"1485579","latitude":"31.55888890","longitude":"-7.32888890","name":"Chouka"},{"id":"1485590","latitude":"31.53333330","longitude":"-7.85000000","name":"Chrabli"},{"id":"1485599","latitude":"31.51666670","longitude":"-8.21666670","name":"Chreg"},{"id":"1485602","latitude":"31.71666670","longitude":"-8.18333330","name":"Chrifia"},{"id":"1485626","latitude":"31.13666670","longitude":"-7.92194440","name":"Cirque Arround"},{"id":"1485700","latitude":"31.60000000","longitude":"-8.15000000","name":"Dar Achachir"},{"id":"1485718","latitude":"31.51666670","longitude":"-8.65000000","name":"Dar A\ufffdt Hassine"},{"id":"1485726","latitude":"31.30000000","longitude":"-8.46666670","name":"Dar Akimakh"},{"id":"1485727","latitude":"31.30000000","longitude":"-8.46666670","name":"Dar Akimgah"},{"id":"1485728","latitude":"31.30000000","longitude":"-8.46666670","name":"Dar Akmakh"},{"id":"1485733","latitude":"31.65000000","longitude":"-8.15000000","name":"Dar Ali Ben La\ufffdch"},{"id":"1485789","latitude":"31.65000000","longitude":"-8.40000000","name":"Dar Ben Jilai"},{"id":"1485817","latitude":"31.23333330","longitude":"-8.71666670","name":"Dar Bou Neddi"},{"id":"1485924","latitude":"31.68333330","longitude":"-8.03333330","name":"Dar Chelalga"},{"id":"1485941","latitude":"31.60000000","longitude":"-8.31666670","name":"Dar Demnati"},{"id":"1485960","latitude":"31.60000000","longitude":"-9.00000000","name":"Dar el Abidate"},{"id":"1485987","latitude":"31.63555560","longitude":"-7.66472220","name":"Dar el Fakroun"},{"id":"1486024","latitude":"31.31666670","longitude":"-8.46666670","name":"Dar el Jorf"},{"id":"1486041","latitude":"32.00000000","longitude":"-8.16666670","name":"Dar el Mers"},{"id":"1486109","latitude":"31.70000000","longitude":"-8.46666670","name":"Dar Kaddour Ben Jilali"},{"id":"1486124","latitude":"31.37361110","longitude":"-7.77500000","name":"Dar Khelij"},{"id":"1486137","latitude":"31.28333330","longitude":"-8.76666670","name":"Dar Lakhalta"},{"id":"1486138","latitude":"31.35000000","longitude":"-8.76666670","name":"Dar Lanafra"},{"id":"1486194","latitude":"31.61666670","longitude":"-7.53333330","name":"Darou"},{"id":"1486227","latitude":"31.96666670","longitude":"-8.33333330","name":"Dar Oulad La\ufffdrabas"},{"id":"1486300","latitude":"31.21666670","longitude":"-8.93333330","name":"Dar Sidi Lhassene"},{"id":"1486315","latitude":"31.56666670","longitude":"-8.08333330","name":"Dar Sultane"},{"id":"1486328","latitude":"31.58333330","longitude":"-7.56666670","name":"Dart"},{"id":"1486350","latitude":"31.40416670","longitude":"-8.87666670","name":"Dar Znida"},{"id":"1486384","latitude":"31.40000000","longitude":"-7.98333330","name":"Dchira"},{"id":"1486401","latitude":"31.40000000","longitude":"-7.98333330","name":"Dechira"},{"id":"1486443","latitude":"31.30000000","longitude":"-8.48333330","name":"Dehrat"},{"id":"1486461","latitude":"31.60000000","longitude":"-8.31666670","name":"Demnati"},{"id":"1486463","latitude":"31.44833330","longitude":"-8.96416670","name":"Demouisset"},{"id":"1486470","latitude":"31.60000000","longitude":"-8.11666670","name":"Dergue"},{"id":"1486534","latitude":"31.36666670","longitude":"-8.96666670","name":"Djel El Kheneg"},{"id":"1486559","latitude":"31.68333330","longitude":"-8.10000000","name":"Donar Zratna"},{"id":"1486563","latitude":"31.25000000","longitude":"-8.85000000","name":"Douafa"},{"id":"1486576","latitude":"31.96666670","longitude":"-8.33333330","name":"Douar Abbes"},{"id":"1486578","latitude":"31.55000000","longitude":"-8.11666670","name":"Douar Abda"},{"id":"1486597","latitude":"31.41666670","longitude":"-8.03333330","name":"Douar Achbarou"},{"id":"1486608","latitude":"31.35000000","longitude":"-7.85000000","name":"Douar Agadir N'Tafennt"},{"id":"1486609","latitude":"31.36666670","longitude":"-8.03333330","name":"Douar Agadir Tassaout"},{"id":"1486611","latitude":"31.57388890","longitude":"-7.55138890","name":"Douar Agoujgal"},{"id":"1486613","latitude":"31.38333330","longitude":"-7.85000000","name":"Douar Aguelmous"},{"id":"1486615","latitude":"31.28333330","longitude":"-8.08333330","name":"Douar Aguergour"},{"id":"1486618","latitude":"31.61666670","longitude":"-7.53333330","name":"Douar Aheji"},{"id":"1486630","latitude":"31.65000000","longitude":"-8.31666670","name":"Douar Ahmar"},{"id":"1486640","latitude":"31.50000000","longitude":"-8.35000000","name":"Douar Ahmed Salem"},{"id":"1486641","latitude":"31.78333330","longitude":"-8.30000000","name":"Douar Ahmida"},{"id":"1486663","latitude":"31.58333330","longitude":"-7.58333330","name":"Douar A\ufffdn er Rmel"},{"id":"1486670","latitude":"31.55000000","longitude":"-7.91666670","name":"Douar A\ufffdn Jdid"},{"id":"1486688","latitude":"31.31666670","longitude":"-8.48333330","name":"Douar A\ufffdt Abid"},{"id":"1486690","latitude":"31.43333330","longitude":"-8.06666670","name":"Douar A\ufffdt A\ufffdssa"},{"id":"1486692","latitude":"31.40000000","longitude":"-8.65000000","name":"Douar A\ufffdt Akrima"},{"id":"1486694","latitude":"31.53333330","longitude":"-8.31666670","name":"Douar A\ufffdt Ali Bou Riah"},{"id":"1486695","latitude":"31.53333330","longitude":"-8.31666670","name":"Douar A\ufffdt Ali"},{"id":"1486700","latitude":"31.51666670","longitude":"-7.90000000","name":"Douar A\ufffdt Amara"},{"id":"1486701","latitude":"31.28333330","longitude":"-8.21666670","name":"Douar A\ufffdt Amara el Bour"},{"id":"1486702","latitude":"31.30000000","longitude":"-8.20000000","name":"Douar A\ufffdt Amara el Oued"},{"id":"1486706","latitude":"31.51666670","longitude":"-8.25000000","name":"Douar A\ufffdt Azzi"},{"id":"1486709","latitude":"31.80000000","longitude":"-8.05000000","name":"Douar A\ufffdt Bella ou Sa\ufffdd"},{"id":"1486725","latitude":"31.56666670","longitude":"-8.16666670","name":"Douar A\ufffdt Cha\ufffdb"},{"id":"1486727","latitude":"31.48333330","longitude":"-8.18333330","name":"Douar A\ufffdt Daoud"},{"id":"1486729","latitude":"31.26666670","longitude":"-8.26666670","name":"Douar A\ufffdt el Aour"},{"id":"1486731","latitude":"31.53333330","longitude":"-8.26666670","name":"Douar A\ufffdt el Borja"},{"id":"1486737","latitude":"31.53333330","longitude":"-7.68333330","name":"Douar A\ufffdt Faska"},{"id":"1486738","latitude":"31.56666670","longitude":"-8.20000000","name":"Douar A\ufffdt Haddou"},{"id":"1486739","latitude":"31.50000000","longitude":"-7.91666670","name":"Douar A\ufffdt Hamid"},{"id":"1486749","latitude":"31.55000000","longitude":"-8.35000000","name":"Douar A\ufffdt Ikhoumane Sahraoui"},{"id":"1486752","latitude":"31.46666670","longitude":"-7.86666670","name":"Douar A\ufffdt Kerroum"},{"id":"1486753","latitude":"31.31666670","longitude":"-8.05000000","name":"Douar A\ufffdt Khaled"},{"id":"1486755","latitude":"31.56666670","longitude":"-8.33333330","name":"Douar A\ufffdt Lahsen"},{"id":"1486760","latitude":"31.90000000","longitude":"-8.01666670","name":"Douar A\ufffdt Lil"},{"id":"1486764","latitude":"31.53333330","longitude":"-8.30000000","name":"Douar A\ufffdt Maouch"},{"id":"1486765","latitude":"31.50000000","longitude":"-8.20000000","name":"Douar A\ufffdt Mazou"},{"id":"1486766","latitude":"31.53333330","longitude":"-8.18333330","name":"Douar A\ufffdt Melloul"},{"id":"1486777","latitude":"31.51666670","longitude":"-8.28333330","name":"Douar A\ufffdt Otmane Ousse\ufffdne"},{"id":"1486781","latitude":"31.50000000","longitude":"-8.25000000","name":"Douar A\ufffdt Rohi"},{"id":"1486782","latitude":"31.28333330","longitude":"-8.25000000","name":"Douar A\ufffdt Rzine"},{"id":"1486786","latitude":"31.40000000","longitude":"-7.90000000","name":"Douar A\ufffdt Salah"},{"id":"1486791","latitude":"31.38333330","longitude":"-8.50000000","name":"Douar A\ufffdt Tahar"},{"id":"1486793","latitude":"31.50000000","longitude":"-8.25000000","name":"Douar A\ufffdt Touddert"},{"id":"1486797","latitude":"31.55000000","longitude":"-8.36666670","name":"Douar A\ufffdt Ze\ufffdd"},{"id":"1486799","latitude":"31.51666670","longitude":"-7.88333330","name":"Douar Akhatar"},{"id":"1486800","latitude":"31.35000000","longitude":"-8.08333330","name":"Douar Akhlij"},{"id":"1486803","latitude":"31.50000000","longitude":"-8.03333330","name":"Douar Ala Lma"},{"id":"1486806","latitude":"31.65000000","longitude":"-8.15000000","name":"Douar Ali ben Irich"},{"id":"1486811","latitude":"31.50000000","longitude":"-8.46666670","name":"Douar Alioua"},{"id":"1486814","latitude":"31.58333330","longitude":"-7.53333330","name":"Douar Ali Ou Mbarek"},{"id":"1486824","latitude":"31.65000000","longitude":"-8.33333330","name":"Douar Allouch"},{"id":"1486826","latitude":"31.31666670","longitude":"-7.86666670","name":"Douar Allous"},{"id":"1486827","latitude":"31.33333330","longitude":"-8.01666670","name":"Douar Alouarg"},{"id":"1486829","latitude":"31.51361110","longitude":"-7.70111110","name":"Douar Amanouz"},{"id":"1486833","latitude":"31.37194440","longitude":"-7.85861110","name":"Douar Amekhlij"},{"id":"1486834","latitude":"31.50000000","longitude":"-7.80000000","name":"Douar Amezrou"},{"id":"1486839","latitude":"31.41666670","longitude":"-8.03333330","name":"Douar Annamer"},{"id":"1486853","latitude":"31.36666670","longitude":"-8.01666670","name":"Douar Arhbalou"},{"id":"1486857","latitude":"31.45000000","longitude":"-8.75000000","name":"Douar Arib"},{"id":"1486862","latitude":"31.28333330","longitude":"-8.18333330","name":"Douar Asgoum"},{"id":"1486864","latitude":"31.30000000","longitude":"-8.40000000","name":"Douar Assakoui"},{"id":"1486872","latitude":"31.55000000","longitude":"-8.08333330","name":"Douar Assoufid"},{"id":"1486883","latitude":"31.30000000","longitude":"-8.00000000","name":"Douar Azeflala"},{"id":"1486884","latitude":"31.45000000","longitude":"-8.15000000","name":"Douar Azib Bel Aoud"},{"id":"1486885","latitude":"31.68333330","longitude":"-8.06666670","name":"Douar Azib el goundafi"},{"id":"1486887","latitude":"31.58333330","longitude":"-7.83333330","name":"Douar Azib Oulad L\ufffddem"},{"id":"1486888","latitude":"31.36666670","longitude":"-7.98333330","name":"Douar Azib Zekkoum"},{"id":"1486891","latitude":"31.55000000","longitude":"-7.85000000","name":"Douar Azoubane"},{"id":"1486896","latitude":"31.36666670","longitude":"-7.76666670","name":"Douar Azrou Melloul"},{"id":"1486914","latitude":"31.43333330","longitude":"-7.91666670","name":"Douar Bakader"},{"id":"1486917","latitude":"31.28333330","longitude":"-8.33333330","name":"Douar Bararha"},{"id":"1486926","latitude":"31.83333330","longitude":"-8.40000000","name":"Douar Belal"},{"id":"1486928","latitude":"31.48333330","longitude":"-8.16666670","name":"Douar bel Azouz"},{"id":"1486930","latitude":"31.75000000","longitude":"-8.16666670","name":"Douar Bel Azri"},{"id":"1486932","latitude":"31.70000000","longitude":"-8.40000000","name":"Douar bel Hassene"},{"id":"1486937","latitude":"31.55000000","longitude":"-8.05000000","name":"Douar Bellouk"},{"id":"1486940","latitude":"31.63361110","longitude":"-7.82638890","name":"Douar bel Rhanodour"},{"id":"1486949","latitude":"31.60000000","longitude":"-9.10000000","name":"Douar Ben Aoua\ufffdch"},{"id":"1486952","latitude":"31.26666670","longitude":"-8.30000000","name":"Douar Ben Bouiha"},{"id":"1486953","latitude":"31.56666670","longitude":"-7.63333330","name":"Douar Ben Bouih"},{"id":"1486959","latitude":"31.35000000","longitude":"-8.75000000","name":"Douar Ben Enfir"},{"id":"1487004","latitude":"31.99194440","longitude":"-8.00222220","name":"Douar Beni Moussa"},{"id":"1487018","latitude":"31.65000000","longitude":"-8.40000000","name":"Douar Ben Jilai"},{"id":"1487023","latitude":"31.58333330","longitude":"-7.86666670","name":"Douar ben Larbi"},{"id":"1487026","latitude":"31.56666670","longitude":"-8.36666670","name":"Douar Ben Nasseur"},{"id":"1487041","latitude":"31.56666670","longitude":"-7.95000000","name":"Douar Berrada"},{"id":"1487050","latitude":"31.63333330","longitude":"-7.85000000","name":"Douar Blidene"},{"id":"1487061","latitude":"31.48333330","longitude":"-7.91666670","name":"Douar bou Azza"},{"id":"1487062","latitude":"31.55000000","longitude":"-7.83333330","name":"Douar Bouazza"},{"id":"1487076","latitude":"31.56666670","longitude":"-8.28333330","name":"Douar Boudhir"},{"id":"1487082","latitude":"31.81666670","longitude":"-8.28333330","name":"Douar bou Halba"},{"id":"1487092","latitude":"31.56666670","longitude":"-8.33333330","name":"Douar Bouihat"},{"id":"1487098","latitude":"31.40000000","longitude":"-7.95000000","name":"Douar bou Kedir"},{"id":"1487101","latitude":"31.53333330","longitude":"-7.75000000","name":"Douar bou Khaoua"},{"id":"1487103","latitude":"31.56666670","longitude":"-7.93333330","name":"Douar bou Lanouar"},{"id":"1487117","latitude":"31.41666670","longitude":"-7.96666670","name":"Douar bou Ouglas"},{"id":"1487123","latitude":"31.46666670","longitude":"-8.15000000","name":"Douar Bou Rial"},{"id":"1487126","latitude":"31.53333330","longitude":"-8.20000000","name":"Douar Bourzik"},{"id":"1487128","latitude":"31.51666670","longitude":"-8.15000000","name":"Douar Bou Setta"},{"id":"1487131","latitude":"31.53333330","longitude":"-8.21666670","name":"Douar Bou Zid"},{"id":"1487157","latitude":"31.71666670","longitude":"-8.06666670","name":"Douar Ca\ufffdd Bou Jilali"},{"id":"1487159","latitude":"31.65000000","longitude":"-7.78333330","name":"Douar Ca\ufffdd Brahim"},{"id":"1487169","latitude":"31.68333330","longitude":"-8.06666670","name":"Douar Ca\ufffdd Goundafa"},{"id":"1487175","latitude":"31.63333330","longitude":"-7.90000000","name":"Douar Ca\ufffdd Layadi"},{"id":"1487177","latitude":"31.20000000","longitude":"-8.88333330","name":"Douar Ca\ufffdd Mohammed Ou Abdallah"},{"id":"1487183","latitude":"31.58333330","longitude":"-8.23333330","name":"Douar Ca\ufffdd Tahar"},{"id":"1487188","latitude":"31.51944440","longitude":"-7.91138890","name":"Douar Ch\ufffdba"},{"id":"1487196","latitude":"31.56666670","longitude":"-8.11666670","name":"Douar Chaouf"},{"id":"1487197","latitude":"31.53333330","longitude":"-8.23333330","name":"Douar Chaouia"},{"id":"1487213","latitude":"31.53333330","longitude":"-8.11666670","name":"Douar Chegoura"},{"id":"1487231","latitude":"31.56666670","longitude":"-7.63333330","name":"Douar Cheikh el Fatmi"},{"id":"1487238","latitude":"32.06666670","longitude":"-8.20000000","name":"Douar Cheikh Lahsene"},{"id":"1487248","latitude":"31.30000000","longitude":"-8.85000000","name":"Douar Che\ufffdkh Najem"},{"id":"1487253","latitude":"32.06666670","longitude":"-8.21666670","name":"Douar Cheikh Salah"},{"id":"1487262","latitude":"31.68333330","longitude":"-8.03333330","name":"Douar Chelalga"},{"id":"1487263","latitude":"31.68333330","longitude":"-8.03333330","name":"Douar Chelalgua"},{"id":"1487266","latitude":"31.53333330","longitude":"-8.28333330","name":"Douar Chems"},{"id":"1487271","latitude":"31.61666670","longitude":"-8.28333330","name":"Douar Cherarda"},{"id":"1487273","latitude":"31.71666670","longitude":"-8.18333330","name":"Douar Cherif"},{"id":"1487274","latitude":"31.71666670","longitude":"-8.18333330","name":"Douar Cherif Moulay Ali"},{"id":"1487311","latitude":"31.53333330","longitude":"-7.85000000","name":"Douar Chrabli"},{"id":"1487314","latitude":"31.51666670","longitude":"-8.21666670","name":"Douar Chreg"},{"id":"1487316","latitude":"31.71666670","longitude":"-8.18333330","name":"Douar Chrif Moulay Ali"},{"id":"1487343","latitude":"31.58333330","longitude":"-7.56666670","name":"Douar Dart"},{"id":"1487351","latitude":"31.40000000","longitude":"-7.98333330","name":"Douar Dechira"},{"id":"1487356","latitude":"31.30000000","longitude":"-8.48333330","name":"Douar Dehrat"},{"id":"1487358","latitude":"31.60000000","longitude":"-8.31666670","name":"Douar Demnati"},{"id":"1487372","latitude":"32.02888890","longitude":"-8.26555560","name":"Douar Djilali ben Kaddour"},{"id":"1487376","latitude":"31.46666670","longitude":"-8.48333330","name":"Douar Doufer"},{"id":"1487389","latitude":"31.53333330","longitude":"-7.83333330","name":"Douar Dr\ufffda"},{"id":"1487399","latitude":"31.60000000","longitude":"-8.11666670","name":"Douar Dreg"},{"id":"1487400","latitude":"31.45000000","longitude":"-8.10000000","name":"Douar Driat"},{"id":"1487407","latitude":"31.88333330","longitude":"-8.31666670","name":"Douar ech Chaab"},{"id":"1487409","latitude":"31.60166670","longitude":"-7.84194440","name":"Douar ech Cha\ufffdbat"},{"id":"1487455","latitude":"31.48333330","longitude":"-7.90000000","name":"Douar el Aggada"},{"id":"1487464","latitude":"31.48333330","longitude":"-8.45000000","name":"Douar el A\ufffdd"},{"id":"1487465","latitude":"31.46666670","longitude":"-8.06666670","name":"Douar el A\ufffdn"},{"id":"1487497","latitude":"31.65000000","longitude":"-8.33333330","name":"Douar el Aouidat"},{"id":"1487498","latitude":"31.51666670","longitude":"-7.81666670","name":"Douar el Aouina"},{"id":"1487514","latitude":"31.38333330","longitude":"-8.21666670","name":"Douar el Arissa"},{"id":"1487516","latitude":"31.90000000","longitude":"-8.23333330","name":"Douar el Aroui"},{"id":"1487545","latitude":"31.51666670","longitude":"-8.75000000","name":"Douar el Bachir"},{"id":"1487598","latitude":"31.57444440","longitude":"-7.96777780","name":"Douar el Ca\ufffdd Omar"},{"id":"1487612","latitude":"31.63555560","longitude":"-7.66472220","name":"Douar el Fokra"},{"id":"1487621","latitude":"31.36666670","longitude":"-8.26666670","name":"Douar el Ga\ufffdda"},{"id":"1487628","latitude":"31.61666670","longitude":"-9.06666670","name":"Douar el Goua\ufffded"},{"id":"1487631","latitude":"31.55000000","longitude":"-7.98333330","name":"Douar el Gouassem"},{"id":"1487645","latitude":"31.50000000","longitude":"-8.16666670","name":"Douar el Guebbas"},{"id":"1487651","latitude":"31.91666670","longitude":"-8.05000000","name":"Douar el Guern"},{"id":"1487660","latitude":"31.51666670","longitude":"-7.85000000","name":"Douar el Had"},{"id":"1487680","latitude":"32.01666670","longitude":"-8.25000000","name":"Douar el Hajj Driss"},{"id":"1487681","latitude":"31.95000000","longitude":"-8.06666670","name":"Douar el Hajj el Madani"},{"id":"1487690","latitude":"31.81666670","longitude":"-8.31666670","name":"Douar el Hajra"},{"id":"1487712","latitude":"31.40000000","longitude":"-8.50000000","name":"Douar el Hararcha"},{"id":"1487714","latitude":"31.55000000","longitude":"-8.13333330","name":"Douar el Harbill"},{"id":"1487719","latitude":"31.53611110","longitude":"-7.96027780","name":"Douar el Harkat"},{"id":"1487726","latitude":"31.81666670","longitude":"-8.31666670","name":"Douar el Hazra"},{"id":"1487747","latitude":"31.38333330","longitude":"-8.28333330","name":"Douar el Jorf"},{"id":"1487755","latitude":"31.43333330","longitude":"-8.23333330","name":"Douar el Karia"},{"id":"1487761","latitude":"31.51666670","longitude":"-8.31666670","name":"Douar el Kebir"},{"id":"1487769","latitude":"31.45000000","longitude":"-8.46666670","name":"Douar el Kenntaoui"},{"id":"1487791","latitude":"31.56666670","longitude":"-8.15000000","name":"Douar el Khenndek"},{"id":"1487798","latitude":"31.60000000","longitude":"-8.10000000","name":"Douar el Khobbane"},{"id":"1487799","latitude":"31.61666670","longitude":"-8.30000000","name":"Douar el Khouadra"},{"id":"1487828","latitude":"31.40000000","longitude":"-7.80000000","name":"Douar el Kriet"},{"id":"1487833","latitude":"31.63333330","longitude":"-7.90000000","name":"Douar el Layadi"},{"id":"1487841","latitude":"31.26666670","longitude":"-8.40000000","name":"Douar el Maharad"},{"id":"1487843","latitude":"31.58333330","longitude":"-8.03333330","name":"Douar el Mahmid"},{"id":"1487849","latitude":"31.56666670","longitude":"-8.00000000","name":"Douar el Makina"},{"id":"1487851","latitude":"31.95000000","longitude":"-8.01666670","name":"Douar el Maouia"},{"id":"1487874","latitude":"31.45000000","longitude":"-7.93333330","name":"Douar el Mers"},{"id":"1487879","latitude":"31.41666670","longitude":"-7.91666670","name":"Douar el Mezouar"},{"id":"1487881","latitude":"31.36666670","longitude":"-7.95000000","name":"Douar el Mgassem"},{"id":"1487884","latitude":"31.40000000","longitude":"-8.23333330","name":"Douar el Mjed"},{"id":"1487886","latitude":"31.41666670","longitude":"-8.26666670","name":"Douar el Mkhalif"},{"id":"1487894","latitude":"31.65000000","longitude":"-8.00000000","name":"Douar el Morstane"},{"id":"1487900","latitude":"31.43333330","longitude":"-8.16666670","name":"Douar el Moukhtar"},{"id":"1487903","latitude":"31.33333330","longitude":"-8.36666670","name":"Douar el Mramda"},{"id":"1487912","latitude":"31.38333330","longitude":"-7.93333330","name":"Douar el Mtougui"},{"id":"1487918","latitude":"31.90000000","longitude":"-8.05000000","name":"Douar el Ouichate"},{"id":"1487921","latitude":"31.56666670","longitude":"-7.76666670","name":"Douar el Oulja"},{"id":"1487928","latitude":"31.51666670","longitude":"-7.98333330","name":"Douar el Rhechat"},{"id":"1487944","latitude":"31.78333330","longitude":"-8.30000000","name":"Douar el Yazid"},{"id":"1487966","latitude":"31.40000000","longitude":"-8.33333330","name":"Douar es Salek"},{"id":"1487996","latitude":"31.28333330","longitude":"-8.38333330","name":"Douar ez Zrazra"},{"id":"1488001","latitude":"31.25000000","longitude":"-8.38333330","name":"Douar Fa\ufffddet"},{"id":"1488019","latitude":"31.70000000","longitude":"-8.10000000","name":"Douar Filala"},{"id":"1488028","latitude":"31.53666670","longitude":"-7.86972220","name":"Douar Fourou"},{"id":"1488032","latitude":"31.40000000","longitude":"-8.28333330","name":"Douar Frizem"},{"id":"1488040","latitude":"31.36666670","longitude":"-8.30000000","name":"Douar Goujgal"},{"id":"1488043","latitude":"31.57972220","longitude":"-7.64805560","name":"Douar Gourharda"},{"id":"1488048","latitude":"31.58333330","longitude":"-7.91666670","name":"Douar Graoua"},{"id":"1488060","latitude":"31.60000000","longitude":"-7.88333330","name":"Douar Gzoula"},{"id":"1488074","latitude":"31.48333330","longitude":"-8.75000000","name":"Douar Hafid"},{"id":"1488080","latitude":"31.38333330","longitude":"-8.08333330","name":"Douar Hajar"},{"id":"1488116","latitude":"31.70000000","longitude":"-8.10000000","name":"Douar Harilli"},{"id":"1488140","latitude":"31.35000000","longitude":"-7.81666670","name":"Douar Igzi ou Fella"},{"id":"1488143","latitude":"31.31666670","longitude":"-7.90000000","name":"Douar Ijjikene"},{"id":"1488147","latitude":"31.41666670","longitude":"-8.13333330","name":"Douar Imarine"},{"id":"1488148","latitude":"31.33333330","longitude":"-8.05000000","name":"Douar Imezdern"},{"id":"1488150","latitude":"31.43333330","longitude":"-7.93333330","name":"Douar Imouda\ufffdne"},{"id":"1488155","latitude":"31.55000000","longitude":"-8.63333330","name":"Douar Iriouat"},{"id":"1488157","latitude":"31.25000000","longitude":"-8.01666670","name":"Douar Isgane"},{"id":"1488158","latitude":"31.25000000","longitude":"-8.33333330","name":"Douar Isgoufa"},{"id":"1488168","latitude":"31.28333330","longitude":"-8.86666670","name":"Douar Jdida"},{"id":"1488170","latitude":"31.60000000","longitude":"-7.78333330","name":"Douar Jdiouat"},{"id":"1488203","latitude":"32.02888890","longitude":"-8.26555560","name":"Douar Jilali ben Kaddour"},{"id":"1488206","latitude":"31.58333330","longitude":"-7.83333330","name":"Douar Jloud"},{"id":"1488224","latitude":"31.81666670","longitude":"-8.06666670","name":"Douar Kaddour"},{"id":"1488246","latitude":"31.55000000","longitude":"-7.78333330","name":"Douar Kebbaj"},{"id":"1488259","latitude":"31.83333330","longitude":"-8.21666670","name":"Douar Kerkouz"},{"id":"1488293","latitude":"31.51666670","longitude":"-8.08333330","name":"Douar Kila"},{"id":"1488294","latitude":"31.73333330","longitude":"-8.40000000","name":"Douar Kissaria"},{"id":"1488297","latitude":"31.60000000","longitude":"-8.36666670","name":"Douar Knassiss"},{"id":"1488302","latitude":"31.70000000","longitude":"-8.40000000","name":"Douar Kouara Bel Lahsene"},{"id":"1488341","latitude":"31.63333330","longitude":"-8.13333330","name":"Douar Lahsene"},{"id":"1488349","latitude":"31.48333330","longitude":"-8.16666670","name":"Douar Lalla Attouch"},{"id":"1488369","latitude":"31.61666670","longitude":"-8.43333330","name":"Douar L\ufffdrichat"},{"id":"1488371","latitude":"31.26666670","longitude":"-8.15000000","name":"Douar Larjam"},{"id":"1488393","latitude":"31.45472220","longitude":"-7.91250000","name":"Douar Loukid"},{"id":"1488405","latitude":"31.53333330","longitude":"-8.61666670","name":"Douar Mahessera"},{"id":"1488411","latitude":"31.33333330","longitude":"-8.18333330","name":"Douar Makhfamane"},{"id":"1488415","latitude":"31.40000000","longitude":"-7.85000000","name":"Douar Maout"},{"id":"1488427","latitude":"31.90000000","longitude":"-8.11666670","name":"Douar Mehdi el Menebi"},{"id":"1488428","latitude":"31.58333330","longitude":"-8.31666670","name":"Douar Mejjat"},{"id":"1488466","latitude":"31.55000000","longitude":"-8.18333330","name":"Douar Mjoutat"},{"id":"1488476","latitude":"31.60000000","longitude":"-8.21666670","name":"Douar Moha Ben Bouazza"},{"id":"1488506","latitude":"31.40000000","longitude":"-7.93333330","name":"Douar Moulay Abb\ufffds"},{"id":"1488507","latitude":"31.51666670","longitude":"-8.18333330","name":"Douar Moulay Abdallah"},{"id":"1488508","latitude":"31.65000000","longitude":"-7.71666670","name":"Douar Moulay Abd el Krim"},{"id":"1488510","latitude":"31.51666670","longitude":"-8.36666670","name":"Douar Moulay Ahmed Billouch"},{"id":"1488511","latitude":"31.43333330","longitude":"-7.90000000","name":"Douar Moulay Ahmed"},{"id":"1488516","latitude":"31.46555560","longitude":"-8.75916670","name":"Douar Moulay Brahim"},{"id":"1488517","latitude":"31.53333330","longitude":"-7.91666670","name":"Douar Moulay Cherif"},{"id":"1488518","latitude":"31.68333330","longitude":"-8.06666670","name":"Douar Moulay Hafid"},{"id":"1488520","latitude":"31.56666670","longitude":"-8.31666670","name":"Douar Moulay Otmane"},{"id":"1488521","latitude":"31.51666670","longitude":"-8.06666670","name":"Douar Moussiha"},{"id":"1488531","latitude":"31.90000000","longitude":"-8.28333330","name":"Douar Mrimdat"},{"id":"1488542","latitude":"31.55000000","longitude":"-8.23333330","name":"Douar Mtouga"},{"id":"1488543","latitude":"31.53333330","longitude":"-7.70000000","name":"Douar Mtougga"},{"id":"1488550","latitude":"31.58027780","longitude":"-8.49333330","name":"Douar Mzoudia"},{"id":"1488559","latitude":"31.58333330","longitude":"-7.86666670","name":"Douar Najem"},{"id":"1488561","latitude":"31.41666670","longitude":"-7.85000000","name":"Douar N'Chaba"},{"id":"1488591","latitude":"31.46666670","longitude":"-8.26666670","name":"Douar Nzala"},{"id":"1488594","latitude":"31.33333330","longitude":"-7.85000000","name":"Douar Ouaguejdit"},{"id":"1488595","latitude":"31.35000000","longitude":"-8.16666670","name":"Douar Ouaouizelt"},{"id":"1488598","latitude":"31.26666670","longitude":"-8.08333330","name":"Douar Ouarialt"},{"id":"1488607","latitude":"31.35000000","longitude":"-7.91666670","name":"Douar Ouirizene"},{"id":"1488608","latitude":"31.30000000","longitude":"-8.06666670","name":"Douar Ouizilene"},{"id":"1488609","latitude":"31.35000000","longitude":"-8.10000000","name":"Douar Oukhribane"},{"id":"1488632","latitude":"31.90000000","longitude":"-8.28333330","name":"Douar Oulad Ahmida"},{"id":"1488749","latitude":"32.00000000","longitude":"-8.36666670","name":"Douar Oulad Bou Hara"},{"id":"1488795","latitude":"31.56722220","longitude":"-8.95777780","name":"Douar Oulad Driss"},{"id":"1488820","latitude":"31.60000000","longitude":"-8.63333330","name":"Douar Oulad el Hajj Kalem"},{"id":"1488839","latitude":"31.68333330","longitude":"-8.31666670","name":"Douar Oulad Fateh"},{"id":"1488852","latitude":"31.21666670","longitude":"-8.98333330","name":"Douar Oulad Hajj Mohammed"},{"id":"1488854","latitude":"31.21666670","longitude":"-8.98333330","name":"Douar Oulad Haj Mohammed"},{"id":"1488883","latitude":"31.53333330","longitude":"-8.01666670","name":"Douar Oulad Ikhia"},{"id":"1488918","latitude":"31.93333330","longitude":"-8.16666670","name":"Douar Oulad Lahssene"},{"id":"1488937","latitude":"31.48333330","longitude":"-8.00000000","name":"Douar Oulad Mannsour"},{"id":"1489006","latitude":"31.55000000","longitude":"-8.28333330","name":"Douar Oulad Nsafer"},{"id":"1489039","latitude":"31.58333330","longitude":"-8.10000000","name":"Douar Oulad Sa\ufffdd"},{"id":"1489061","latitude":"31.50000000","longitude":"-8.10000000","name":"Douar Oulad Sidi Addi"},{"id":"1489070","latitude":"31.63333330","longitude":"-8.16666670","name":"Douar Oulad Sidi Che\ufffdkh"},{"id":"1489177","latitude":"31.42333330","longitude":"-7.97361110","name":"Douar Ouled Brahim"},{"id":"1489242","latitude":"31.41666670","longitude":"-8.08333330","name":"Douar Oumnas"},{"id":"1489277","latitude":"31.71666670","longitude":"-8.36666670","name":"Douar Rhar et Tour"},{"id":"1489282","latitude":"31.50000000","longitude":"-8.15000000","name":"Douar Rheya"},{"id":"1489305","latitude":"31.68333330","longitude":"-8.30000000","name":"Douar Rmitat"},{"id":"1489322","latitude":"31.58333330","longitude":"-8.35000000","name":"Douar Safsafa"},{"id":"1489329","latitude":"31.33333330","longitude":"-8.71666670","name":"Douar Sa\ufffddat"},{"id":"1489333","latitude":"31.70000000","longitude":"-8.46666670","name":"Douar Salah ben Jilali"},{"id":"1489337","latitude":"31.53333330","longitude":"-8.16666670","name":"Douar Sarro"},{"id":"1489340","latitude":"31.38333330","longitude":"-7.83333330","name":"Douar Sbiti"},{"id":"1489345","latitude":"31.31666670","longitude":"-8.75000000","name":"Douar Seblatrous Lababsa"},{"id":"1489352","latitude":"31.53333330","longitude":"-7.93333330","name":"Douar Segraga"},{"id":"1489355","latitude":"31.46666670","longitude":"-8.05000000","name":"Douar Sehib Foukani"},{"id":"1489356","latitude":"31.46666670","longitude":"-8.05000000","name":"Douar Sehib Tahtani"},{"id":"1489363","latitude":"31.61666670","longitude":"-7.91666670","name":"Douar Sfiani"},{"id":"1489381","latitude":"31.23333330","longitude":"-8.50000000","name":"Douar Sidi Ali ben Larbi"},{"id":"1489387","latitude":"31.58333330","longitude":"-8.30000000","name":"Douar Sidi Amara"},{"id":"1489389","latitude":"31.40000000","longitude":"-8.30000000","name":"Douar Sidi Arich"},{"id":"1489395","latitude":"31.48333330","longitude":"-8.43333330","name":"Douar Sidi Bel Khe\ufffdr"},{"id":"1489411","latitude":"31.64250000","longitude":"-7.72333330","name":"Douar Sidi el Bacha"},{"id":"1489413","latitude":"31.63583330","longitude":"-9.04972220","name":"Douar Sidi el Hadj Mohammed Ben Rhir"},{"id":"1489414","latitude":"31.63583330","longitude":"-9.04972220","name":"Douar Sidi el Hajj Mohammed Ben Rdir"},{"id":"1489430","latitude":"31.21666670","longitude":"-8.93333330","name":"Douar Sidi Lhassene"},{"id":"1489435","latitude":"31.61666670","longitude":"-8.43333330","name":"Douar Sidi Mohammed ben Sa\ufffdd"},{"id":"1489452","latitude":"31.61666670","longitude":"-7.96666670","name":"Douar Sidi Youssef Ben Ali"},{"id":"1489474","latitude":"31.56666670","longitude":"-8.08333330","name":"Douar Soltane"},{"id":"1489493","latitude":"31.43333330","longitude":"-8.00000000","name":"Douar Souiri"},{"id":"1489495","latitude":"31.66666670","longitude":"-7.85000000","name":"Douar Soukkane"},{"id":"1489496","latitude":"31.38333330","longitude":"-8.16666670","name":"Douar Souksou"},{"id":"1489503","latitude":"31.51666670","longitude":"-7.88333330","name":"Douar Sra\ufffdri"},{"id":"1489505","latitude":"31.51666670","longitude":"-7.86666670","name":"Douar Srarhna"},{"id":"1489516","latitude":"31.38333330","longitude":"-7.95000000","name":"Douar Taaricht"},{"id":"1489517","latitude":"31.53333330","longitude":"-8.06666670","name":"Douar Taazout"},{"id":"1489518","latitude":"31.25000000","longitude":"-8.33333330","name":"Douar Tabouabdelit"},{"id":"1489519","latitude":"31.26666670","longitude":"-8.20000000","name":"Douar Tachbibt"},{"id":"1489525","latitude":"31.28333330","longitude":"-8.01666670","name":"Douar Taddert"},{"id":"1489529","latitude":"31.58333330","longitude":"-7.60000000","name":"Douar Tafoukt"},{"id":"1489531","latitude":"31.41666670","longitude":"-8.06666670","name":"Douar Tagadirt"},{"id":"1489533","latitude":"31.28333330","longitude":"-8.35000000","name":"Douar Taguennza"},{"id":"1489545","latitude":"31.36666670","longitude":"-8.16666670","name":"Douar Ta\ufffdzelt"},{"id":"1489548","latitude":"31.33333330","longitude":"-8.01666670","name":"Douar Tajgalt"},{"id":"1489552","latitude":"31.45000000","longitude":"-8.01666670","name":"Douar Takourt"},{"id":"1489557","latitude":"31.35000000","longitude":"-8.06666670","name":"Douar Talamoumene"},{"id":"1489558","latitude":"31.33333330","longitude":"-7.93333330","name":"Douar Talat Marrhene"},{"id":"1489559","latitude":"31.25000000","longitude":"-8.13333330","name":"Douar Talat n'Trharast"},{"id":"1489560","latitude":"31.56666670","longitude":"-7.91666670","name":"Douar Talbarat"},{"id":"1489562","latitude":"31.50000000","longitude":"-8.26666670","name":"Douar Talmoudi"},{"id":"1489563","latitude":"31.51666670","longitude":"-7.68333330","name":"Douar Taltant"},{"id":"1489564","latitude":"31.30000000","longitude":"-8.08333330","name":"Douar Tamazert"},{"id":"1489570","latitude":"31.36666670","longitude":"-8.36666670","name":"Douar Tamrhlecht"},{"id":"1489574","latitude":"31.40000000","longitude":"-8.06666670","name":"Douar Taourda"},{"id":"1489578","latitude":"31.53333330","longitude":"-7.53333330","name":"Douar Targa"},{"id":"1489582","latitude":"31.56666670","longitude":"-7.58333330","name":"Douar Tasrhimout"},{"id":"1489584","latitude":"31.28333330","longitude":"-8.25000000","name":"Douar Tassena"},{"id":"1489585","latitude":"31.26666670","longitude":"-8.35000000","name":"Douar Tazarine"},{"id":"1489586","latitude":"31.56666670","longitude":"-8.11666670","name":"Douar Tazi"},{"id":"1489587","latitude":"31.35000000","longitude":"-8.01666670","name":"Douar Tazrou"},{"id":"1489599","latitude":"31.60000000","longitude":"-8.26666670","name":"Douar Thata"},{"id":"1489605","latitude":"31.30000000","longitude":"-8.10000000","name":"Douar Tiferouine"},{"id":"1489606","latitude":"31.25000000","longitude":"-8.43333330","name":"Douar Tigourar"},{"id":"1489608","latitude":"31.30000000","longitude":"-8.06666670","name":"Douar Tigzit"},{"id":"1489613","latitude":"31.41666670","longitude":"-7.95000000","name":"Douar Tillouna"},{"id":"1489614","latitude":"31.35000000","longitude":"-7.75000000","name":"Douar Timalizene"},{"id":"1489617","latitude":"31.28333330","longitude":"-8.00000000","name":"Douar Tiouli"},{"id":"1489618","latitude":"31.36666670","longitude":"-7.91666670","name":"Douar Tiourhza"},{"id":"1489636","latitude":"31.33333330","longitude":"-7.88333330","name":"Douar Tleta"},{"id":"1489645","latitude":"31.63333330","longitude":"-7.80000000","name":"Douar Toualeb"},{"id":"1489651","latitude":"31.55000000","longitude":"-7.96666670","name":"Douar Touggana"},{"id":"1489653","latitude":"31.43333330","longitude":"-7.95000000","name":"Douar Tougouana"},{"id":"1489655","latitude":"31.95000000","longitude":"-8.20000000","name":"Douar Tounsi"},{"id":"1489667","latitude":"31.55000000","longitude":"-8.26666670","name":"Douar Zabera"},{"id":"1489685","latitude":"31.53333330","longitude":"-8.26666670","name":"Douar Zemrane"},{"id":"1489689","latitude":"31.26666670","longitude":"-8.25000000","name":"Douar Zgagma"},{"id":"1489730","latitude":"31.45000000","longitude":"-7.81666670","name":"Dou Ghemat"},{"id":"1489734","latitude":"31.46666670","longitude":"-8.48333330","name":"Douifir"},{"id":"1489771","latitude":"31.45000000","longitude":"-7.81666670","name":"Dou Rhemat"},{"id":"1489772","latitude":"31.53333330","longitude":"-7.91666670","name":"Dour-Moulay-Ch\ufffdrif"},{"id":"1489789","latitude":"31.53333330","longitude":"-7.83333330","name":"Draa"},{"id":"1489809","latitude":"31.86666670","longitude":"-8.25000000","name":"Drana"},{"id":"1489821","latitude":"31.60000000","longitude":"-8.11666670","name":"Dreg"},{"id":"1489824","latitude":"31.45000000","longitude":"-8.10000000","name":"Driat"},{"id":"1489862","latitude":"31.33333330","longitude":"-8.90000000","name":"Ech Cha\ufffdba"},{"id":"1489863","latitude":"31.60166670","longitude":"-7.84194440","name":"Ech Cha\ufffdbat"},{"id":"1489869","latitude":"13.90000000","longitude":"-7.96666670","name":"Ech Chems"},{"id":"1489873","latitude":"31.90000000","longitude":"-8.36666670","name":"Ech-Chleuh"},{"id":"1489896","latitude":"31.41666670","longitude":"-8.93333330","name":"Ed Darhoussa"},{"id":"1489917","latitude":"31.44833330","longitude":"-8.96416670","name":"Ed Doummissate"},{"id":"1489953","latitude":"31.41666670","longitude":"-7.80000000","name":"Ej Jema"},{"id":"1489965","latitude":"31.35000000","longitude":"-8.76666670","name":"El Aanafra"},{"id":"1489978","latitude":"31.85000000","longitude":"-8.40000000","name":"El Ababsa"},{"id":"1489984","latitude":"31.56666670","longitude":"-8.98333330","name":"El Aberda"},{"id":"1489988","latitude":"31.60000000","longitude":"-8.98333330","name":"El Abidate"},{"id":"1489989","latitude":"31.60000000","longitude":"-9.00000000","name":"El Abidat"},{"id":"1490012","latitude":"31.48333330","longitude":"-7.90000000","name":"El Aggada"},{"id":"1490032","latitude":"31.55000000","longitude":"-7.91666670","name":"El A\ufffdn djedid"},{"id":"1490034","latitude":"31.46666670","longitude":"-8.06666670","name":"El A\ufffdn"},{"id":"1490051","latitude":"31.28333330","longitude":"-8.76666670","name":"El Akhalalta"},{"id":"1490080","latitude":"32.01666670","longitude":"-8.08333330","name":"El Amrani"},{"id":"1490104","latitude":"31.35000000","longitude":"-8.76666670","name":"El Aonafra"},{"id":"1490108","latitude":"31.36666670","longitude":"-8.73333330","name":"El Aouamer"},{"id":"1490117","latitude":"31.65000000","longitude":"-8.33333330","name":"El Aouidat"},{"id":"1490119","latitude":"31.51666670","longitude":"-7.81666670","name":"El Aouina"},{"id":"1490123","latitude":"31.21666670","longitude":"-8.61666670","name":"El Aou\ufffdnate"},{"id":"1490151","latitude":"31.55000000","longitude":"-7.50000000","name":"El Arba\ufffd"},{"id":"1490177","latitude":"31.23333330","longitude":"-8.76666670","name":"El Arba"},{"id":"1490198","latitude":"31.38333330","longitude":"-8.21666670","name":"El Arissa"},{"id":"1490204","latitude":"31.96666670","longitude":"-8.18333330","name":"El-Arouga"},{"id":"1490251","latitude":"31.51666670","longitude":"-8.75000000","name":"El Bachir"},{"id":"1490280","latitude":"31.56666670","longitude":"-7.95000000","name":"El berrada"},{"id":"1490325","latitude":"31.30000000","longitude":"-8.60000000","name":"El Borj el Roumi"},{"id":"1490340","latitude":"31.03333330","longitude":"-8.60000000","name":"El Boudj"},{"id":"1490341","latitude":"31.61666670","longitude":"-7.85000000","name":"El Bougaria"},{"id":"1490358","latitude":"31.41666670","longitude":"-7.53333330","name":"El Bour"},{"id":"1490381","latitude":"31.43333330","longitude":"-7.83333330","name":"El Briza"},{"id":"1490389","latitude":"31.57444440","longitude":"-7.96777780","name":"El Ca\ufffdd Omar"},{"id":"1490400","latitude":"31.41666670","longitude":"-7.80000000","name":"El Djemaa"},{"id":"1490406","latitude":"31.41666670","longitude":"-7.80000000","name":"El Djema"},{"id":"1490410","latitude":"31.44833330","longitude":"-8.96416670","name":"El dma\ufffdssate"},{"id":"1490411","latitude":"31.44833330","longitude":"-8.96416670","name":"El Doummissat"},{"id":"1490417","latitude":"31.25000000","longitude":"-8.38333330","name":"El Fa\ufffdda"},{"id":"1490419","latitude":"31.25000000","longitude":"-8.38333330","name":"El Fa\ufffddat"},{"id":"1490459","latitude":"31.36666670","longitude":"-8.26666670","name":"El Ga\ufffdda"},{"id":"1490462","latitude":"31.38333330","longitude":"-7.85000000","name":"El Galmousse"},{"id":"1490469","latitude":"31.91666670","longitude":"-8.05000000","name":"El Garn"},{"id":"1490472","latitude":"31.98916670","longitude":"-7.16388890","name":"El Geurne el Hmar"},{"id":"1490498","latitude":"31.55000000","longitude":"-7.98333330","name":"El Gouassem"},{"id":"1490506","latitude":"31.68333330","longitude":"-8.06666670","name":"El Goundafi"},{"id":"1490525","latitude":"31.50000000","longitude":"-8.16666670","name":"El Guebbas"},{"id":"1490536","latitude":"31.50000000","longitude":"-8.16666670","name":"El Guerba"},{"id":"1490537","latitude":"31.71666670","longitude":"-8.20000000","name":"El Guern"},{"id":"1490591","latitude":"31.35000000","longitude":"-8.50000000","name":"El Had"},{"id":"1490596","latitude":"31.98333330","longitude":"-8.11666670","name":"El Had et Mennebbi"},{"id":"1490609","latitude":"31.51666670","longitude":"-7.85000000","name":"El Had n'Intaoun"},{"id":"1490624","latitude":"31.01666670","longitude":"-8.16666670","name":"El Haffahen"},{"id":"1490626","latitude":"31.35000000","longitude":"-8.83333330","name":"El Ha\ufffdba"},{"id":"1490641","latitude":"31.45000000","longitude":"-7.78333330","name":"El Hajeb"},{"id":"1490643","latitude":"31.41666670","longitude":"-7.76666670","name":"El Hajeb n'A\ufffdt Ouadouz"},{"id":"1490645","latitude":"31.95000000","longitude":"-8.06666670","name":"El Haj el Madani"},{"id":"1490655","latitude":"31.95000000","longitude":"-8.06666670","name":"El Hajj el Madani"},{"id":"1490667","latitude":"31.50000000","longitude":"-8.03333330","name":"El - Hama"},{"id":"1490703","latitude":"31.01666670","longitude":"-8.16666670","name":"El Hanne\ufffdn"},{"id":"1490726","latitude":"31.55000000","longitude":"-8.13333330","name":"El Harbili"},{"id":"1490747","latitude":"31.53611110","longitude":"-7.96027780","name":"El Harkat"},{"id":"1490820","latitude":"31.51666670","longitude":"-7.98333330","name":"El Hrach"},{"id":"1490828","latitude":"31.28333330","longitude":"-8.86666670","name":"El Jadida"},{"id":"1490837","latitude":"31.41666670","longitude":"-7.80000000","name":"El Jemaa Rhemat"},{"id":"1490842","latitude":"31.41666670","longitude":"-7.80000000","name":"El Jem\ufffd"},{"id":"1490844","latitude":"31.41666670","longitude":"-7.80000000","name":"El Jem'a Ghemat"},{"id":"1490855","latitude":"31.31666670","longitude":"-8.46666670","name":"El Jorf"},{"id":"1490873","latitude":"31.38333330","longitude":"-9.16666670","name":"El Kalaa"},{"id":"1490887","latitude":"31.43333330","longitude":"-8.23333330","name":"El Karia"},{"id":"1490890","latitude":"31.58333330","longitude":"-7.70000000","name":"El Karkour"},{"id":"1490899","latitude":"31.51666670","longitude":"-8.31666670","name":"El Kbir"},{"id":"1490900","latitude":"31.23333330","longitude":"-8.85000000","name":"El Kceiba"},{"id":"1490914","latitude":"31.51666670","longitude":"-8.31666670","name":"El Kebir"},{"id":"1490921","latitude":"31.38333330","longitude":"-9.16666670","name":"El-Kela\ufffd-Centre"},{"id":"1490931","latitude":"31.28333330","longitude":"-8.83333330","name":"El Kelaa"},{"id":"1490939","latitude":"31.45000000","longitude":"-8.46666670","name":"El Kenntaoui"},