[{"id":"1516874","latitude":"-22.61666670","longitude":"44.65000000","name":"Abo"},{"id":"1516881","latitude":"-18.63333330","longitude":"45.15000000","name":"Abonara"},{"id":"1516884","latitude":"-20.56666670","longitude":"45.03333330","name":"Aborano"},{"id":"1516885","latitude":"-18.53333330","longitude":"45.01666670","name":"Aborano Atsimo"},{"id":"1516886","latitude":"-18.43333330","longitude":"45.03333330","name":"Aborano Avaratra"},{"id":"1516887","latitude":"-22.73333330","longitude":"44.08333330","name":"Aborotsy"},{"id":"1516890","latitude":"-23.35000000","longitude":"44.28333330","name":"Adabodo"},{"id":"1516891","latitude":"-23.06666670","longitude":"44.40000000","name":"Adabofolo"},{"id":"1516893","latitude":"-19.08333330","longitude":"45.26666670","name":"Adabomahebo"},{"id":"1516899","latitude":"-19.71666670","longitude":"45.36666670","name":"Adabozato"},{"id":"1516900","latitude":"-23.05000000","longitude":"44.25000000","name":"Adamasiny-Vineta"},{"id":"1516901","latitude":"-18.95000000","longitude":"45.30000000","name":"Adiniky"},{"id":"1516904","latitude":"-20.71666670","longitude":"44.68333330","name":"Afarisoky"},{"id":"1516908","latitude":"-25.00000000","longitude":"46.75000000","name":"Ahalandravy"},{"id":"1516913","latitude":"-21.70000000","longitude":"43.50000000","name":"Ahkida"},{"id":"1516917","latitude":"-24.76666670","longitude":"44.96666670","name":"Akafatsa"},{"id":"1516919","latitude":"-25.01666670","longitude":"44.28333330","name":"Akanankasy"},{"id":"1516923","latitude":"-22.13333330","longitude":"45.23333330","name":"Aketa"},{"id":"1516924","latitude":"-24.58333330","longitude":"45.50000000","name":"Akilimalagy"},{"id":"1516926","latitude":"-22.83333330","longitude":"45.76666670","name":"Akindrano Ambany"},{"id":"1516928","latitude":"-23.93333330","longitude":"44.91666670","name":"Akobabaky"},{"id":"1516934","latitude":"-24.03333330","longitude":"45.80000000","name":"Akoreky"},{"id":"1516966","latitude":"-23.90000000","longitude":"44.56666670","name":"Aloalofotaka"},{"id":"1516968","latitude":"-23.55000000","longitude":"44.20000000","name":"Alotsakanga"},{"id":"1516970","latitude":"-25.33333330","longitude":"45.76666670","name":"Amafandry"},{"id":"1516971","latitude":"-23.83333330","longitude":"44.50000000","name":"Amafiamavo"},{"id":"1516974","latitude":"-22.23333330","longitude":"44.40000000","name":"Amanamby"},{"id":"1516976","latitude":"-18.71666670","longitude":"45.28333330","name":"Amanda"},{"id":"1516977","latitude":"-19.50000000","longitude":"45.43333330","name":"Amando"},{"id":"1516978","latitude":"-25.53333330","longitude":"45.33333330","name":"Amanendraka"},{"id":"1516981","latitude":"-23.98333330","longitude":"45.50000000","name":"Amaravay"},{"id":"1516982","latitude":"-19.36666670","longitude":"45.45000000","name":"Amatahago"},{"id":"1516984","latitude":"-21.81666670","longitude":"43.93333330","name":"Amatsia"},{"id":"1516985","latitude":"-23.60000000","longitude":"44.81666670","name":"Amba"},{"id":"1516988","latitude":"-22.21666670","longitude":"45.03333330","name":"Ambabaky"},{"id":"1516996","latitude":"-21.60000000","longitude":"43.66666670","name":"Ambahakily"},{"id":"1517004","latitude":"-23.08333330","longitude":"44.30000000","name":"Ambahatra"},{"id":"1517006","latitude":"-19.35000000","longitude":"45.35000000","name":"Ambahatrazo"},{"id":"1517009","latitude":"-23.05000000","longitude":"44.26666670","name":"Ambahatsy"},{"id":"1517011","latitude":"-23.81666670","longitude":"43.66666670","name":"Ambahevahe"},{"id":"1517012","latitude":"-21.63333330","longitude":"43.76666670","name":"Ambahia"},{"id":"1517015","latitude":"-20.45000000","longitude":"45.20000000","name":"Ambahibe"},{"id":"1517022","latitude":"-18.91666670","longitude":"45.10000000","name":"Ambahibotsara"},{"id":"1517023","latitude":"-19.81666670","longitude":"44.85000000","name":"Ambahifrakoa"},{"id":"1517025","latitude":"-24.63333330","longitude":"46.98333330","name":"Ambahihy"},{"id":"1517027","latitude":"-21.60000000","longitude":"43.66666670","name":"Ambahikily"},{"id":"1517028","latitude":"-24.00000000","longitude":"45.26666670","name":"Ambahila"},{"id":"1517029","latitude":"-22.83333330","longitude":"44.45000000","name":"Ambahimalitsy"},{"id":"1517030","latitude":"-22.83333330","longitude":"44.45000000","name":"Ambahimautsy"},{"id":"1517037","latitude":"-22.80000000","longitude":"44.81666670","name":"Ambahita"},{"id":"1517039","latitude":"-19.81666670","longitude":"44.85000000","name":"Ambahitrakoa"},{"id":"1517044","latitude":"-20.53333330","longitude":"44.31666670","name":"Ambahivahibe"},{"id":"1517048","latitude":"-21.68333330","longitude":"44.33333330","name":"Ambahivahy"},{"id":"1517051","latitude":"-22.55000000","longitude":"43.61666670","name":"Ambahiza"},{"id":"1517055","latitude":"-22.90000000","longitude":"44.30000000","name":"Ambaho"},{"id":"1517056","latitude":"-20.45000000","longitude":"45.20000000","name":"Ambahobe"},{"id":"1517057","latitude":"-24.98333330","longitude":"46.90000000","name":"Ambaho-Enio"},{"id":"1517063","latitude":"-21.21666670","longitude":"44.13333330","name":"Ambahovelo"},{"id":"1517066","latitude":"-24.71666670","longitude":"46.98333330","name":"Ambahy"},{"id":"1517078","latitude":"-18.75000000","longitude":"45.26666670","name":"Ambakaka"},{"id":"1517084","latitude":"-20.35000000","longitude":"44.51666670","name":"Ambakivoho"},{"id":"1517088","latitude":"-22.86666670","longitude":"45.60000000","name":"Ambakoa"},{"id":"1517089","latitude":"-22.91666670","longitude":"45.58333330","name":"Ambakoa-Ambany"},{"id":"1517090","latitude":"-22.93333330","longitude":"45.56666670","name":"Ambakoa-\ufffdmbinany"},{"id":"1517101","latitude":"-18.85000000","longitude":"45.30000000","name":"Ambala"},{"id":"1517116","latitude":"-18.38333330","longitude":"45.16666670","name":"Ambalabe"},{"id":"1517117","latitude":"-23.95000000","longitude":"45.45000000","name":"Ambalabe Atsimo"},{"id":"1517118","latitude":"-23.95000000","longitude":"45.45000000","name":"Ambalabe Avaratra"},{"id":"1517122","latitude":"-23.95000000","longitude":"45.45000000","name":"Ambalabe Nord"},{"id":"1517124","latitude":"-23.95000000","longitude":"45.45000000","name":"Ambalabe Sud"},{"id":"1517126","latitude":"-24.11666670","longitude":"47.20000000","name":"Ambalaboka"},{"id":"1517224","latitude":"-21.21666670","longitude":"44.36666670","name":"Ambalale"},{"id":"1517251","latitude":"-23.01666670","longitude":"44.63333330","name":"Ambalamana"},{"id":"1517268","latitude":"-18.46666670","longitude":"45.00000000","name":"Ambalamanga"},{"id":"1517270","latitude":"-24.23333330","longitude":"47.21666670","name":"Ambalamany"},{"id":"1517276","latitude":"-21.26666670","longitude":"45.53333330","name":"Ambalamarina"},{"id":"1517281","latitude":"-22.66666670","longitude":"44.73333330","name":"Ambalamary"},{"id":"1517284","latitude":"-25.20000000","longitude":"44.65000000","name":"Ambalamasy"},{"id":"1517290","latitude":"-24.66666670","longitude":"47.10000000","name":"Ambalambola"},{"id":"1517304","latitude":"-21.51666670","longitude":"43.63333330","name":"Ambalamoa"},{"id":"1517305","latitude":"-21.48333330","longitude":"43.65000000","name":"Ambalamoakely"},{"id":"1517321","latitude":"-24.06666670","longitude":"46.46666670","name":"Ambalaniany"},{"id":"1517331","latitude":"-23.58333330","longitude":"45.26666670","name":"Ambalanirana"},{"id":"1517337","latitude":"-19.75000000","longitude":"45.45000000","name":"Ambalanomby"},{"id":"1517340","latitude":"-25.48333330","longitude":"45.10000000","name":"Ambalanosy"},{"id":"1517344","latitude":"-23.31666670","longitude":"46.13333330","name":"Ambalaoa"},{"id":"1517348","latitude":"-24.11666670","longitude":"47.21666670","name":"Ambalapaiso"},{"id":"1517353","latitude":"-24.11666670","longitude":"47.21666670","name":"Ambalapiso"},{"id":"1517359","latitude":"-19.26666670","longitude":"44.71666670","name":"Ambalarano"},{"id":"1517361","latitude":"-24.90000000","longitude":"45.41666670","name":"Ambalaraotsy"},{"id":"1517363","latitude":"-20.61666670","longitude":"44.08333330","name":"Ambalaroa"},{"id":"1517372","latitude":"-23.93333330","longitude":"44.76666670","name":"Ambalasaraka"},{"id":"1517373","latitude":"-24.33333330","longitude":"46.70000000","name":"Ambalasarotsy"},{"id":"1517375","latitude":"-19.85000000","longitude":"45.41666670","name":"Ambalasatra"},{"id":"1517378","latitude":"-19.85000000","longitude":"45.41666670","name":"Ambalasatrana"},{"id":"1517384","latitude":"-23.11666670","longitude":"46.00000000","name":"Ambalasoa"},{"id":"1517386","latitude":"-24.38333330","longitude":"47.20000000","name":"Ambalasorita"},{"id":"1517394","latitude":"-23.53333330","longitude":"46.13333330","name":"Ambalatany"},{"id":"1517404","latitude":"-22.21666670","longitude":"45.01666670","name":"Ambalateva"},{"id":"1517406","latitude":"-24.25000000","longitude":"47.28333330","name":"Ambalateza"},{"id":"1517412","latitude":"-19.53333330","longitude":"45.55000000","name":"Ambalatsaraka"},{"id":"1517414","latitude":"-23.71666670","longitude":"44.81666670","name":"Ambalatsiefa"},{"id":"1517422","latitude":"-19.18333330","longitude":"45.06666670","name":"Ambalatsinainy"},{"id":"1517439","latitude":"-23.88333330","longitude":"45.65000000","name":"Ambalavao"},{"id":"1517445","latitude":"-23.80000000","longitude":"45.50000000","name":"Ambalavaokely"},{"id":"1517452","latitude":"-19.30000000","longitude":"44.78333330","name":"Ambalavary"},{"id":"1517457","latitude":"-21.46666670","longitude":"45.41666670","name":"Ambalavato"},{"id":"1517458","latitude":"-23.40000000","longitude":"46.15000000","name":"Ambalavato Haut"},{"id":"1517467","latitude":"-22.86666670","longitude":"43.56666670","name":"Ambalavenoka"},{"id":"1517473","latitude":"-23.90000000","longitude":"43.66666670","name":"Ambalaviro"},{"id":"1517481","latitude":"-24.78333330","longitude":"47.00000000","name":"Ambalavola"},{"id":"1517491","latitude":"-22.30000000","longitude":"44.51666670","name":"Ambalavy"},{"id":"1517497","latitude":"-24.53333330","longitude":"45.83333330","name":"Ambaliandro"},{"id":"1517498","latitude":"-25.33333330","longitude":"45.43333330","name":"Ambaliandro Nord"},{"id":"1517499","latitude":"-25.33333330","longitude":"45.45000000","name":"Ambaliandro Sud"},{"id":"1517500","latitude":"-19.56666670","longitude":"45.68333330","name":"Ambalianjavatra"},{"id":"1517507","latitude":"-20.30000000","longitude":"44.66666670","name":"Ambalikida"},{"id":"1517515","latitude":"-22.06666670","longitude":"43.26666670","name":"Ambalorao"},{"id":"1517521","latitude":"-24.66666670","longitude":"46.25000000","name":"Ambananata"},{"id":"1517523","latitude":"-24.55000000","longitude":"46.58333330","name":"Ambandanira"},{"id":"1517524","latitude":"-24.58333330","longitude":"46.58333330","name":"Ambandanirana"},{"id":"1517528","latitude":"-24.08333330","longitude":"44.95000000","name":"Ambandrika"},{"id":"1517532","latitude":"-20.90000000","longitude":"44.75000000","name":"Ambango"},{"id":"1517535","latitude":"-24.46666670","longitude":"45.23333330","name":"Ambaniato"},{"id":"1517537","latitude":"-25.20000000","longitude":"46.06666670","name":"Ambaniavoha"},{"id":"1517542","latitude":"-25.36666670","longitude":"45.78333330","name":"Ambanifalika"},{"id":"1517544","latitude":"-24.65000000","longitude":"47.21666670","name":"Ambanihazo"},{"id":"1517547","latitude":"-25.30000000","longitude":"45.93333330","name":"Ambanikily"},{"id":"1517552","latitude":"-25.33333330","longitude":"45.88333330","name":"Ambanimantsaky"},{"id":"1517555","latitude":"-25.33333330","longitude":"45.88333330","name":"Ambanimentsaky"},{"id":"1517556","latitude":"-24.66666670","longitude":"46.25000000","name":"Ambaninato"},{"id":"1517557","latitude":"-25.51666670","longitude":"45.20000000","name":"Ambaninonoka"},{"id":"1517560","latitude":"-25.23333330","longitude":"45.93333330","name":"Ambanisangy"},{"id":"1517562","latitude":"-25.20000000","longitude":"45.98333330","name":"Ambanisarika"},{"id":"1517563","latitude":"-25.20000000","longitude":"45.98333330","name":"Ambanisariky"},{"id":"1517579","latitude":"-20.43333330","longitude":"44.18333330","name":"Ambaonio"},{"id":"1517580","latitude":"-21.41666670","longitude":"43.55000000","name":"Ambaovy"},{"id":"1517588","latitude":"-24.15000000","longitude":"45.35000000","name":"Ambaraka"},{"id":"1517593","latitude":"-21.38333330","longitude":"44.38333330","name":"Ambararala"},{"id":"1517594","latitude":"-24.63333330","longitude":"45.76666670","name":"Ambararata Ambany"},{"id":"1517600","latitude":"-19.51666670","longitude":"45.66666670","name":"Ambararata"},{"id":"1517601","latitude":"-24.60000000","longitude":"45.78333330","name":"Ambararata Ambony"},{"id":"1517602","latitude":"-24.23333330","longitude":"45.20000000","name":"Ambararata Andrefana"},{"id":"1517603","latitude":"-18.46666670","longitude":"45.46666670","name":"Ambararata Atsimo"},{"id":"1517604","latitude":"-18.38333330","longitude":"45.50000000","name":"Ambararata Avaratra"},{"id":"1517612","latitude":"-21.91666670","longitude":"44.46666670","name":"Ambararatabevatana"},{"id":"1517614","latitude":"-22.76666670","longitude":"43.61666670","name":"Ambararatafaly"},{"id":"1517624","latitude":"-21.11666670","longitude":"45.08333330","name":"Ambararatanaomby"},{"id":"1517626","latitude":"-18.38333330","longitude":"45.50000000","name":"Ambararata Nord"},{"id":"1517627","latitude":"-24.23333330","longitude":"45.20000000","name":"Ambararata Ouest"},{"id":"1517630","latitude":"-18.46666670","longitude":"45.46666670","name":"Ambararata Sud"},{"id":"1517631","latitude":"-24.28333330","longitude":"45.46666670","name":"Ambararata-Toby"},{"id":"1517635","latitude":"-20.16666670","longitude":"44.73333330","name":"Ambararato"},{"id":"1517639","latitude":"-20.65000000","longitude":"44.08333330","name":"Ambarata"},{"id":"1517645","latitude":"-22.95000000","longitude":"45.58333330","name":"Ambaravarambato"},{"id":"1517649","latitude":"-19.23333330","longitude":"44.66666670","name":"Ambaravarantany"},{"id":"1517651","latitude":"-22.18333330","longitude":"43.68333330","name":"Ambariaho"},{"id":"1517656","latitude":"-23.86666670","longitude":"46.03333330","name":"Ambaribe"},{"id":"1517661","latitude":"-20.56666670","longitude":"45.70000000","name":"Ambarijanahary"},{"id":"1517675","latitude":"-23.03333330","longitude":"44.11666670","name":"Ambarimanira"},{"id":"1517676","latitude":"-23.03333330","longitude":"44.11666670","name":"Ambarimanitra"},{"id":"1517677","latitude":"-25.33333330","longitude":"45.75000000","name":"Ambarimanitsy"},{"id":"1517690","latitude":"-22.61666670","longitude":"44.66666670","name":"Ambarinakoho"},{"id":"1517691","latitude":"-24.96666670","longitude":"47.08333330","name":"Ambarinampy"},{"id":"1517700","latitude":"-20.56666670","longitude":"45.70000000","name":"Ambarinjanahary"},{"id":"1517703","latitude":"-25.10000000","longitude":"46.66666670","name":"Ambario"},{"id":"1517722","latitude":"-23.11666670","longitude":"46.16666670","name":"Ambaro"},{"id":"1517723","latitude":"-20.46666670","longitude":"45.70000000","name":"Ambarobe"},{"id":"1517724","latitude":"-25.30000000","longitude":"45.83333330","name":"Ambaromamoy"},{"id":"1517725","latitude":"-25.38333330","longitude":"45.76666670","name":"Ambaromanoy"},{"id":"1517727","latitude":"-25.36666670","longitude":"45.60000000","name":"Ambaromidada Andrefana"},{"id":"1517728","latitude":"-25.38333330","longitude":"45.63333330","name":"Ambaromidada Atsinanana"},{"id":"1517729","latitude":"-25.38333330","longitude":"45.63333330","name":"Ambaromidada Est"},{"id":"1517730","latitude":"-25.36666670","longitude":"45.60000000","name":"Ambaromidada Ouest"},{"id":"1517733","latitude":"-23.83333330","longitude":"44.41666670","name":"Ambary"},{"id":"1517734","latitude":"-23.93333330","longitude":"44.56666670","name":"Ambasahoka"},{"id":"1517735","latitude":"-24.93333330","longitude":"44.08333330","name":"Ambasimiviky"},{"id":"1517738","latitude":"-24.51666670","longitude":"45.38333330","name":"Ambasy"},{"id":"1517739","latitude":"-25.43333330","longitude":"45.60000000","name":"Ambasy Nord"},{"id":"1517740","latitude":"-25.45000000","longitude":"45.60000000","name":"Ambasy Sud"},{"id":"1517741","latitude":"-25.48333330","longitude":"45.48333330","name":"Ambata"},{"id":"1517742","latitude":"-20.33333330","longitude":"44.41666670","name":"Ambata Avaratra"},{"id":"1517750","latitude":"-18.61666670","longitude":"45.03333330","name":"Ambatata"},{"id":"1517755","latitude":"-24.50000000","longitude":"45.03333330","name":"Ambatoabo"},{"id":"1517764","latitude":"-19.78333330","longitude":"44.86666670","name":"Ambato"},{"id":"1517766","latitude":"-20.20000000","longitude":"44.33333330","name":"Ambato-Andrano"},{"id":"1517780","latitude":"-19.46666670","longitude":"45.45000000","name":"Ambatobe"},{"id":"1517781","latitude":"-23.41666670","longitude":"46.05000000","name":"Ambatobe Ambony"},{"id":"1517783","latitude":"-25.25000000","longitude":"45.40000000","name":"Ambatobe Atsimo"},{"id":"1517784","latitude":"-24.03333330","longitude":"45.73333330","name":"Ambatobe Besoy"},{"id":"1517786","latitude":"-25.26666670","longitude":"45.40000000","name":"Ambatobe Sud"},{"id":"1517791","latitude":"-23.33333330","longitude":"44.91666670","name":"Ambatoboro"},{"id":"1517792","latitude":"-23.88333330","longitude":"44.60000000","name":"Ambatobory"},{"id":"1517815","latitude":"-23.16666670","longitude":"45.28333330","name":"Ambatofohy"},{"id":"1517826","latitude":"-22.93333330","longitude":"45.78333330","name":"Ambatofotsy"},{"id":"1517827","latitude":"-23.96666670","longitude":"44.63333330","name":"Ambatofotsy-Initeraha"},{"id":"1517844","latitude":"-24.26666670","longitude":"45.63333330","name":"Ambatoharea"},{"id":"1517846","latitude":"-22.15000000","longitude":"44.78333330","name":"Ambatohiriky"},{"id":"1517853","latitude":"-23.90000000","longitude":"44.51666670","name":"Ambatokapika"},{"id":"1517854","latitude":"-24.48333330","longitude":"46.96666670","name":"Ambatokasa"},{"id":"1517870","latitude":"-24.93333330","longitude":"44.76666670","name":"Ambatolahinaory"},{"id":"1517879","latitude":"-20.00000000","longitude":"45.53333330","name":"Ambatolahy"},{"id":"1517880","latitude":"-22.40000000","longitude":"44.21666670","name":"Ambatolahy-Sarodrano"},{"id":"1517881","latitude":"-22.41666670","longitude":"44.18333330","name":"Ambatolahy-Soaserana"},{"id":"1517893","latitude":"-23.50000000","longitude":"43.95000000","name":"Ambatolampy"},{"id":"1517899","latitude":"-24.70000000","longitude":"47.03333330","name":"Ambatolava"},{"id":"1517905","latitude":"-20.56666670","longitude":"45.36666670","name":"Ambatoloaka"},{"id":"1517923","latitude":"-19.73333330","longitude":"44.91666670","name":"Ambatomainty"},{"id":"1517925","latitude":"-22.60000000","longitude":"44.31666670","name":"Ambatomainty Nord"},{"id":"1517935","latitude":"-23.93333330","longitude":"46.35000000","name":"Ambatomanaky"},{"id":"1517936","latitude":"-24.56666670","longitude":"44.96666670","name":"Ambatomanambahatsa"},{"id":"1517938","latitude":"-24.31666670","longitude":"46.21666670","name":"Ambatomanana"},{"id":"1517941","latitude":"-24.46666670","longitude":"47.00000000","name":"Ambatomaneka"},{"id":"1517953","latitude":"-25.10000000","longitude":"45.51666670","name":"Ambatomanoy"},{"id":"1517964","latitude":"-24.30000000","longitude":"46.73333330","name":"Ambatomasina"},{"id":"1517966","latitude":"-23.30000000","longitude":"45.78333330","name":"Ambatomaso"},{"id":"1517967","latitude":"-23.30000000","longitude":"45.78333330","name":"Ambatomasy"},{"id":"1517982","latitude":"-19.55000000","longitude":"45.45000000","name":"Ambatomena"},{"id":"1517983","latitude":"-23.93333330","longitude":"46.35000000","name":"Ambatomenakia"},{"id":"1517987","latitude":"-23.80000000","longitude":"45.80000000","name":"Ambatomena Toby"},{"id":"1517993","latitude":"-23.58333330","longitude":"45.91666670","name":"Ambatomiary"},{"id":"1517996","latitude":"-19.73333330","longitude":"45.83333330","name":"Ambatomifikitra"},{"id":"1517997","latitude":"-24.03333330","longitude":"44.81666670","name":"Ambatomifikitsa"},{"id":"1517998","latitude":"-23.40000000","longitude":"45.53333330","name":"Ambatomihala"},{"id":"1518000","latitude":"-24.65000000","longitude":"46.46666670","name":"Ambatomika"},{"id":"1518007","latitude":"-22.40000000","longitude":"43.26666670","name":"Ambatomilo"},{"id":"1518009","latitude":"-24.43333330","longitude":"45.80000000","name":"Ambatomiloloha"},{"id":"1518018","latitude":"-23.46666670","longitude":"44.30000000","name":"Ambatomisangana"},{"id":"1518025","latitude":"-24.68333330","longitude":"45.40000000","name":"Ambatomitigoa"},{"id":"1518027","latitude":"-19.73333330","longitude":"45.83333330","name":"Ambatomitikitra"},{"id":"1518028","latitude":"-22.18333330","longitude":"45.26666670","name":"Ambatomitikitsy"},{"id":"1518037","latitude":"-21.63333330","longitude":"44.65000000","name":"Ambatomitsangana"},{"id":"1518041","latitude":"-23.83333330","longitude":"45.56666670","name":"Ambatomivary"},{"id":"1518059","latitude":"-24.43333330","longitude":"45.80000000","name":"Ambatoniloloha"},{"id":"1518063","latitude":"-20.33333330","longitude":"44.41666670","name":"Ambato Nord"},{"id":"1518065","latitude":"-19.91666670","longitude":"45.03333330","name":"Ambatonosy"},{"id":"1518068","latitude":"-24.15000000","longitude":"45.61666670","name":"Ambatopaika"},{"id":"1518071","latitude":"-25.13333330","longitude":"45.35000000","name":"Ambatopilaky"},{"id":"1518075","latitude":"-24.86666670","longitude":"45.56666670","name":"Ambatoratsy"},{"id":"1518077","latitude":"-24.60000000","longitude":"45.10000000","name":"Ambatorikiriky"},{"id":"1518080","latitude":"-20.58333330","longitude":"44.70000000","name":"Ambatorola"},{"id":"1518086","latitude":"-23.21666670","longitude":"45.98333330","name":"Ambatosarotra"},{"id":"1518092","latitude":"-24.33333330","longitude":"45.45000000","name":"Ambatosoa"},{"id":"1518093","latitude":"-24.76666670","longitude":"45.76666670","name":"Ambatosoavolo"},{"id":"1518096","latitude":"-23.78333330","longitude":"45.28333330","name":"Ambatosola"},{"id":"1518100","latitude":"-23.96666670","longitude":"46.21666670","name":"Ambatosoratra"},{"id":"1518102","latitude":"-20.33333330","longitude":"44.41666670","name":"Ambato Sud"},{"id":"1518103","latitude":"-20.20000000","longitude":"44.33333330","name":"Ambato-Sur-Mer"},{"id":"1518112","latitude":"-22.81666670","longitude":"43.61666670","name":"Ambatotily"},{"id":"1518119","latitude":"-24.40000000","longitude":"46.56666670","name":"Ambatotsivala"},{"id":"1518125","latitude":"-21.23333330","longitude":"44.40000000","name":"Ambatovaky"},{"id":"1518128","latitude":"-23.13333330","longitude":"44.18333330","name":"Ambatovanda"},{"id":"1518129","latitude":"-21.43333330","longitude":"45.48333330","name":"Ambatovary"},{"id":"1518130","latitude":"-25.16666670","longitude":"45.66666670","name":"Ambatovato"},{"id":"1518133","latitude":"-23.88333330","longitude":"44.05000000","name":"Ambatoveve"},{"id":"1518136","latitude":"-20.58333330","longitude":"45.36666670","name":"Ambatovita"},{"id":"1518137","latitude":"-20.58333330","longitude":"44.70000000","name":"Ambatovoamba"},{"id":"1518143","latitude":"-21.43333330","longitude":"45.48333330","name":"Ambatovory"},{"id":"1518148","latitude":"-22.58333330","longitude":"44.41666670","name":"Ambatry"},{"id":"1518152","latitude":"-21.73333330","longitude":"44.61666670","name":"Ambava"},{"id":"1518169","latitude":"-20.53333330","longitude":"44.98333330","name":"Ambavano"},{"id":"1518180","latitude":"-24.51666670","longitude":"45.31666670","name":"Ambavatanitelo"},{"id":"1518181","latitude":"-25.33333330","longitude":"45.76666670","name":"Ambavatany"},{"id":"1518185","latitude":"-24.80000000","longitude":"47.00000000","name":"Ambazaha"},{"id":"1518186","latitude":"-25.35000000","longitude":"45.83333330","name":"Ambazamazava"},{"id":"1518188","latitude":"-20.13333330","longitude":"45.58333330","name":"Ambazimba"},{"id":"1518189","latitude":"-25.30000000","longitude":"45.90000000","name":"Ambazoa"},{"id":"1518190","latitude":"-25.35000000","longitude":"45.83333330","name":"Ambazoamazava"},{"id":"1518193","latitude":"-25.20000000","longitude":"44.68333330","name":"Ambazoativoka"},{"id":"1518194","latitude":"-25.30000000","longitude":"45.90000000","name":"Ambazoha"},{"id":"1518197","latitude":"-19.03333330","longitude":"45.33333330","name":"Ambendra"},{"id":"1518208","latitude":"-22.13333330","longitude":"44.05000000","name":"Ambera"},{"id":"1518213","latitude":"-24.98333330","longitude":"46.78333330","name":"Amberio"},{"id":"1518216","latitude":"-24.31666670","longitude":"46.83333330","name":"Ambero"},{"id":"1518221","latitude":"-22.06666670","longitude":"45.13333330","name":"Amberobe"},{"id":"1518222","latitude":"-19.31666670","longitude":"45.66666670","name":"Amberokely"},{"id":"1518226","latitude":"-21.38333330","longitude":"45.51666670","name":"Amberomena"},{"id":"1518237","latitude":"-20.28333330","longitude":"45.65000000","name":"Ambia"},{"id":"1518240","latitude":"-21.25000000","longitude":"44.15000000","name":"Ambiabe"},{"id":"1518244","latitude":"-24.20000000","longitude":"45.71666670","name":"Ambia Sarodrano"},{"id":"1518246","latitude":"-21.05000000","longitude":"44.35000000","name":"Ambiataka"},{"id":"1518247","latitude":"-21.05000000","longitude":"44.35000000","name":"Ambiatoka"},{"id":"1518251","latitude":"-21.05000000","longitude":"44.35000000","name":"Ambiboka"},{"id":"1518255","latitude":"-21.85000000","longitude":"43.85000000","name":"Ambihivihy"},{"id":"1518258","latitude":"-20.26666670","longitude":"45.65000000","name":"Ambika"},{"id":"1518263","latitude":"-19.41666670","longitude":"44.81666670","name":"Ambiky"},{"id":"1518268","latitude":"-23.86666670","longitude":"43.73333330","name":"Ambilalialika"},{"id":"1518273","latitude":"-24.18333330","longitude":"45.01666670","name":"Ambilany"},{"id":"1518291","latitude":"-21.31666670","longitude":"44.00000000","name":"Ambinamy-Tsianihy"},{"id":"1518299","latitude":"-25.06666670","longitude":"46.93333330","name":"Ambinanibe"},{"id":"1518365","latitude":"-21.58333330","longitude":"44.28333330","name":"Ambinanitelo"},{"id":"1518367","latitude":"-24.00000000","longitude":"45.20000000","name":"Ambinanitelo Ouest"},{"id":"1518372","latitude":"-24.26666670","longitude":"45.95000000","name":"Ambinanivelo"},{"id":"1518379","latitude":"-21.31666670","longitude":"44.00000000","name":"Ambinany"},{"id":"1518404","latitude":"-21.01666670","longitude":"44.88333330","name":"Ambinany Maharivo"},{"id":"1518415","latitude":"-24.66666670","longitude":"45.66666670","name":"Ambinanymanitsy"},{"id":"1518440","latitude":"-23.61666670","longitude":"46.38333330","name":"Ambinanynomby"},{"id":"1518462","latitude":"-21.33333330","longitude":"44.23333330","name":"Ambinany-Tanosy"},{"id":"1518465","latitude":"-22.08333330","longitude":"44.73333330","name":"Ambinanytelo"},{"id":"1518471","latitude":"-21.31666670","longitude":"44.00000000","name":"Ambinany-Tsianihy"},{"id":"1518477","latitude":"-21.06666670","longitude":"44.88333330","name":"Ambinanyzama"},{"id":"1518478","latitude":"-21.06666670","longitude":"44.88333330","name":"Ambinany-Zana"},{"id":"1518483","latitude":"-20.33333330","longitude":"44.48333330","name":"Ambinda"},{"id":"1518485","latitude":"-23.88333330","longitude":"45.53333330","name":"Ambindabe"},{"id":"1518486","latitude":"-22.66666670","longitude":"44.50000000","name":"Ambinda-Mahebo"},{"id":"1518487","latitude":"-23.93333330","longitude":"45.88333330","name":"Ambindamahery"},{"id":"1518488","latitude":"-24.55000000","longitude":"46.51666670","name":"Ambindandrakemba"},{"id":"1518490","latitude":"-24.76666670","longitude":"45.70000000","name":"Ambingovingo"},{"id":"1518491","latitude":"-24.56666670","longitude":"46.50000000","name":"Ambinoandrakemba"},{"id":"1518492","latitude":"-24.21666670","longitude":"45.46666670","name":"Ambirimena"},{"id":"1518494","latitude":"-25.41666670","longitude":"45.56666670","name":"Ambitika"},{"id":"1518495","latitude":"-21.05000000","longitude":"44.35000000","name":"Ambitoka"},{"id":"1518497","latitude":"-20.73333330","longitude":"44.11666670","name":"Ambivy"},{"id":"1518498","latitude":"-21.73333330","longitude":"43.88333330","name":"Ambivy II"},{"id":"1518508","latitude":"-21.08333330","longitude":"44.01666670","name":"Amboafoana"},{"id":"1518519","latitude":"-24.13333330","longitude":"47.30000000","name":"Amboahangitelo"},{"id":"1518525","latitude":"-23.03333330","longitude":"45.65000000","name":"Amboahangy"},{"id":"1518526","latitude":"-24.46666670","longitude":"45.00000000","name":"Amboaido"},{"id":"1518527","latitude":"-24.53333330","longitude":"45.13333330","name":"Amboaimena"},{"id":"1518528","latitude":"-24.76666670","longitude":"45.05000000","name":"Amboaimitrohaky"},{"id":"1518538","latitude":"-24.90000000","longitude":"46.98333330","name":"Amboalaingo"},{"id":"1518540","latitude":"-19.26666670","longitude":"44.45000000","name":"Amboalimena"},{"id":"1518544","latitude":"-20.60000000","longitude":"44.70000000","name":"Amboameha"},{"id":"1518545","latitude":"-19.83333330","longitude":"45.30000000","name":"Amboamena"},{"id":"1518546","latitude":"-24.35000000","longitude":"45.35000000","name":"Amboanaivo"},{"id":"1518552","latitude":"-24.56666670","longitude":"47.21666670","name":"Amboanato"},{"id":"1518556","latitude":"-24.68333330","longitude":"46.46666670","name":"Amboanemba"},{"id":"1518559","latitude":"-24.13333330","longitude":"47.30000000","name":"Amboangiteto"},{"id":"1518561","latitude":"-24.30000000","longitude":"46.38333330","name":"Amboangy"},{"id":"1518565","latitude":"-20.33333330","longitude":"44.38333330","name":"Amboanio"},{"id":"1518571","latitude":"-24.10000000","longitude":"47.20000000","name":"Amboanjo"},{"id":"1518579","latitude":"-24.63333330","longitude":"45.13333330","name":"Amboaovy"},{"id":"1518588","latitude":"-24.78333330","longitude":"46.45000000","name":"Amboasanikely"},{"id":"1518592","latitude":"-24.78333330","longitude":"46.45000000","name":"Amboasarikely"},{"id":"1518601","latitude":"-25.03333330","longitude":"46.38333330","name":"Amboasary"},{"id":"1518604","latitude":"-25.03333330","longitude":"46.38333330","name":"Amboasary Atsimo"},{"id":"1518606","latitude":"-25.03333330","longitude":"46.38333330","name":"Amboasary Sud"},{"id":"1518611","latitude":"-23.80000000","longitude":"44.91666670","name":"Amboatavo"},{"id":"1518618","latitude":"-25.10000000","longitude":"46.78333330","name":"Amboavoia"},{"id":"1518619","latitude":"-25.10000000","longitude":"46.78333330","name":"Amboavola"},{"id":"1518627","latitude":"-20.41666670","longitude":"45.61666670","name":"Amboboka"},{"id":"1518949","latitude":"-18.46666670","longitude":"45.25000000","name":"Ambodiriana"},{"id":"1519108","latitude":"-24.68333330","longitude":"46.08333330","name":"Amboetsy"},{"id":"1519127","latitude":"-20.30000000","longitude":"44.60000000","name":"Ambohibarv"},{"id":"1519132","latitude":"-19.35000000","longitude":"45.45000000","name":"Ambohibary"},{"id":"1519133","latitude":"-21.05000000","longitude":"44.16666670","name":"Ambohibasia"},{"id":"1519138","latitude":"-23.35000000","longitude":"45.31666670","name":"Ambohibato"},{"id":"1519146","latitude":"-21.35000000","longitude":"43.51666670","name":"Ambohibe"},{"id":"1519166","latitude":"-21.70000000","longitude":"45.26666670","name":"Ambohibolava"},{"id":"1519178","latitude":"-24.20000000","longitude":"46.78333330","name":"Ambohibory"},{"id":"1519184","latitude":"-18.96666670","longitude":"45.28333330","name":"Ambohidahy"},{"id":"1519201","latitude":"-19.65000000","longitude":"44.55000000","name":"Ambohidrahay"},{"id":"1519280","latitude":"-22.10000000","longitude":"43.75000000","name":"Ambohimahavelo"},{"id":"1519284","latitude":"-22.10000000","longitude":"43.75000000","name":"Ambohimahavelona"},{"id":"1519362","latitude":"-24.66666670","longitude":"45.20000000","name":"Ambohimanoy"},{"id":"1519378","latitude":"-24.23333330","longitude":"45.76666670","name":"Ambohimary"},{"id":"1519456","latitude":"-24.48333330","longitude":"45.11666670","name":"Ambohindrandriana"},{"id":"1519478","latitude":"-21.10000000","longitude":"44.61666670","name":"Ambohipasy"},{"id":"1519492","latitude":"-21.43333330","longitude":"44.90000000","name":"Ambohipiky"},{"id":"1519493","latitude":"-21.41666670","longitude":"44.90000000","name":"Ambohipiky-Tomboarivo"},{"id":"1519515","latitude":"-25.35000000","longitude":"45.48333330","name":"Ambohitany"},{"id":"1519528","latitude":"-22.31666670","longitude":"43.23333330","name":"Ambohitrabo"},{"id":"1519532","latitude":"-23.88333330","longitude":"46.18333330","name":"Ambohitrainakoho"},{"id":"1519627","latitude":"-22.31666670","longitude":"43.23333330","name":"Ambohitsabo"},{"id":"1519648","latitude":"-18.43333330","longitude":"45.58333330","name":"Ambohitsaratelo-Bebao"},{"id":"1519655","latitude":"-25.20000000","longitude":"45.20000000","name":"Ambohitsifa"},{"id":"1519682","latitude":"-23.40000000","longitude":"45.11666670","name":"Ambohitsy"},{"id":"1519686","latitude":"-25.18333330","longitude":"45.03333330","name":"Ambohivola"},{"id":"1519692","latitude":"-23.53333330","longitude":"44.93333330","name":"Amboitsy"},{"id":"1519696","latitude":"-25.45000000","longitude":"45.05000000","name":"Ambojomoloka"},{"id":"1519698","latitude":"-18.75000000","longitude":"45.26666670","name":"Ambokaka"},{"id":"1519706","latitude":"-21.21666670","longitude":"44.36666670","name":"Ambolabe"},{"id":"1519710","latitude":"-22.06666670","longitude":"43.26666670","name":"Ambolarao"},{"id":"1519713","latitude":"-25.51666670","longitude":"45.35000000","name":"Ambolembaka"},{"id":"1519715","latitude":"-23.66666670","longitude":"45.96666670","name":"Amboliala"},{"id":"1519716","latitude":"-25.33333330","longitude":"45.45000000","name":"Amboliandro Atsimo"},{"id":"1519719","latitude":"-21.81666670","longitude":"45.16666670","name":"Ambolidia"},{"id":"1519734","latitude":"-25.43333330","longitude":"45.68333330","name":"Ambolirano"},{"id":"1519735","latitude":"-21.90000000","longitude":"43.58333330","name":"Ambolisaka"},{"id":"1519736","latitude":"-24.10000000","longitude":"45.73333330","name":"Ambolisoa"},{"id":"1519738","latitude":"-25.26666670","longitude":"45.20000000","name":"Ambolitsifa"},{"id":"1519745","latitude":"-19.45000000","longitude":"45.43333330","name":"Amboloando"},{"id":"1519746","latitude":"-19.70000000","longitude":"44.83333330","name":"Amboloandokely"},{"id":"1519748","latitude":"-19.68333330","longitude":"44.81666670","name":"Amboloandro"},{"id":"1519749","latitude":"-24.55000000","longitude":"46.98333330","name":"Amboloavaratra"},{"id":"1519751","latitude":"-24.55000000","longitude":"46.93333330","name":"Ambolobe"},{"id":"1519758","latitude":"-22.20000000","longitude":"44.56666670","name":"Ambolodia"},{"id":"1519761","latitude":"-24.00000000","longitude":"46.43333330","name":"Ambolodihy"},{"id":"1519762","latitude":"-21.81666670","longitude":"45.16666670","name":"Ambolody"},{"id":"1519763","latitude":"-23.53333330","longitude":"43.86666670","name":"Ambolofotsy"},{"id":"1519764","latitude":"-23.53333330","longitude":"43.86666670","name":"Ambolofoty"},{"id":"1519766","latitude":"-22.46666670","longitude":"44.75000000","name":"Ambolohandro"},{"id":"1519769","latitude":"-23.28333330","longitude":"43.81666670","name":"Ambolokira"},{"id":"1519770","latitude":"-24.55000000","longitude":"46.45000000","name":"Ambolokohinoro"},{"id":"1519771","latitude":"-24.63333330","longitude":"46.30000000","name":"Ambolokoho"},{"id":"1519772","latitude":"-24.16666670","longitude":"45.90000000","name":"Ambolokohy"},{"id":"1519773","latitude":"-24.60000000","longitude":"45.76666670","name":"Ambolokoky"},{"id":"1519778","latitude":"-23.05000000","longitude":"43.60000000","name":"Ambolomailaka"},{"id":"1519788","latitude":"-24.25000000","longitude":"45.23333330","name":"Ambolonakanga"},{"id":"1519790","latitude":"-24.96666670","longitude":"46.63333330","name":"Ambolonaondry"},{"id":"1519791","latitude":"-25.41666670","longitude":"45.58333330","name":"Ambolonaondry Nord"},{"id":"1519792","latitude":"-25.41666670","longitude":"45.58333330","name":"Ambolonaondry Sud"},{"id":"1519794","latitude":"-24.85000000","longitude":"46.88333330","name":"Ambolongo"},{"id":"1519795","latitude":"-25.11666670","longitude":"44.71666670","name":"Ambolonisy"},{"id":"1519796","latitude":"-23.28333330","longitude":"43.81666670","name":"Ambolonkira"},{"id":"1519797","latitude":"-23.28333330","longitude":"43.81666670","name":"Ambolonkiri"},{"id":"1519799","latitude":"-25.10000000","longitude":"44.43333330","name":"Ambolosarika"},{"id":"1519814","latitude":"-24.10000000","longitude":"46.23333330","name":"Ambolovohitsy"},{"id":"1519816","latitude":"-24.11666670","longitude":"43.71666670","name":"Ambolovolo"},{"id":"1519817","latitude":"-20.56666670","longitude":"44.43333330","name":"Ambolovoriky"},{"id":"1519821","latitude":"-24.31666670","longitude":"46.58333330","name":"Ambonaivo"},{"id":"1519824","latitude":"-18.35000000","longitude":"45.13333330","name":"Ambonara"},{"id":"1519829","latitude":"-18.35000000","longitude":"45.06666670","name":"Ambonarakely"},{"id":"1519835","latitude":"-18.75000000","longitude":"45.05000000","name":"Ambonaratokana"},{"id":"1519837","latitude":"-24.50000000","longitude":"46.13333330","name":"Ambonavio"},{"id":"1519838","latitude":"-22.25000000","longitude":"44.66666670","name":"Ambondra Ampiamy"},{"id":"1519840","latitude":"-24.38333330","longitude":"45.23333330","name":"Ambondraka Sud"},{"id":"1519844","latitude":"-22.11666670","longitude":"44.11666670","name":"Ambondra Nord"},{"id":"1519849","latitude":"-19.20000000","longitude":"45.35000000","name":"Ambondro"},{"id":"1519852","latitude":"-22.11666670","longitude":"44.11666670","name":"Ambondro Avaratra"},{"id":"1519855","latitude":"-21.41666670","longitude":"44.95000000","name":"Ambondrobe"},{"id":"1519857","latitude":"-23.21666670","longitude":"46.33333330","name":"Ambondro II"},{"id":"1519858","latitude":"-21.70000000","longitude":"43.48333330","name":"Ambondrokely"},{"id":"1519860","latitude":"-22.96666670","longitude":"44.46666670","name":"Ambondrolava"},{"id":"1519861","latitude":"-22.33333330","longitude":"44.01666670","name":"Ambondrolava Atsimo"},{"id":"1519862","latitude":"-22.30000000","longitude":"44.00000000","name":"Ambondrolava Avaratra"},{"id":"1519863","latitude":"-19.93333330","longitude":"44.76666670","name":"Ambondromalemy"},{"id":"1519864","latitude":"-19.93333330","longitude":"44.76666670","name":"Ambondromalemy Atsimo"},{"id":"1519865","latitude":"-19.91666670","longitude":"44.75000000","name":"Ambondromalemy Nord"},{"id":"1519866","latitude":"-19.91666670","longitude":"44.75000000","name":"Ambondromalemy Sud"},{"id":"1519868","latitude":"-23.11666670","longitude":"44.48333330","name":"Ambondro-Mandeha"},{"id":"1519877","latitude":"-21.41666670","longitude":"44.95000000","name":"Ambondrombe"},{"id":"1519878","latitude":"-23.95000000","longitude":"44.85000000","name":"Ambondromena"},{"id":"1519880","latitude":"-24.60000000","longitude":"45.08333330","name":"Ambondromifehy"},{"id":"1519881","latitude":"-22.86666670","longitude":"44.33333330","name":"Ambondromiforitra"},{"id":"1519882","latitude":"-22.86666670","longitude":"44.33333330","name":"Ambondromiforotra"},{"id":"1519883","latitude":"-22.23333330","longitude":"44.68333330","name":"Ambondromisampy"},{"id":"1519884","latitude":"-22.23333330","longitude":"44.68333330","name":"Ambondromisamy"},{"id":"1519892","latitude":"-21.03333330","longitude":"45.05000000","name":"Ambondrondregeginy"},{"id":"1519894","latitude":"-25.03333330","longitude":"45.13333330","name":"Ambondropaly"},{"id":"1519895","latitude":"-22.25000000","longitude":"44.70000000","name":"Ambondrosomory"},{"id":"1519899","latitude":"-23.51666670","longitude":"44.81666670","name":"Ambondrpaly"},{"id":"1519912","latitude":"-23.41666670","longitude":"45.48333330","name":"Ambongo"},{"id":"1519918","latitude":"-24.45000000","longitude":"45.05000000","name":"Ambonievo"},{"id":"1519922","latitude":"-18.56666670","longitude":"45.26666670","name":"Amboniloka"},{"id":"1519923","latitude":"-21.01666670","longitude":"44.88333330","name":"Ambonimaharivo"},{"id":"1519938","latitude":"-21.85000000","longitude":"43.68333330","name":"Amboraho"},{"id":"1519941","latitude":"-24.11666670","longitude":"46.95000000","name":"Amboraka"},{"id":"1519942","latitude":"-24.11666670","longitude":"46.95000000","name":"Amboraky"},{"id":"1519943","latitude":"-18.75000000","longitude":"45.03333330","name":"Amborana"},{"id":"1519947","latitude":"-19.18333330","longitude":"44.38333330","name":"Amboriabo"},{"id":"1519953","latitude":"-24.58333330","longitude":"45.21666670","name":"Amboroabo"},{"id":"1519955","latitude":"-25.26666670","longitude":"46.01666670","name":"Amboro"},{"id":"1519957","latitude":"-23.70000000","longitude":"44.60000000","name":"Amborobe"},{"id":"1519963","latitude":"-21.61666670","longitude":"43.58333330","name":"Amboroka"},{"id":"1519964","latitude":"-25.16666670","longitude":"45.68333330","name":"Amborokahaka"},{"id":"1519965","latitude":"-25.16666670","longitude":"45.68333330","name":"Amborokaka"},{"id":"1519967","latitude":"-24.11666670","longitude":"46.95000000","name":"Amboroko"},{"id":"1519970","latitude":"-24.70000000","longitude":"47.03333330","name":"Amborokotsy"},{"id":"1519971","latitude":"-25.03333330","longitude":"46.18333330","name":"Amboroky"},{"id":"1519975","latitude":"-23.70000000","longitude":"45.11666670","name":"Amboromaneno"},{"id":"1519980","latitude":"-25.08333330","longitude":"44.45000000","name":"Amboromisampy"},{"id":"1519984","latitude":"-23.03333330","longitude":"45.76666670","name":"Amborompotsy"},{"id":"1519986","latitude":"-22.66666670","longitude":"44.40000000","name":"Amboronabo"},{"id":"1519993","latitude":"-22.20000000","longitude":"43.80000000","name":"Amborondolo"},{"id":"1519995","latitude":"-25.23333330","longitude":"45.08333330","name":"Amboronedky"},{"id":"1519996","latitude":"-25.18333330","longitude":"45.46666670","name":"Amborongo Ambony"},{"id":"1520000","latitude":"-23.03333330","longitude":"45.76666670","name":"Amboropotsy"},{"id":"1520001","latitude":"-24.11666670","longitude":"46.91666670","name":"Amborosoy"},{"id":"1520004","latitude":"-21.71666670","longitude":"43.80000000","name":"Amborovoky"},{"id":"1520005","latitude":"-23.61666670","longitude":"44.45000000","name":"Amborovoro"},{"id":"1520006","latitude":"-24.15000000","longitude":"44.76666670","name":"Amborovoro Atsimo"},{"id":"1520009","latitude":"-24.15000000","longitude":"44.70000000","name":"Ambory"},{"id":"1520011","latitude":"-24.41666670","longitude":"47.00000000","name":"Ambotabe"},{"id":"1520014","latitude":"-23.88333330","longitude":"44.83333330","name":"Ambotaka"},{"id":"1520017","latitude":"-24.18333330","longitude":"45.56666670","name":"Ambotaky"},{"id":"1520018","latitude":"-19.43333330","longitude":"45.45000000","name":"Ambotodra"},{"id":"1520021","latitude":"-21.70000000","longitude":"43.68333330","name":"Ambotromavo"},{"id":"1520022","latitude":"-25.53333330","longitude":"45.40000000","name":"Ambotry"},{"id":"1520025","latitude":"-25.05000000","longitude":"44.55000000","name":"Ambovo Ambany"},{"id":"1520026","latitude":"-24.96666670","longitude":"44.55000000","name":"Ambovo Ambony"},{"id":"1520027","latitude":"-22.66666670","longitude":"44.46666670","name":"Ambovo"},{"id":"1520033","latitude":"-22.53333330","longitude":"43.71666670","name":"Ambovomanga"},{"id":"1520040","latitude":"-25.16666670","longitude":"46.08333330","name":"Ambovombe"},{"id":"1520044","latitude":"-23.26666670","longitude":"43.70000000","name":"Ambovonsy"},{"id":"1520046","latitude":"-25.41666670","longitude":"45.50000000","name":"Ambovotoka"},{"id":"1520048","latitude":"-19.65000000","longitude":"44.41666670","name":"Ambozaka"},{"id":"1520056","latitude":"-25.51666670","longitude":"45.31666670","name":"Amby"},{"id":"1520058","latitude":"-25.31666670","longitude":"45.75000000","name":"Amdamoty"},{"id":"1520063","latitude":"-21.25000000","longitude":"44.15000000","name":"Amhiabe"},{"id":"1520069","latitude":"-23.96666670","longitude":"44.95000000","name":"Amindravelo"},{"id":"1520071","latitude":"-24.21666670","longitude":"46.33333330","name":"Amindrebatra"},{"id":"1520072","latitude":"-24.91666670","longitude":"46.41666670","name":"Amindrenara"},{"id":"1520073","latitude":"-23.85000000","longitude":"44.96666670","name":"Amindresanoa"},{"id":"1520074","latitude":"-25.10000000","longitude":"46.61666670","name":"Amindrevavo"},{"id":"1520075","latitude":"-21.90000000","longitude":"44.45000000","name":"Aminy"},{"id":"1520076","latitude":"-24.95000000","longitude":"46.03333330","name":"Amirangalahy"},{"id":"1520077","latitude":"-20.76666670","longitude":"44.68333330","name":"Amitijihy"},{"id":"1520078","latitude":"-23.96666670","longitude":"45.56666670","name":"Amivelondaza"},{"id":"1520080","latitude":"-21.68333330","longitude":"44.33333330","name":"Amoahivahy"},{"id":"1520084","latitude":"-24.38333330","longitude":"44.80000000","name":"Amoina"},{"id":"1520086","latitude":"-19.06666670","longitude":"45.20000000","name":"Amokonazy"},{"id":"1520088","latitude":"-21.85000000","longitude":"44.36666670","name":"Amokoty"},{"id":"1520089","latitude":"-24.66666670","longitude":"47.08333330","name":"Amolanga"},{"id":"1520097","latitude":"-24.93333330","longitude":"45.66666670","name":"Amory"},{"id":"1520110","latitude":"-21.63333330","longitude":"43.76666670","name":"Ampahia"},{"id":"1520115","latitude":"-23.26666670","longitude":"45.18333330","name":"Ampahidroy"},{"id":"1520116","latitude":"-24.75000000","longitude":"45.53333330","name":"Ampahijoloka"},{"id":"1520120","latitude":"-25.31666670","longitude":"45.35000000","name":"Ampahitrosy"},{"id":"1520121","latitude":"-24.41666670","longitude":"46.78333330","name":"Ampahitsy"},{"id":"1520128","latitude":"-24.06666670","longitude":"46.53333330","name":"Ampaimaiky"},{"id":"1520129","latitude":"-24.81666670","longitude":"46.16666670","name":"Ampaipaike"},{"id":"1520131","latitude":"-23.73333330","longitude":"44.30000000","name":"Ampakabo"},{"id":"1520134","latitude":"-24.23333330","longitude":"47.20000000","name":"Ampako"},{"id":"1520137","latitude":"-21.93333330","longitude":"44.88333330","name":"Ampalakopa"},{"id":"1520138","latitude":"-25.15000000","longitude":"44.30000000","name":"Ampalaza"},{"id":"1520139","latitude":"-22.23333330","longitude":"44.98333330","name":"Ampalea Avaratra"},{"id":"1520140","latitude":"-22.25000000","longitude":"44.98333330","name":"Ampalea Sud"},{"id":"1520151","latitude":"-24.00000000","longitude":"46.06666670","name":"Ampamakiazo"},{"id":"1520154","latitude":"-20.26666670","longitude":"45.58333330","name":"Ampamandrika"},{"id":"1520155","latitude":"-25.13333330","longitude":"45.68333330","name":"Ampamanosaka"},{"id":"1520156","latitude":"-22.95000000","longitude":"44.18333330","name":"Ampamanta"},{"id":"1520160","latitude":"-25.05000000","longitude":"45.48333330","name":"Ampamata Ambony"},{"id":"1520161","latitude":"-21.46666670","longitude":"44.33333330","name":"Ampamata"},{"id":"1520162","latitude":"-25.05000000","longitude":"45.48333330","name":"Ampamatabe"},{"id":"1520163","latitude":"-25.11666670","longitude":"45.76666670","name":"Ampamatahety"},{"id":"1520164","latitude":"-24.73333330","longitude":"45.33333330","name":"Ampamataimaho"},{"id":"1520165","latitude":"-25.03333330","longitude":"45.50000000","name":"Ampamatakely"},{"id":"1520166","latitude":"-25.10000000","longitude":"45.76666670","name":"Ampamatanetiky"},{"id":"1520167","latitude":"-24.46666670","longitude":"45.63333330","name":"Ampamata Nord"},{"id":"1520168","latitude":"-24.46666670","longitude":"45.63333330","name":"Ampamata Sud"},{"id":"1520169","latitude":"-24.38333330","longitude":"46.81666670","name":"Ampamatoa"},{"id":"1520170","latitude":"-25.11666670","longitude":"45.76666670","name":"Ampamatohetika"},{"id":"1520188","latitude":"-25.06666670","longitude":"46.00000000","name":"Ampamolora"},{"id":"1520193","latitude":"-24.71666670","longitude":"46.56666670","name":"Ampamosira"},{"id":"1520194","latitude":"-23.45000000","longitude":"45.48333330","name":"Ampamoty"},{"id":"1520197","latitude":"-22.86666670","longitude":"44.45000000","name":"Ampampamena"},{"id":"1520198","latitude":"-23.63333330","longitude":"44.81666670","name":"Ampamy"},{"id":"1520201","latitude":"-24.61666670","longitude":"45.15000000","name":"Ampanafoly"},{"id":"1520207","latitude":"-22.15000000","longitude":"45.25000000","name":"Ampanambato"},{"id":"1520216","latitude":"-25.18333330","longitude":"45.86666670","name":"Ampanandravo"},{"id":"1520225","latitude":"-19.48333330","longitude":"44.78333330","name":"Ampananira"},{"id":"1520233","latitude":"-24.60000000","longitude":"45.43333330","name":"Ampanaperandotsy"},{"id":"1520234","latitude":"-24.40000000","longitude":"45.38333330","name":"Ampanaperandrotsy"},{"id":"1520235","latitude":"-19.26666670","longitude":"44.71666670","name":"Ampanarena"},{"id":"1520239","latitude":"-22.50000000","longitude":"44.68333330","name":"Ampanasa"},{"id":"1520243","latitude":"-19.53333330","longitude":"45.46666670","name":"Ampanasana"},{"id":"1520246","latitude":"-21.95000000","longitude":"44.71666670","name":"Ampanasanovy"},{"id":"1520247","latitude":"-24.76666670","longitude":"47.18333330","name":"Ampanasantomboka"},{"id":"1520259","latitude":"-22.95000000","longitude":"44.55000000","name":"Ampandra 1"},{"id":"1520260","latitude":"-22.95000000","longitude":"44.55000000","name":"Ampandra 2"},{"id":"1520263","latitude":"-18.81666670","longitude":"45.25000000","name":"Ampandra"},{"id":"1520264","latitude":"-22.53333330","longitude":"43.91666670","name":"Ampandra Atsimo"},{"id":"1520265","latitude":"-22.50000000","longitude":"43.93333330","name":"Ampandra Avaratra"},{"id":"1520270","latitude":"-20.43333330","longitude":"45.10000000","name":"Ampandrabe"},{"id":"1520273","latitude":"-22.95000000","longitude":"44.55000000","name":"Ampandra II"},{"id":"1520275","latitude":"-18.85000000","longitude":"45.25000000","name":"Ampandrakely"},{"id":"1520276","latitude":"-22.78333330","longitude":"43.58333330","name":"Ampandrakosy"},{"id":"1520278","latitude":"-22.10000000","longitude":"44.65000000","name":"Ampandralava"},{"id":"1520279","latitude":"-22.23333330","longitude":"44.53333330","name":"Ampandralava Avaratra"},{"id":"1520280","latitude":"-22.23333330","longitude":"44.53333330","name":"Ampandralava Nord"},{"id":"1520281","latitude":"-22.21666670","longitude":"44.51666670","name":"Ampandralava Sud"},{"id":"1520283","latitude":"-20.41666670","longitude":"45.08333330","name":"Ampandramainy"},{"id":"1520287","latitude":"-20.41666670","longitude":"45.08333330","name":"Ampandramamy"},{"id":"1520291","latitude":"-24.00000000","longitude":"44.85000000","name":"Ampandrambe Ambony"},{"id":"1520293","latitude":"-24.00000000","longitude":"44.85000000","name":"Ampandrambe"},{"id":"1520294","latitude":"-23.98333330","longitude":"44.85000000","name":"Ampandrambe Nord"},{"id":"1520295","latitude":"-23.98333330","longitude":"44.85000000","name":"Ampandrambe Sud"},{"id":"1520296","latitude":"-20.61666670","longitude":"45.35000000","name":"Ampandramena"},{"id":"1520297","latitude":"-20.61666670","longitude":"45.35000000","name":"Ampandramena Nord"},{"id":"1520298","latitude":"-20.63333330","longitude":"45.35000000","name":"Ampandramena Sud"},{"id":"1520299","latitude":"-22.98333330","longitude":"45.65000000","name":"Ampandramiriatra"},{"id":"1520301","latitude":"-22.13333330","longitude":"44.61666670","name":"Ampandramitsetaka"},{"id":"1520302","latitude":"-22.13333330","longitude":"44.61666670","name":"Ampandramitsetaky"},{"id":"1520311","latitude":"-22.23333330","longitude":"44.53333330","name":"Ampandrandava"},{"id":"1520315","latitude":"-22.50000000","longitude":"43.93333330","name":"Ampandra Nord"},{"id":"1520317","latitude":"-20.45000000","longitude":"45.11666670","name":"Ampandrasoa"},{"id":"1520320","latitude":"-22.21666670","longitude":"44.55000000","name":"Ampandratoka"},{"id":"1520321","latitude":"-23.28333330","longitude":"45.43333330","name":"Ampandratolona"},{"id":"1520322","latitude":"-23.28333330","longitude":"45.43333330","name":"Ampandratolony"},{"id":"1520324","latitude":"-23.40000000","longitude":"45.33333330","name":"Ampandravelo"},{"id":"1520330","latitude":"-22.78333330","longitude":"43.58333330","name":"Ampandrihosy"},{"id":"1520353","latitude":"-25.08333330","longitude":"46.70000000","name":"Ampangalakongo-Midiso"},{"id":"1520360","latitude":"-24.81666670","longitude":"45.40000000","name":"Ampangidraoka Nord"},{"id":"1520361","latitude":"-24.81666670","longitude":"45.40000000","name":"Ampangidraoka Sud"},{"id":"1520362","latitude":"-25.06666670","longitude":"45.18333330","name":"Ampangidraty"},{"id":"1520368","latitude":"-24.25000000","longitude":"47.31666670","name":"Ampanibe"},{"id":"1520372","latitude":"-18.38333330","longitude":"45.11666670","name":"Ampanihikely"},{"id":"1520378","latitude":"-24.70000000","longitude":"44.75000000","name":"Ampanihy"},{"id":"1520379","latitude":"-18.45000000","longitude":"45.00000000","name":"Ampanihy Andrefana"},{"id":"1520380","latitude":"-18.40000000","longitude":"45.25000000","name":"Ampanihy Atsinanana"},{"id":"1520381","latitude":"-18.40000000","longitude":"45.25000000","name":"Ampanihy Est"},{"id":"1520382","latitude":"-18.41666670","longitude":"45.25000000","name":"Ampanihy Ouest"},{"id":"1520386","latitude":"-24.70000000","longitude":"45.31666670","name":"Ampanimidngana"},{"id":"1520387","latitude":"-24.70000000","longitude":"45.31666670","name":"Ampanimiongana"},{"id":"1520410","latitude":"-22.23333330","longitude":"43.30000000","name":"Ampanonga"},{"id":"1520417","latitude":"-20.38333330","longitude":"45.68333330","name":"Ampanotoka"},{"id":"1520421","latitude":"-20.38333330","longitude":"45.68333330","name":"Ampanotokana"},{"id":"1520425","latitude":"-24.93333330","longitude":"46.81666670","name":"Ampantrambe"},{"id":"1520429","latitude":"-24.51666670","longitude":"47.03333330","name":"Ampany"},{"id":"1520433","latitude":"-23.06666670","longitude":"45.66666670","name":"Ampapamena"},{"id":"1520444","latitude":"-24.76666670","longitude":"46.50000000","name":"Amparahitsa"},{"id":"1520447","latitude":"-22.93333330","longitude":"44.41666670","name":"Amparambato"},{"id":"1520449","latitude":"-23.06666670","longitude":"45.66666670","name":"Amparamena"},{"id":"1520453","latitude":"-22.73333330","longitude":"43.66666670","name":"Ampariaky"},{"id":"1520462","latitude":"-22.88333330","longitude":"45.71666670","name":"Amparihibe"},{"id":"1520515","latitude":"-21.31666670","longitude":"44.70000000","name":"Amparihy"},{"id":"1520522","latitude":"-23.36666670","longitude":"45.15000000","name":"Amparimiaiky"},{"id":"1520523","latitude":"-23.36666670","longitude":"45.15000000","name":"Amparimiaky"},{"id":"1520526","latitude":"-21.56666670","longitude":"44.25000000","name":"Amparitsoka"},{"id":"1520527","latitude":"-23.98333330","longitude":"45.53333330","name":"Amparity"},{"id":"1520532","latitude":"-25.48333330","longitude":"45.63333330","name":"Ampary"},{"id":"1520542","latitude":"-23.36666670","longitude":"45.25000000","name":"Ampasandrasoa"},{"id":"1520552","latitude":"-19.10000000","longitude":"45.31666670","name":"Ampasibe"},{"id":"1520554","latitude":"-20.25000000","longitude":"44.61666670","name":"Ampasibevihy"},{"id":"1520556","latitude":"-20.08333330","longitude":"45.55000000","name":"Ampasifasy"},{"id":"1520564","latitude":"-21.40000000","longitude":"44.45000000","name":"Ampasikely"},{"id":"1520566","latitude":"-22.53333330","longitude":"43.63333330","name":"Ampasikibo"},{"id":"1520567","latitude":"-20.91666670","longitude":"45.05000000","name":"Ampasilava"},{"id":"1520574","latitude":"-19.28333330","longitude":"45.38333330","name":"Ampasimadrodra"},{"id":"1520581","latitude":"-22.25000000","longitude":"45.13333330","name":"Ampasimaika"},{"id":"1520582","latitude":"-24.05000000","longitude":"46.33333330","name":"Ampasimaiky"},{"id":"1520586","latitude":"-23.51666670","longitude":"44.41666670","name":"Ampasimainty"},{"id":"1520593","latitude":"-23.73333330","longitude":"44.36666670","name":"Ampasimandroaka"},{"id":"1520594","latitude":"-19.58333330","longitude":"44.58333330","name":"Ampasimandroatsy"},{"id":"1520596","latitude":"-19.30000000","longitude":"44.40000000","name":"Ampasimandroro"},{"id":"1520603","latitude":"-23.71666670","longitude":"44.85000000","name":"Ampasimanilika"},{"id":"1520607","latitude":"-23.58333330","longitude":"43.80000000","name":"Ampasimanoro"},{"id":"1520608","latitude":"-23.58333330","longitude":"43.80000000","name":"Ampasimanory"},{"id":"1520612","latitude":"-24.30000000","longitude":"47.33333330","name":"Ampasimasay"},{"id":"1520627","latitude":"-18.96666670","longitude":"45.20000000","name":"Ampasimbe"},{"id":"1520629","latitude":"-25.50000000","longitude":"45.61666670","name":"Ampasimbe Sud"},{"id":"1520637","latitude":"-18.08333330","longitude":"45.23333330","name":"Ampasimena"},{"id":"1520644","latitude":"-25.13333330","longitude":"46.40000000","name":"Ampasimpolaka"},{"id":"1520666","latitude":"-18.30000000","longitude":"45.21666670","name":"Ampasindava"},{"id":"1520669","latitude":"-23.36666670","longitude":"45.25000000","name":"Ampasindrasoa"},{"id":"1520680","latitude":"-24.65000000","longitude":"46.98333330","name":"Ampasitelo Mahatalaky"},{"id":"1520686","latitude":"-19.23333330","longitude":"44.68333330","name":"Ampasy"},{"id":"1520687","latitude":"-24.96666670","longitude":"46.98333330","name":"Ampasy Nahampoana"},{"id":"1520692","latitude":"-20.08333330","longitude":"44.48333330","name":"Ampataka"},{"id":"1520699","latitude":"-20.16666670","longitude":"45.00000000","name":"Ampatifaty"},{"id":"1520700","latitude":"-25.33333330","longitude":"45.18333330","name":"Ampatiholosy"},{"id":"1520702","latitude":"-25.10000000","longitude":"44.88333330","name":"Ampatiolobe"},{"id":"1520703","latitude":"-25.11666670","longitude":"44.88333330","name":"Ampatiolomasay"},{"id":"1520705","latitude":"-20.08333330","longitude":"44.48333330","name":"Ampatka"},{"id":"1520706","latitude":"-24.91666670","longitude":"44.88333330","name":"Ampatobe"},{"id":"1520711","latitude":"-24.93333330","longitude":"46.81666670","name":"Ampatrambe"},{"id":"1520719","latitude":"-24.76666670","longitude":"45.36666670","name":"Ampaty"},{"id":"1520726","latitude":"-23.00000000","longitude":"43.86666670","name":"Ampeha"},{"id":"1520727","latitude":"-24.55000000","longitude":"45.11666670","name":"Ampelaraika"},{"id":"1520729","latitude":"-25.46666670","longitude":"45.66666670","name":"Ampengoka"},{"id":"1520730","latitude":"-25.23333330","longitude":"45.46666670","name":"Ampengoke"},{"id":"1520733","latitude":"-22.05000000","longitude":"44.95000000","name":"Ampetsa"},{"id":"1520736","latitude":"-24.23333330","longitude":"47.18333330","name":"Ampho"},{"id":"1520741","latitude":"-23.35000000","longitude":"44.83333330","name":"Ampiadianombilahy"},{"id":"1520749","latitude":"-25.36666670","longitude":"45.75000000","name":"Ampiamy"},{"id":"1520757","latitude":"-19.61666670","longitude":"45.43333330","name":"Ampieky"},{"id":"1520760","latitude":"-25.05000000","longitude":"46.86666670","name":"Ampifiala"},{"id":"1520762","latitude":"-25.05000000","longitude":"46.86666670","name":"Ampifinala"},{"id":"1520763","latitude":"-23.76666670","longitude":"45.01666670","name":"Ampiha"},{"id":"1520766","latitude":"-23.21666670","longitude":"43.85000000","name":"Ampihalia"},{"id":"1520768","latitude":"-22.66666670","longitude":"43.63333330","name":"Ampihamy"},{"id":"1520769","latitude":"-22.76666670","longitude":"43.68333330","name":"Ampihamy Nord"},{"id":"1520770","latitude":"-22.78333330","longitude":"43.68333330","name":"Ampihamy Sud"},{"id":"1520777","latitude":"-24.66666670","longitude":"45.48333330","name":"Ampikamy"},{"id":"1520778","latitude":"-24.63333330","longitude":"44.88333330","name":"Ampiketraha"},{"id":"1520779","latitude":"-23.33333330","longitude":"44.43333330","name":"Ampikilova"},{"id":"1520782","latitude":"-24.33333330","longitude":"45.35000000","name":"Ampilafily"},{"id":"1520789","latitude":"-24.46666670","longitude":"46.50000000","name":"Ampilira"},{"id":"1520790","latitude":"-22.35000000","longitude":"44.05000000","name":"Ampilo"},{"id":"1520791","latitude":"-22.38333330","longitude":"44.06666670","name":"Ampilobe"},{"id":"1520792","latitude":"-25.03333330","longitude":"45.33333330","name":"Ampilofilo Ambany"},{"id":"1520793","latitude":"-25.05000000","longitude":"45.31666670","name":"Ampilofilo Ambony"},{"id":"1520794","latitude":"-24.10000000","longitude":"45.71666670","name":"Ampilofilo"},{"id":"1520795","latitude":"-24.33333330","longitude":"45.35000000","name":"Ampilofily"},{"id":"1520796","latitude":"-22.35000000","longitude":"44.05000000","name":"Ampilokely"},{"id":"1520797","latitude":"-25.36666670","longitude":"45.10000000","name":"Ampimahy"},{"id":"1520806","latitude":"-24.60000000","longitude":"45.48333330","name":"Ampirifiry"},{"id":"1520807","latitude":"-24.05000000","longitude":"46.11666670","name":"Ampirika"},{"id":"1520809","latitude":"-23.45000000","longitude":"45.75000000","name":"Ampiriky"},{"id":"1520810","latitude":"-21.31666670","longitude":"43.76666670","name":"Ampiritsoka"},{"id":"1520811","latitude":"-24.10000000","longitude":"45.83333330","name":"Ampisahaby"},{"id":"1520812","latitude":"-23.55000000","longitude":"46.16666670","name":"Ampisaka"},{"id":"1520813","latitude":"-25.28333330","longitude":"45.81666670","name":"Ampisandrata"},{"id":"1520814","latitude":"-25.48333330","longitude":"45.43333330","name":"Ampisangia"},{"id":"1520823","latitude":"-22.33333330","longitude":"44.43333330","name":"Ampisoha"},{"id":"1520825","latitude":"-23.95000000","longitude":"44.73333330","name":"Ampisopisa"},{"id":"1520827","latitude":"-22.76666670","longitude":"45.75000000","name":"Ampisopiso"},{"id":"1520845","latitude":"-24.58333330","longitude":"44.33333330","name":"Ampitanaka"},{"id":"1520846","latitude":"-24.58333330","longitude":"44.33333330","name":"Ampitanaka-Andonaka"},{"id":"1520877","latitude":"-22.50000000","longitude":"43.33333330","name":"Ampitsinjovandriaka"},{"id":"1520880","latitude":"-18.96666670","longitude":"45.25000000","name":"Ampitsopitsoka"},{"id":"1520884","latitude":"-25.00000000","longitude":"45.91666670","name":"Ampiviky"},{"id":"1520893","latitude":"-23.50000000","longitude":"45.78333330","name":"Ampofotsy"},{"id":"1520902","latitude":"-23.51666670","longitude":"44.30000000","name":"Ampoizy"},{"id":"1520904","latitude":"-21.93333330","longitude":"44.88333330","name":"Ampolakapo"},{"id":"1520906","latitude":"-19.38333330","longitude":"44.81666670","name":"Ampolipoly"},{"id":"1520910","latitude":"-21.36666670","longitude":"45.23333330","name":"Ampolotra"},{"id":"1520913","latitude":"-21.36666670","longitude":"45.23333330","name":"Ampolotsy"},{"id":"1520985","latitude":"-20.93333330","longitude":"44.31666670","name":"Ampopoho"},{"id":"1520993","latitude":"-23.55000000","longitude":"46.16666670","name":"Amposaky"},{"id":"1520994","latitude":"-25.15000000","longitude":"46.38333330","name":"Ampotabato"},{"id":"1521000","latitude":"-18.66666670","longitude":"45.08333330","name":"Ampotaka"},{"id":"1521001","latitude":"-25.06666670","longitude":"44.66666670","name":"Ampotaka Atsimo"},{"id":"1521002","latitude":"-25.05000000","longitude":"44.66666670","name":"Ampotaka Avaratra"},{"id":"1521003","latitude":"-25.05000000","longitude":"44.68333330","name":"Ampotaka Est"},{"id":"1521009","latitude":"-25.06666670","longitude":"44.66666670","name":"Ampotaka Sud"},{"id":"1521016","latitude":"-24.60000000","longitude":"45.11666670","name":"Ampotobato"},{"id":"1521017","latitude":"-25.16666670","longitude":"45.63333330","name":"Ampotobola"},{"id":"1521020","latitude":"-22.95000000","longitude":"43.58333330","name":"Ampototse"},{"id":"1521021","latitude":"-23.50000000","longitude":"45.78333330","name":"Ampototsy"},{"id":"1521029","latitude":"-20.33333330","longitude":"45.65000000","name":"Ampoza"},{"id":"1521030","latitude":"-21.88333330","longitude":"43.96666670","name":"Ampozabe"},{"id":"1521032","latitude":"-19.86666670","longitude":"44.88333330","name":"Ampozaloaka"},{"id":"1521034","latitude":"-20.65000000","longitude":"44.58333330","name":"Ampozatokana"},{"id":"1521036","latitude":"-24.43333330","longitude":"44.61666670","name":"Ampozoky"},{"id":"1521045","latitude":"-23.43333330","longitude":"44.85000000","name":"Anadabe"},{"id":"1521048","latitude":"-20.60000000","longitude":"44.35000000","name":"Anadabo"},{"id":"1521049","latitude":"-24.15000000","longitude":"45.05000000","name":"Anadabodera"},{"id":"1521050","latitude":"-23.71666670","longitude":"44.81666670","name":"Anadabolava"},{"id":"1521051","latitude":"-24.18333330","longitude":"45.75000000","name":"Anadabomaro"},{"id":"1521052","latitude":"-23.23333330","longitude":"44.63333330","name":"Anadabonampela"},{"id":"1521053","latitude":"-23.23333330","longitude":"44.63333330","name":"Anadabonampeta"},{"id":"1521054","latitude":"-24.03333330","longitude":"46.28333330","name":"Anadabotelo"},{"id":"1521055","latitude":"-21.68333330","longitude":"43.88333330","name":"Anadabotolo"},{"id":"1521058","latitude":"-24.08333330","longitude":"45.36666670","name":"Anadanalava"},{"id":"1521059","latitude":"-24.31666670","longitude":"45.46666670","name":"Anadebolava"},{"id":"1521060","latitude":"-21.58333330","longitude":"43.50000000","name":"Anadramy Nord"},{"id":"1521065","latitude":"-24.70000000","longitude":"43.95000000","name":"Anafiafy"},{"id":"1521066","latitude":"-25.13333330","longitude":"45.83333330","name":"Anafomiala"},{"id":"1521067","latitude":"-25.13333330","longitude":"45.83333330","name":"Anafomihala"},{"id":"1521068","latitude":"-25.21666670","longitude":"45.95000000","name":"Anafondravoay"},{"id":"1521073","latitude":"-20.26666670","longitude":"44.68333330","name":"Anahidambo"},{"id":"1521075","latitude":"-18.53333330","longitude":"45.23333330","name":"Anahidrano"},{"id":"1521082","latitude":"-25.30000000","longitude":"45.30000000","name":"Anakafandre"},{"id":"1521083","latitude":"-23.55000000","longitude":"45.46666670","name":"Anakamanary"},{"id":"1521084","latitude":"-23.66666670","longitude":"43.65000000","name":"Anakao"},{"id":"1521085","latitude":"-24.50000000","longitude":"47.05000000","name":"Anakarany"},{"id":"1521086","latitude":"-23.75000000","longitude":"45.36666670","name":"Anakataza"},{"id":"1521089","latitude":"-21.91666670","longitude":"45.30000000","name":"Anakondo"},{"id":"1521090","latitude":"-24.38333330","longitude":"46.81666670","name":"Anakondro"},{"id":"1521097","latitude":"-19.46666670","longitude":"44.83333330","name":"Analabe"},{"id":"1521101","latitude":"-21.86666670","longitude":"44.83333330","name":"Analabo"},{"id":"1521102","latitude":"-24.20000000","longitude":"45.20000000","name":"Analabokidy"},{"id":"1521103","latitude":"-24.06666670","longitude":"46.30000000","name":"Analabory"},{"id":"1521104","latitude":"-24.13333330","longitude":"45.66666670","name":"Analadaro"},{"id":"1521106","latitude":"-20.31666670","longitude":"45.58333330","name":"Analafaly"},{"id":"1521108","latitude":"-22.78333330","longitude":"44.01666670","name":"Analafanja"},{"id":"1521113","latitude":"-24.86666670","longitude":"46.95000000","name":"Analahova"},{"id":"1521115","latitude":"-20.33333330","longitude":"44.50000000","name":"Analaiva"},{"id":"1521116","latitude":"-20.33333330","longitude":"44.50000000","name":"Analaivo"},{"id":"1521118","latitude":"-23.01666670","longitude":"45.48333330","name":"Analakazo-Ambararata"},{"id":"1521119","latitude":"-23.35000000","longitude":"45.68333330","name":"Analakazo"},{"id":"1521122","latitude":"-25.20000000","longitude":"44.98333330","name":"Analakengitsy"},{"id":"1521130","latitude":"-21.20000000","longitude":"44.53333330","name":"Analalava"},{"id":"1521131","latitude":"-23.76666670","longitude":"44.11666670","name":"Analalentike"},{"id":"1521138","latitude":"-25.08333330","longitude":"46.81666670","name":"Analamahasoa"},{"id":"1521139","latitude":"-20.83333330","longitude":"45.05000000","name":"Analamahavelo"},{"id":"1521141","latitude":"-24.71666670","longitude":"45.46666670","name":"Analamahery"},{"id":"1521143","latitude":"-22.15000000","longitude":"44.48333330","name":"Analamaiky"},{"id":"1521144","latitude":"-24.31666670","longitude":"46.06666670","name":"Analamainty"},{"id":"1521149","latitude":"-25.10000000","longitude":"45.68333330","name":"Analamalaza"},{"id":"1521153","latitude":"-25.25000000","longitude":"45.91666670","name":"Analamamy"},{"id":"1521155","latitude":"-19.98333330","longitude":"45.16666670","name":"Analamanana"},{"id":"1521158","latitude":"-24.55000000","longitude":"45.56666670","name":"Analamandro"},{"id":"1521163","latitude":"-22.68333330","longitude":"44.98333330","name":"Analamanintsy"},{"id":"1521170","latitude":"-25.18333330","longitude":"45.83333330","name":"Analamanohy"},{"id":"1521172","latitude":"-24.21666670","longitude":"45.23333330","name":"Analamara"},{"id":"1521173","latitude":"-24.21666670","longitude":"45.23333330","name":"Analamaraha"},{"id":"1521176","latitude":"-23.00000000","longitude":"44.56666670","name":"Analamarina"},{"id":"1521179","latitude":"-24.11666670","longitude":"45.46666670","name":"Analamaro"},{"id":"1521182","latitude":"-19.70000000","longitude":"44.76666670","name":"Analamary"},{"id":"1521183","latitude":"-23.91666670","longitude":"44.81666670","name":"Analamasina"},{"id":"1521184","latitude":"-24.66666670","longitude":"47.06666670","name":"Analamasy"},{"id":"1521185","latitude":"-24.51666670","longitude":"44.78333330","name":"Analamateza"},{"id":"1521186","latitude":"-24.51666670","longitude":"44.78333330","name":"Analamatoza"},{"id":"1521187","latitude":"-25.01666670","longitude":"46.61666670","name":"Analamatsaky"},{"id":"1521189","latitude":"-22.88333330","longitude":"44.51666670","name":"Analamavo"},{"id":"1521190","latitude":"-24.26666670","longitude":"45.01666670","name":"Analamavokaka"},{"id":"1521198","latitude":"-24.11666670","longitude":"45.70000000","name":"Analambahy"},{"id":"1521201","latitude":"-24.15000000","longitude":"46.33333330","name":"Analamboko"},{"id":"1521203","latitude":"-24.65000000","longitude":"47.08333330","name":"Analambola"},{"id":"1521207","latitude":"-24.01666670","longitude":"45.55000000","name":"Analamebo"},{"id":"1521208","latitude":"-22.16666670","longitude":"44.50000000","name":"Analameky"},{"id":"1521212","latitude":"-23.48333330","longitude":"44.90000000","name":"Analamena"},{"id":"1521214","latitude":"-23.68333330","longitude":"44.85000000","name":"Analamiary"},{"id":"1521217","latitude":"-24.80000000","longitude":"45.31666670","name":"Analamihoatra"},{"id":"1521218","latitude":"-25.31666670","longitude":"45.66666670","name":"Analamikaiky"},{"id":"1521221","latitude":"-23.25000000","longitude":"44.43333330","name":"Analamipetraka"},{"id":"1521224","latitude":"-24.83333330","longitude":"44.91666670","name":"Analamisaka"},{"id":"1521227","latitude":"-22.48333330","longitude":"43.66666670","name":"Analamisampy Ambany"},{"id":"1521228","latitude":"-22.46666670","longitude":"43.65000000","name":"Analamisampy Ambony"},{"id":"1521229","latitude":"-22.46666670","longitude":"43.65000000","name":"Analamisampy"},{"id":"1521230","latitude":"-22.46666670","longitude":"43.65000000","name":"Analamisampy Sud"},{"id":"1521233","latitude":"-23.83333330","longitude":"44.10000000","name":"Analamitaha"},{"id":"1521235","latitude":"-20.01666670","longitude":"45.51666670","name":"Analamitsivalana"},{"id":"1521236","latitude":"-20.01666670","longitude":"43.51666670","name":"Analamitsivatana"},{"id":"1521237","latitude":"-23.36666670","longitude":"44.56666670","name":"Analamivory"},{"id":"1521240","latitude":"-25.36666670","longitude":"45.38333330","name":"Analampamata"},{"id":"1521244","latitude":"-24.28333330","longitude":"45.15000000","name":"Analampolitsy"},{"id":"1521248","latitude":"-24.68333330","longitude":"46.53333330","name":"Analana"},{"id":"1521269","latitude":"-23.76666670","longitude":"46.15000000","name":"Analanira"},{"id":"1521270","latitude":"-25.41666670","longitude":"45.55000000","name":"Analanisandratsy"},{"id":"1521271","latitude":"-23.01666670","longitude":"46.40000000","name":"Analanitonga"},{"id":"1521273","latitude":"-21.46666670","longitude":"44.16666670","name":"Analanjaha"},{"id":"1521276","latitude":"-23.15000000","longitude":"44.61666670","name":"Analano"},{"id":"1521280","latitude":"-24.20000000","longitude":"45.26666670","name":"Analapangitsy"},{"id":"1521281","latitude":"-24.33333330","longitude":"47.18333330","name":"Analapasina"},{"id":"1521282","latitude":"-25.16666670","longitude":"46.68333330","name":"Analapatsa"},{"id":"1521283","latitude":"-24.25000000","longitude":"47.20000000","name":"Analapatsy"},{"id":"1521284","latitude":"-25.16666670","longitude":"46.70000000","name":"Analapetsa"},{"id":"1521286","latitude":"-24.13333330","longitude":"45.80000000","name":"Analarova"},{"id":"1521291","latitude":"-22.78333330","longitude":"45.96666670","name":"Analasoa"},{"id":"1521295","latitude":"-21.96666670","longitude":"43.91666670","name":"Analatelo"},{"id":"1521297","latitude":"-24.78333330","longitude":"45.36666670","name":"Analatsama"},{"id":"1521300","latitude":"-24.85000000","longitude":"46.93333330","name":"Analatsimaimbo"},{"id":"1521301","latitude":"-21.46666670","longitude":"45.41666670","name":"Analavato"},{"id":"1521306","latitude":"-25.23333330","longitude":"46.00000000","name":"Analavinily"},{"id":"1521308","latitude":"-24.45000000","longitude":"46.23333330","name":"Analavondromahaky"},{"id":"1521314","latitude":"-24.15000000","longitude":"45.53333330","name":"Analavory"},{"id":"1521315","latitude":"-24.13333330","longitude":"45.13333330","name":"Analazaza"},{"id":"1521318","latitude":"-24.60000000","longitude":"46.33333330","name":"Analoalo"},{"id":"1521328","latitude":"-24.88333330","longitude":"46.63333330","name":"Anambatry"},{"id":"1521336","latitude":"-23.83333330","longitude":"44.10000000","name":"Anamitaha"},{"id":"1521337","latitude":"-24.28333330","longitude":"44.70000000","name":"Anamota"},{"id":"1521338","latitude":"-22.35000000","longitude":"44.16666670","name":"Anamotamo"},{"id":"1521339","latitude":"-24.36666670","longitude":"45.11666670","name":"Ananaboro"},{"id":"1521340","latitude":"-25.38333330","longitude":"44.96666670","name":"Ananadimby"},{"id":"1521341","latitude":"-25.16666670","longitude":"45.23333330","name":"Ananaja"},{"id":"1521342","latitude":"-25.36666670","longitude":"45.71666670","name":"Ananakaina"},{"id":"1521343","latitude":"-25.35000000","longitude":"45.51666670","name":"Ananakania Est"},{"id":"1521344","latitude":"-25.16666670","longitude":"45.25000000","name":"Ananakarahitsy"},{"id":"1521345","latitude":"-24.58333330","longitude":"45.48333330","name":"Ananakaraka"},{"id":"1521346","latitude":"-25.00000000","longitude":"45.00000000","name":"Ananakengitra"},{"id":"1521347","latitude":"-25.31666670","longitude":"45.26666670","name":"Ananakevitra"},{"id":"1521348","latitude":"-25.16666670","longitude":"45.25000000","name":"Ananakirihitsy"},{"id":"1521349","latitude":"-25.30000000","longitude":"45.30000000","name":"Ananakofandra"},{"id":"1521350","latitude":"-25.16666670","longitude":"45.23333330","name":"Anananjaha"},{"id":"1521363","latitude":"-25.06666670","longitude":"45.60000000","name":"Anankagiso"},{"id":"1521364","latitude":"-25.08333330","longitude":"46.55000000","name":"Ananorasa"},{"id":"1521366","latitude":"-24.95000000","longitude":"45.35000000","name":"Anantaka"},{"id":"1521369","latitude":"-22.88333330","longitude":"44.23333330","name":"Anapaly"},{"id":"1521370","latitude":"-23.45000000","longitude":"45.48333330","name":"Anapamofy"},{"id":"1521374","latitude":"-25.15000000","longitude":"45.38333330","name":"Anara Ambany"},{"id":"1521375","latitude":"-25.13333330","longitude":"45.40000000","name":"Anara Ambony"},{"id":"1521378","latitude":"-22.90000000","longitude":"44.28333330","name":"Anara"},{"id":"1521379","latitude":"-25.05000000","longitude":"46.38333330","name":"Anarabajy"},{"id":"1521380","latitude":"-25.06666670","longitude":"46.40000000","name":"Anarabazaha"},{"id":"1521384","latitude":"-19.45000000","longitude":"45.55000000","name":"Anarabe"},{"id":"1521385","latitude":"-24.36666670","longitude":"45.21666670","name":"Anarabehavatsy"},{"id":"1521386","latitude":"-24.26666670","longitude":"45.05000000","name":"Anarabemoka Atsimo"},{"id":"1521387","latitude":"-24.25000000","longitude":"45.05000000","name":"Anarabemoka Nord"},{"id":"1521388","latitude":"-24.26666670","longitude":"45.05000000","name":"Anarabemoka Sud"},{"id":"1521389","latitude":"-24.36666670","longitude":"45.21666670","name":"Anarabevahatsy"},{"id":"1521390","latitude":"-24.90000000","longitude":"46.23333330","name":"Anarafaly"},{"id":"1521391","latitude":"-24.60000000","longitude":"46.11666670","name":"Anarafito"},{"id":"1521393","latitude":"-23.58333330","longitude":"44.26666670","name":"Anaralava"},{"id":"1521394","latitude":"-24.36666670","longitude":"45.13333330","name":"Anaramalangy"},{"id":"1521396","latitude":"-23.78333330","longitude":"44.65000000","name":"Anaramalinika"},{"id":"1521397","latitude":"-25.41666670","longitude":"45.66666670","name":"Anaramanitsy"},{"id":"1521398","latitude":"-24.43333330","longitude":"45.26666670","name":"Anarambo"},{"id":"1521399","latitude":"-23.81666670","longitude":"45.60000000","name":"Anarambola"},{"id":"1521400","latitude":"-23.96666670","longitude":"46.33333330","name":"Anaramihohoky"},{"id":"1521401","latitude":"-24.83333330","longitude":"45.40000000","name":"Anaramiteraka Nord"},{"id":"1521402","latitude":"-24.83333330","longitude":"45.40000000","name":"Anaramiteraka Sud"},{"id":"1521403","latitude":"-24.43333330","longitude":"45.00000000","name":"Anaramiteraky"},{"id":"1521404","latitude":"-21.71666670","longitude":"44.26666670","name":"Anaraoe"},{"id":"1521405","latitude":"-23.90000000","longitude":"46.30000000","name":"Anaratelo"},{"id":"1521406","latitude":"-24.51666670","longitude":"45.13333330","name":"Anaratoka"},{"id":"1521407","latitude":"-24.35000000","longitude":"45.33333330","name":"Anaravinelo"},{"id":"1521408","latitude":"-23.71666670","longitude":"44.35000000","name":"Anarbe"},{"id":"1521409","latitude":"-25.18333330","longitude":"45.28333330","name":"Anaretaka"},{"id":"1521410","latitude":"-24.60000000","longitude":"46.11666670","name":"Anarifito"},{"id":"1521412","latitude":"-21.58333330","longitude":"44.60000000","name":"Anarobe"},{"id":"1521413","latitude":"-24.36666670","longitude":"45.13333330","name":"Anaromalangy"},{"id":"1521414","latitude":"-24.45000000","longitude":"45.00000000","name":"Anaromiteraka"},{"id":"1521416","latitude":"-24.76666670","longitude":"47.00000000","name":"Anasa"},{"id":"1521422","latitude":"-24.60000000","longitude":"46.96666670","name":"Anataka"},{"id":"1521423","latitude":"-24.15000000","longitude":"45.45000000","name":"Anataky"},{"id":"1521426","latitude":"-24.16666670","longitude":"46.60000000","name":"Anato"},{"id":"1521428","latitude":"-24.63333330","longitude":"45.20000000","name":"Anatratra"},{"id":"1521430","latitude":"-24.60000000","longitude":"45.36666670","name":"Anauiavy"},{"id":"1521432","latitude":"-25.26666670","longitude":"44.65000000","name":"Anavaho"},{"id":"1521436","latitude":"-21.85000000","longitude":"45.33333330","name":"Anaviavy"},{"id":"1521437","latitude":"-23.83333330","longitude":"45.05000000","name":"Anaviavy Atsimo"},{"id":"1521438","latitude":"-25.11666670","longitude":"45.43333330","name":"Anaviavymasy"},{"id":"1521439","latitude":"-23.83333330","longitude":"45.05000000","name":"Anaviavy Sud"},{"id":"1521440","latitude":"-23.18333330","longitude":"44.43333330","name":"Anavlavy"},{"id":"1521441","latitude":"-23.96666670","longitude":"44.93333330","name":"Anavoha-Ambondrano Est"},{"id":"1521442","latitude":"-23.96666670","longitude":"44.88333330","name":"Anavoha-Ambondrao Ouest"},{"id":"1521443","latitude":"-23.33333330","longitude":"44.40000000","name":"Anavoha"},{"id":"1521445","latitude":"-21.21666670","longitude":"44.13333330","name":"Anbahovelo"},{"id":"1521446","latitude":"-24.95000000","longitude":"44.13333330","name":"Anbaladoda"},{"id":"1521448","latitude":"-23.70000000","longitude":"44.60000000","name":"Anborobe"},{"id":"1521450","latitude":"-24.21666670","longitude":"46.31666670","name":"Andabolava"},{"id":"1521451","latitude":"-20.30000000","longitude":"44.71666670","name":"Andaboloaka"},{"id":"1521453","latitude":"-19.08333330","longitude":"45.26666670","name":"Andabomahebo"},{"id":"1521454","latitude":"-22.26666670","longitude":"43.70000000","name":"Andabomalinika"},{"id":"1521457","latitude":"-21.45000000","longitude":"44.31666670","name":"Andabotoka"},{"id":"1521462","latitude":"-19.58333330","longitude":"45.00000000","name":"Andadoano"},{"id":"1521465","latitude":"-19.23333330","longitude":"45.41666670","name":"Andafia"},{"id":"1521472","latitude":"-20.60000000","longitude":"44.90000000","name":"Andaftanomby"},{"id":"1521473","latitude":"-22.50000000","longitude":"44.01666670","name":"Andafy"},{"id":"1521474","latitude":"-25.35000000","longitude":"45.31666670","name":"Andagda"},{"id":"1521476","latitude":"-24.85000000","longitude":"45.43333330","name":"Andahivozaka Ambany"},{"id":"1521477","latitude":"-24.83333330","longitude":"45.43333330","name":"Andahivozaka Ambony"},{"id":"1521478","latitude":"-25.26666670","longitude":"45.28333330","name":"Andahivozaky"},{"id":"1521485","latitude":"-24.95000000","longitude":"45.91666670","name":"Andaivozaky"},{"id":"1521488","latitude":"-22.45000000","longitude":"44.00000000","name":"Andaka"},{"id":"1521489","latitude":"-23.26666670","longitude":"46.08333330","name":"Andakaka"},{"id":"1521497","latitude":"-22.45000000","longitude":"44.03333330","name":"Andakana"},{"id":"1521504","latitude":"-23.70000000","longitude":"44.98333330","name":"Andakata"},{"id":"1521505","latitude":"-22.93333330","longitude":"44.20000000","name":"Andakato"},{"id":"1521508","latitude":"-23.23333330","longitude":"45.53333330","name":"Andakatondraotomba"},{"id":"1521509","latitude":"-23.88333330","longitude":"44.96666670","name":"Andakatotsaka"},{"id":"1521511","latitude":"-24.55000000","longitude":"45.68333330","name":"Andalakaolo"},{"id":"1521513","latitude":"-22.26666670","longitude":"43.28333330","name":"Andalambezo"},{"id":"1521514","latitude":"-23.71666670","longitude":"45.80000000","name":"Andalamby"},{"id":"1521516","latitude":"-21.31666670","longitude":"43.55000000","name":"Andalanda"},{"id":"1521517","latitude":"-21.31666670","longitude":"43.55000000","name":"Andalandy"},{"id":"1521519","latitude":"-24.51666670","longitude":"45.63333330","name":"Andalapito"},{"id":"1521520","latitude":"-24.66666670","longitude":"45.60000000","name":"Andalatanosy"},{"id":"1521523","latitude":"-24.51666670","longitude":"45.63333330","name":"Andalipito"},{"id":"1521528","latitude":"-24.33333330","longitude":"45.88333330","name":"Andalopito"},{"id":"1521535","latitude":"-25.03333330","longitude":"46.00000000","name":"Andambomitro"},{"id":"1521537","latitude":"-23.96666670","longitude":"44.41666670","name":"Andamilamy"},{"id":"1521538","latitude":"-22.06666670","longitude":"43.43333330","name":"Andamotiabo"},{"id":"1521540","latitude":"-24.46666670","longitude":"45.20000000","name":"Andamotinambo"},{"id":"1521543","latitude":"-19.15000000","longitude":"45.01666670","name":"Andamoty"},{"id":"1521556","latitude":"-24.46666670","longitude":"44.75000000","name":"Andanadamy"},{"id":"1521568","latitude":"-24.66666670","longitude":"47.08333330","name":"Andanivato"},{"id":"1521576","latitude":"-24.83333330","longitude":"45.08333330","name":"Andapa"},{"id":"1521589","latitude":"-20.58333330","longitude":"44.88333330","name":"Andapanaomby"},{"id":"1521601","latitude":"-24.65000000","longitude":"45.38333330","name":"Andaro"},{"id":"1521609","latitude":"-20.93333330","longitude":"44.36666670","name":"Andasibe"},{"id":"1521615","latitude":"-19.66666670","longitude":"45.15000000","name":"Andasimadamo"},{"id":"1521618","latitude":"-23.93333330","longitude":"44.95000000","name":"Andasimbary"},{"id":"1521631","latitude":"-23.91666670","longitude":"45.61666670","name":"Andasy Ambony"},{"id":"1521633","latitude":"-22.20000000","longitude":"44.10000000","name":"Andasy"},{"id":"1521640","latitude":"-22.50000000","longitude":"44.03333330","name":"Andaty"},{"id":"1521643","latitude":"-24.48333330","longitude":"45.35000000","name":"Andavabaza"},{"id":"1521644","latitude":"-24.51666670","longitude":"45.05000000","name":"Andavabiby"},{"id":"1521649","latitude":"-22.06666670","longitude":"43.23333330","name":"Andavadoaka"},{"id":"1521652","latitude":"-25.31666670","longitude":"44.85000000","name":"Andavaka"},{"id":"1521657","latitude":"-24.68333330","longitude":"45.30000000","name":"Andavakarefo"},{"id":"1521663","latitude":"-22.06666670","longitude":"43.23333330","name":"Andavaloaka"},{"id":"1521665","latitude":"-20.30000000","longitude":"44.68333330","name":"Andavanomby"},{"id":"1521666","latitude":"-24.91666670","longitude":"44.63333330","name":"Andavaposa"},{"id":"1521672","latitude":"-25.48333330","longitude":"45.60000000","name":"Anday"},{"id":"1521673","latitude":"-24.06666670","longitude":"46.55000000","name":"Andaza"},{"id":"1521679","latitude":"-25.36666670","longitude":"45.08333330","name":"Andefopaly"},{"id":"1521684","latitude":"-22.83333330","longitude":"44.88333330","name":"Andekarimbo"},{"id":"1521690","latitude":"-23.33333330","longitude":"46.10000000","name":"Andemaka"},{"id":"1521696","latitude":"-23.05000000","longitude":"45.71666670","name":"Andemaky Andrefana"},{"id":"1521697","latitude":"-23.05000000","longitude":"45.71666670","name":"Andemaky Est"},{"id":"1521698","latitude":"-23.05000000","longitude":"45.71666670","name":"Andemaky Ouest"},{"id":"1521700","latitude":"-24.85000000","longitude":"45.75000000","name":"Andembe"},{"id":"1521703","latitude":"-21.55000000","longitude":"43.50000000","name":"Andembiry"},{"id":"1521706","latitude":"-23.71666670","longitude":"44.80000000","name":"Andemby"},{"id":"1521707","latitude":"-24.90000000","longitude":"45.53333330","name":"Andemby-Tanamasy"},{"id":"1521708","latitude":"-23.96666670","longitude":"46.41666670","name":"Andemobe"},{"id":"1521709","latitude":"-21.30000000","longitude":"44.56666670","name":"Andemodemoky"},{"id":"1521710","latitude":"-23.05000000","longitude":"45.71666670","name":"Andemoka"},{"id":"1521711","latitude":"-25.15000000","longitude":"45.06666670","name":"Andempo"},{"id":"1521721","latitude":"-23.78333330","longitude":"44.76666670","name":"Andeo"},{"id":"1521722","latitude":"-20.48333330","longitude":"45.60000000","name":"Andepandambo"},{"id":"1521723","latitude":"-21.13333330","longitude":"44.26666670","name":"Anderika"},{"id":"1521725","latitude":"-24.28333330","longitude":"46.81666670","name":"Andetra"},{"id":"1521726","latitude":"-24.28333330","longitude":"46.81666670","name":"Andetsa"},{"id":"1521727","latitude":"-24.28333330","longitude":"46.81666670","name":"Andetsy"},{"id":"1521728","latitude":"-20.30000000","longitude":"44.68333330","name":"Andevonomby"},{"id":"1521731","latitude":"-19.75000000","longitude":"45.45000000","name":"Andiambiby"},{"id":"1521732","latitude":"-20.85000000","longitude":"44.66666670","name":"Andianasadava"},{"id":"1521738","latitude":"-24.30000000","longitude":"45.03333330","name":"Andigolinga"},{"id":"1521742","latitude":"-20.43333330","longitude":"44.18333330","name":"Andika Sur mer"},{"id":"1521772","latitude":"-25.15000000","longitude":"45.26666670","name":"Andily"},{"id":"1521773","latitude":"-19.71666670","longitude":"45.03333330","name":"Andimadoa"},{"id":"1521777","latitude":"-19.20000000","longitude":"44.38333330","name":"Andimaka"},{"id":"1521779","latitude":"-19.20000000","longitude":"44.38333330","name":"Andimaka I"},{"id":"1521780","latitude":"-20.53333330","longitude":"44.33333330","name":"Andimaka Mahatsoa"},{"id":"1521782","latitude":"-19.26666670","longitude":"44.45000000","name":"Andimaky"},{"id":"1521787","latitude":"-24.18333330","longitude":"46.06666670","name":"Andindo"},{"id":"1521795","latitude":"-21.98333330","longitude":"45.21666670","name":"Andingoza"},{"id":"1521797","latitude":"-21.45000000","longitude":"43.76666670","name":"Andio"},{"id":"1521798","latitude":"-24.66666670","longitude":"45.21666670","name":"Andiobe"},{"id":"1521805","latitude":"-25.53333330","longitude":"45.55000000","name":"Anditsaka"},{"id":"1521811","latitude":"-22.73333330","longitude":"44.45000000","name":"Andoba"},{"id":"1521816","latitude":"-20.70000000","longitude":"44.45000000","name":"Andoboka"},{"id":"1521820","latitude":"-22.90000000","longitude":"43.83333330","name":"Andobotoka"},{"id":"1521821","latitude":"-23.96666670","longitude":"45.05000000","name":"Andohabato"},{"id":"1521827","latitude":"-23.03333330","longitude":"44.28333330","name":"Andohafotsy"},{"id":"1521831","latitude":"-24.55000000","longitude":"45.75000000","name":"Andohakaolo"},{"id":"1521841","latitude":"-20.35000000","longitude":"45.70000000","name":"Andohambato"},{"id":"1521844","latitude":"-24.96666670","longitude":"45.38333330","name":"Andohana"},{"id":"1521860","latitude":"-23.56666670","longitude":"45.05000000","name":"Andohara"},{"id":"1521862","latitude":"-22.83333330","longitude":"43.70000000","name":"Andoharana"},{"id":"1521867","latitude":"-19.38333330","longitude":"45.40000000","name":"Andoharano"},{"id":"1521868","latitude":"-19.36666670","longitude":"45.40000000","name":"Andoharanodoalo"},{"id":"1521873","latitude":"-22.80000000","longitude":"44.81666670","name":"Andoharimbo"},{"id":"1521875","latitude":"-23.03333330","longitude":"44.28333330","name":"Andoharotsy"},{"id":"1521878","latitude":"-22.01666670","longitude":"44.63333330","name":"Andohasakoa"},{"id":"1521880","latitude":"-23.66666670","longitude":"44.35000000","name":"Andohasatra"},{"id":"1521881","latitude":"-24.81666670","longitude":"45.11666670","name":"Andohasifaka"},{"id":"1521882","latitude":"-24.81666670","longitude":"45.11666670","name":"Andohasifaky"},{"id":"1521885","latitude":"-21.95000000","longitude":"43.63333330","name":"Andohatona"},{"id":"1521887","latitude":"-20.51666670","longitude":"44.61666670","name":"Andohaviana"},{"id":"1521889","latitude":"-20.83333330","longitude":"44.55000000","name":"Andohavondro"},{"id":"1521891","latitude":"-24.85000000","longitude":"45.08333330","name":"Andohavovo"},{"id":"1521896","latitude":"-21.33333330","longitude":"44.88333330","name":"Andoho"},{"id":"1521903","latitude":"-24.70000000","longitude":"46.35000000","name":"Andolabe"},{"id":"1521907","latitude":"-18.50000000","longitude":"45.26666670","name":"Andolobe"},{"id":"1521909","latitude":"-24.66666670","longitude":"45.21666670","name":"Andolobory"},{"id":"1521911","latitude":"-23.80000000","longitude":"44.60000000","name":"Andolomahery"},{"id":"1521912","latitude":"-19.41666670","longitude":"45.60000000","name":"Andolomasy"},{"id":"1521913","latitude":"-19.41666670","longitude":"45.60000000","name":"Andolomay"},{"id":"1521916","latitude":"-19.51666670","longitude":"45.71666670","name":"Andolomitahy"},{"id":"1521920","latitude":"-19.28333330","longitude":"44.41666670","name":"Andombirolava"},{"id":"1521921","latitude":"-24.76666670","longitude":"45.23333330","name":"Andombiry Anavora"},{"id":"1521922","latitude":"-21.55000000","longitude":"43.50000000","name":"Andombiry"},{"id":"1521923","latitude":"-21.55000000","longitude":"43.50000000","name":"Andombiry Nord"},{"id":"1521928","latitude":"-22.10000000","longitude":"44.48333330","name":"Andona"},{"id":"1521931","latitude":"-22.10000000","longitude":"44.48333330","name":"Andonabe"},{"id":"1521943","latitude":"-24.60000000","longitude":"46.85000000","name":"Andongirotsy"},{"id":"1521950","latitude":"-24.33333330","longitude":"45.05000000","name":"Andongondongo"},{"id":"1521959","latitude":"-19.78333330","longitude":"44.38333330","name":"Andopitaly"},{"id":"1521960","latitude":"-24.05000000","longitude":"46.96666670","name":"Andorisa"},{"id":"1521964","latitude":"-24.28333330","longitude":"46.81666670","name":"Andotsy"},{"id":"1521965","latitude":"-25.21666670","longitude":"46.05000000","name":"Andova"},{"id":"1521972","latitude":"-19.53333330","longitude":"44.86666670","name":"Andovoka"},{"id":"1521978","latitude":"-24.56666670","longitude":"45.08333330","name":"Andovoky"},{"id":"1521982","latitude":"-24.88333330","longitude":"45.21666670","name":"Andovotroatsy"},{"id":"1521983","latitude":"-25.08333330","longitude":"44.90000000","name":"Andovotsifefy"},{"id":"1521986","latitude":"-25.21666670","longitude":"45.06666670","name":"Andrabo"},{"id":"1521997","latitude":"-19.18333330","longitude":"45.38333330","name":"Andrafiabe"},{"id":"1522020","latitude":"-19.13333330","longitude":"45.18333330","name":"Andrafiavoroka"},{"id":"1522024","latitude":"-21.61666670","longitude":"43.71666670","name":"Andraha"},{"id":"1522028","latitude":"-19.98333330","longitude":"44.46666670","name":"Andrahanga"},{"id":"1522029","latitude":"-19.98333330","longitude":"44.46666670","name":"Andrahangy"},{"id":"1522032","latitude":"-23.65000000","longitude":"44.16666670","name":"Andrahavia"},{"id":"1522033","latitude":"-24.86666670","longitude":"44.01666670","name":"Andrahavy"},{"id":"1522037","latitude":"-25.33333330","longitude":"45.35000000","name":"Andraholava Nord"},{"id":"1522038","latitude":"-25.18333330","longitude":"46.66666670","name":"Andrahomana"},{"id":"1522039","latitude":"-21.35000000","longitude":"44.05000000","name":"Andrahomanitsy"},{"id":"1522045","latitude":"-24.93333330","longitude":"44.83333330","name":"Andraiketalahy"},{"id":"1522046","latitude":"-24.93333330","longitude":"44.83333330","name":"Andraiketalay"},{"id":"1522047","latitude":"-24.61666670","longitude":"45.55000000","name":"Andraiketamalemy"},{"id":"1522054","latitude":"-24.58333330","longitude":"47.15000000","name":"Andrainjato"},{"id":"1522060","latitude":"-25.03333330","longitude":"44.06666670","name":"Andraka"},{"id":"1522067","latitude":"-24.98333330","longitude":"44.90000000","name":"Andrakea"},{"id":"1522069","latitude":"-20.05000000","longitude":"45.51666670","name":"Andraketa"},{"id":"1522070","latitude":"-24.91666670","longitude":"45.55000000","name":"Andraketalahy"},{"id":"1522071","latitude":"-24.41666670","longitude":"45.00000000","name":"Andrakia"},{"id":"1522082","latitude":"-25.01666670","longitude":"46.88333330","name":"Andramaka"},{"id":"1522089","latitude":"-25.21666670","longitude":"45.78333330","name":"Andramaray"},{"id":"1522090","latitude":"-19.51666670","longitude":"44.48333330","name":"Andramasay"},{"id":"1522093","latitude":"-24.18333330","longitude":"45.96666670","name":"Andramasy"},{"id":"1522094","latitude":"-23.41666670","longitude":"45.28333330","name":"Andramba Ambony"},{"id":"1522095","latitude":"-23.41666670","longitude":"45.28333330","name":"Andramba"},{"id":"1522096","latitude":"-23.41666670","longitude":"45.28333330","name":"Andramba Haut"},{"id":"1522097","latitude":"-24.98333330","longitude":"44.91666670","name":"Andrambalo"},{"id":"1522098","latitude":"-24.73333330","longitude":"45.66666670","name":"Andrambita"},{"id":"1522101","latitude":"-24.30000000","longitude":"46.55000000","name":"Andramboeto"},{"id":"1522102","latitude":"-24.30000000","longitude":"46.55000000","name":"Andrambohetra"},{"id":"1522107","latitude":"-25.05000000","longitude":"44.93333330","name":"Andramboro"},{"id":"1522110","latitude":"-23.96666670","longitude":"44.15000000","name":"Andramiory"},{"id":"1522111","latitude":"-25.30000000","longitude":"45.65000000","name":"Andramirava"},{"id":"1522114","latitude":"-24.73333330","longitude":"45.66666670","name":"Andramoita"},{"id":"1522119","latitude":"-24.88333330","longitude":"45.18333330","name":"Andrampia"},{"id":"1522123","latitude":"-18.93333330","longitude":"45.08333330","name":"Andramy"},{"id":"1522124","latitude":"-21.60000000","longitude":"43.50000000","name":"Andramy Atsimo"},{"id":"1522125","latitude":"-21.58333330","longitude":"43.50000000","name":"Andramy Avaratra"},{"id":"1522126","latitude":"-21.58333330","longitude":"43.50000000","name":"Andramy Nord"},{"id":"1522127","latitude":"-21.60000000","longitude":"43.50000000","name":"Andramy Sud"},{"id":"1522129","latitude":"-23.13333330","longitude":"45.71666670","name":"Andranaka"},{"id":"1522130","latitude":"-21.96666670","longitude":"43.75000000","name":"Andranakanga"},{"id":"1522131","latitude":"-20.16666670","longitude":"44.40000000","name":"Andranalafotsy"},{"id":"1522138","latitude":"-23.73333330","longitude":"44.06666670","name":"Andranamy"},{"id":"1522139","latitude":"-20.46666670","longitude":"44.26666670","name":"Andrananja"},{"id":"1522141","latitude":"-23.45000000","longitude":"45.10000000","name":"Andranata"},{"id":"1522144","latitude":"-22.03333330","longitude":"43.83333330","name":"Andrandava"},{"id":"1522145","latitude":"-22.70000000","longitude":"46.00000000","name":"Andranday"},{"id":"1522160","latitude":"-20.75000000","longitude":"44.80000000","name":"Andrangory"},{"id":"1522164","latitude":"-21.83333330","longitude":"43.88333330","name":"Andranialamihamba"},{"id":"1522169","latitude":"-24.08333330","longitude":"44.46666670","name":"Andranoabo Atsimo"},{"id":"1522170","latitude":"-24.06666670","longitude":"44.45000000","name":"Andranoabo Avaratra"},{"id":"1522179","latitude":"-20.90000000","longitude":"44.71666670","name":"Andranoba"},{"id":"1522185","latitude":"-19.36666670","longitude":"44.91666670","name":"Andranobe"},{"id":"1522186","latitude":"-19.36666670","longitude":"44.90000000","name":"Andranobe Ouest"},{"id":"1522189","latitude":"-19.86666670","longitude":"45.11666670","name":"Andranobilo"},{"id":"1522190","latitude":"-24.05000000","longitude":"45.03333330","name":"Andranoboa"},{"id":"1522193","latitude":"-21.55000000","longitude":"44.88333330","name":"Andranoboaka"},{"id":"1522200","latitude":"-19.03333330","longitude":"45.10000000","name":"Andranoboka"},{"id":"1522202","latitude":"-19.63333330","longitude":"44.53333330","name":"Andranoboribe-Ankatsaka"},{"id":"1522203","latitude":"-24.96666670","longitude":"44.08333330","name":"Andranobory"},{"id":"1522205","latitude":"-22.83333330","longitude":"43.55000000","name":"Andranodehoka"},{"id":"1522206","latitude":"-23.65000000","longitude":"44.68333330","name":"Andranofaly"},{"id":"1522221","latitude":"-19.61666670","longitude":"44.51666670","name":"Andranofotsy"},{"id":"1522224","latitude":"-25.03333330","longitude":"45.68333330","name":"Andranogisa"},{"id":"1522225","latitude":"-24.35000000","longitude":"46.85000000","name":"Andranogiso"},{"id":"1522226","latitude":"-24.01666670","longitude":"44.73333330","name":"Andranogisy"},{"id":"1522227","latitude":"-25.11666670","longitude":"46.31666670","name":"Andranogoa"},{"id":"1522230","latitude":"-22.48333330","longitude":"43.70000000","name":"Andranohazokily"},{"id":"1522231","latitude":"-24.73333330","longitude":"45.05000000","name":"Andranoherika"},{"id":"1522232","latitude":"-23.28333330","longitude":"43.98333330","name":"Andranohinalahy"},{"id":"1522233","latitude":"-23.28333330","longitude":"43.98333330","name":"Andranohinaly"},{"id":"1522234","latitude":"-24.40000000","longitude":"45.25000000","name":"Andranojirieky"},{"id":"1522235","latitude":"-24.36666670","longitude":"45.96666670","name":"Andranojirioka"},{"id":"1522236","latitude":"-24.40000000","longitude":"45.25000000","name":"Andranojirioky"},{"id":"1522240","latitude":"-19.75000000","longitude":"44.51666670","name":"Andranokaolo"},{"id":"1522241","latitude":"-24.68333330","longitude":"46.40000000","name":"Andranokaolo Toby"},{"id":"1522246","latitude":"-25.25000000","longitude":"45.73333330","name":"Andranokoaka"},