[{"id":"1584943","latitude":"44.38333330","longitude":"105.55000000","name":"Abaraha"},{"id":"1584946","latitude":"44.38333330","longitude":"105.55000000","name":"Abarahaiin Hural"},{"id":"1584948","latitude":"44.38333330","longitude":"105.55000000","name":"Abarahaiin S\ufffdme"},{"id":"1584968","latitude":"44.38333330","longitude":"105.55000000","name":"Aborah\ufffd hural"},{"id":"1584969","latitude":"44.38333330","longitude":"105.55000000","name":"Aborokhu sume"},{"id":"1584971","latitude":"44.38333330","longitude":"105.55000000","name":"Aburahuin hural"},{"id":"1585002","latitude":"42.58333330","longitude":"107.80000000","name":"Aguy-sume"},{"id":"1585003","latitude":"42.58333330","longitude":"107.80000000","name":"Aguy S\ufffdme Hiid"},{"id":"1585004","latitude":"42.58333330","longitude":"107.80000000","name":"Aguy sume khid"},{"id":"1585150","latitude":"43.47055560","longitude":"104.65166670","name":"Argalant"},{"id":"1585152","latitude":"43.47055560","longitude":"104.65166670","name":"Argalinta Suma"},{"id":"1585156","latitude":"43.47055560","longitude":"104.65166670","name":"Argalintu"},{"id":"1585157","latitude":"43.47055560","longitude":"104.65166670","name":"Argalintu Somon"},{"id":"1585158","latitude":"43.47055560","longitude":"104.65166670","name":"Argalintu sumu"},{"id":"1585174","latitude":"42.46666670","longitude":"104.28333330","name":"Arshaan Hural"},{"id":"1585184","latitude":"42.46666670","longitude":"104.28333330","name":"Arshan Khural"},{"id":"1585185","latitude":"42.46666670","longitude":"104.28333330","name":"Arshan-kurul"},{"id":"1585199","latitude":"42.46666670","longitude":"104.28333330","name":"Arsnan khural"},{"id":"1585201","latitude":"43.80000000","longitude":"104.68333330","name":"Artsatayn Shiliin Hiid"},{"id":"1585202","latitude":"43.80000000","longitude":"104.68333330","name":"Artsatii Shiliin Hiid"},{"id":"1585203","latitude":"43.80000000","longitude":"104.68333330","name":"Artsatii Shiliin Hiyd"},{"id":"1585205","latitude":"43.80000000","longitude":"104.68333330","name":"Artsatuin shiliin khid"},{"id":"1585206","latitude":"43.80000000","longitude":"104.68333330","name":"Artsatuyn shiliin khid"},{"id":"1585210","latitude":"42.46666670","longitude":"104.28333330","name":"Arushan fururu"},{"id":"1585212","latitude":"42.46666670","longitude":"104.28333330","name":"Arushan-kururu"},{"id":"1585257","latitude":"42.75000000","longitude":"106.80000000","name":"Baga Modo Hiid"},{"id":"1585261","latitude":"42.75000000","longitude":"106.80000000","name":"Bagmodo khid"},{"id":"1585262","latitude":"42.75000000","longitude":"106.80000000","name":"Bagmodo-Khural"},{"id":"1585304","latitude":"43.49000000","longitude":"103.52444440","name":"Baishinte"},{"id":"1585305","latitude":"43.49000000","longitude":"103.52444440","name":"Baishintu"},{"id":"1585314","latitude":"43.33333330","longitude":"104.73333330","name":"Balgas-Nu-Khit"},{"id":"1585351","latitude":"43.58333330","longitude":"101.16666670","name":"Barun Goyotiin Khid"},{"id":"1585356","latitude":"43.75000000","longitude":"105.56666670","name":"Barun Khura"},{"id":"1585357","latitude":"43.75000000","longitude":"105.56666670","name":"Barun Khural"},{"id":"1585375","latitude":"43.58333330","longitude":"101.16666670","name":"Baruun-Goyotiin-Hiyd"},{"id":"1585376","latitude":"43.58333330","longitude":"101.16666670","name":"Baruun Goyotoyn Hiid"},{"id":"1585380","latitude":"43.75000000","longitude":"105.56666670","name":"Baruun Hural"},{"id":"1585387","latitude":"43.69722220","longitude":"105.73638890","name":"Baruunsuu"},{"id":"1585465","latitude":"44.25000000","longitude":"106.80000000","name":"Bayan Bulagiin Hural"},{"id":"1585468","latitude":"44.25000000","longitude":"106.80000000","name":"Bayan Bulag\ufffdin Khural"},{"id":"1585470","latitude":"44.25000000","longitude":"106.80000000","name":"Bayan bulag\ufffdyn khural"},{"id":"1585475","latitude":"44.25000000","longitude":"106.80000000","name":"Bayan bulagyin khural"},{"id":"1585477","latitude":"44.25000000","longitude":"106.80000000","name":"Bayan Bulagyyn Khural"},{"id":"1585491","latitude":"43.49000000","longitude":"103.52444440","name":"Bayan Dalai Baishintu Khit"},{"id":"1585492","latitude":"43.49000000","longitude":"103.52444440","name":"Bayandala\ufffd"},{"id":"1585493","latitude":"43.49000000","longitude":"103.52444440","name":"Bayandalay"},{"id":"1585618","latitude":"42.97416670","longitude":"106.12694440","name":"Bayan Obo"},{"id":"1585626","latitude":"42.97416670","longitude":"106.12694440","name":"Bayan Oboo Suma"},{"id":"1585629","latitude":"42.97416670","longitude":"106.12694440","name":"Bayan obo Somon"},{"id":"1585638","latitude":"42.97416670","longitude":"106.12694440","name":"Bayan-Ovoo"},{"id":"1585639","latitude":"43.01666670","longitude":"105.53333330","name":"Bayan Ovoo"},{"id":"1585641","latitude":"42.97416670","longitude":"106.12694440","name":"Bayan-Owoo"},{"id":"1585767","latitude":"43.49000000","longitude":"103.52444440","name":"Bayshinta"},{"id":"1585768","latitude":"43.49000000","longitude":"103.52444440","name":"Bayshinta Hiid"},{"id":"1585775","latitude":"43.49000000","longitude":"103.52444440","name":"Bayshintu"},{"id":"1585777","latitude":"43.49000000","longitude":"103.52444440","name":"Bayshintu hiid"},{"id":"1585779","latitude":"43.49000000","longitude":"103.52444440","name":"Bayshintuin hiid"},{"id":"1585781","latitude":"43.49000000","longitude":"103.52444440","name":"Bayshintu khid"},{"id":"1585907","latitude":"44.50000000","longitude":"107.35000000","name":"Boro Hiid"},{"id":"1585908","latitude":"44.50000000","longitude":"107.35000000","name":"Boro-Hiyd"},{"id":"1585916","latitude":"44.50000000","longitude":"107.35000000","name":"Boro khid"},{"id":"1585921","latitude":"44.38333330","longitude":"105.55000000","name":"Borokhu Sume"},{"id":"1585983","latitude":"44.43333330","longitude":"105.30000000","name":"Buha Dolon"},{"id":"1585987","latitude":"44.43333330","longitude":"105.30000000","name":"Buhatoron"},{"id":"1585994","latitude":"44.43333330","longitude":"105.30000000","name":"Bukha dalon"},{"id":"1585995","latitude":"44.43333330","longitude":"105.30000000","name":"Bukha Dolon"},{"id":"1586008","latitude":"44.11277780","longitude":"103.54250000","name":"Bulagan Bulag"},{"id":"1586013","latitude":"42.16666670","longitude":"104.73333330","name":"Bulagan Hural"},{"id":"1586018","latitude":"42.16666670","longitude":"104.73333330","name":"Bulagan khural"},{"id":"1586019","latitude":"42.16666670","longitude":"104.73333330","name":"Bulagan-Khure"},{"id":"1586048","latitude":"44.11277780","longitude":"103.54250000","name":"Bulgan"},{"id":"1586052","latitude":"42.16666670","longitude":"104.73333330","name":"Bulgan Hural"},{"id":"1586317","latitude":"43.20000000","longitude":"104.00000000","name":"Chuluutayn Hiid"},{"id":"1586318","latitude":"43.20000000","longitude":"104.00000000","name":"Chuluutayn Hiyd"},{"id":"1586335","latitude":"42.98333330","longitude":"106.70000000","name":"Chzhibkhulantu Somon"},{"id":"1586380","latitude":"43.58361110","longitude":"104.44027780","name":"Dalan Dsadagad"},{"id":"1586381","latitude":"43.58361110","longitude":"104.44027780","name":"Dalan Dzadagad"},{"id":"1586382","latitude":"43.58361110","longitude":"104.44027780","name":"Dalandzadgad"},{"id":"1586389","latitude":"43.58361110","longitude":"104.44027780","name":"Dalan Tszadagad"},{"id":"1586394","latitude":"43.58361110","longitude":"104.44027780","name":"Dalan Tzadagad"},{"id":"1586395","latitude":"43.58361110","longitude":"104.44027780","name":"Dalan-Zadagad"},{"id":"1586396","latitude":"43.49000000","longitude":"103.52444440","name":"Dalay"},{"id":"1586461","latitude":"43.58361110","longitude":"104.44027780","name":"Daranzagatai"},{"id":"1586533","latitude":"43.91666670","longitude":"107.70000000","name":"Dashi Choynbil Hiid"},{"id":"1586534","latitude":"43.91666670","longitude":"107.70000000","name":"Dashi-Choynbil-Hiyd"},{"id":"1586535","latitude":"43.91666670","longitude":"107.70000000","name":"Dashi choynbil khid"},{"id":"1586544","latitude":"43.71666670","longitude":"106.13333330","name":"Dashilingiin Hural"},{"id":"1586545","latitude":"43.71666670","longitude":"106.13333330","name":"Dashilingin khural"},{"id":"1586653","latitude":"43.12555560","longitude":"107.11861110","name":"Demchig Hiid"},{"id":"1586654","latitude":"43.12555560","longitude":"107.11861110","name":"Demchig-Hiyd"},{"id":"1586655","latitude":"43.12555560","longitude":"107.11861110","name":"Demchig khid"},{"id":"1586694","latitude":"44.00000000","longitude":"104.88333330","name":"Doboiin Hiid"},{"id":"1586695","latitude":"44.00000000","longitude":"104.88333330","name":"Dobuin Khid"},{"id":"1586696","latitude":"44.00000000","longitude":"104.88333330","name":"Dobuyn khid"},{"id":"1586698","latitude":"44.08333330","longitude":"106.41666670","name":"D\ufffdchiin Hural"},{"id":"1586706","latitude":"42.96666670","longitude":"106.11666670","name":"Dolon-Shartszak"},{"id":"1586708","latitude":"44.43333330","longitude":"105.33333330","name":"Doloon"},{"id":"1586714","latitude":"42.96666670","longitude":"106.11666670","name":"Doloo Sharadzagiin S\ufffdme"},{"id":"1586716","latitude":"42.96666670","longitude":"106.11666670","name":"Dolosharatszagin-Sume"},{"id":"1586717","latitude":"42.96666670","longitude":"106.11666670","name":"Dolo sharatszag sume"},{"id":"1586730","latitude":"44.38333330","longitude":"104.53333330","name":"D\ufffdrb\ufffdn-Derile-\ufffdrt\ufffd\ufffd"},{"id":"1586731","latitude":"44.38333330","longitude":"104.53333330","name":"D\ufffdrb\ufffdn Derite \ufffdrt\ufffd\ufffd"},{"id":"1586743","latitude":"42.96666670","longitude":"106.11666670","name":"Doron-sharuzaku-sume"},{"id":"1586754","latitude":"44.08333330","longitude":"106.41666670","name":"Duchiin-furaru"},{"id":"1586755","latitude":"44.08333330","longitude":"106.41666670","name":"Duchi-Khural"},{"id":"1586756","latitude":"44.08333330","longitude":"106.41666670","name":"Duchin Khural"},{"id":"1586759","latitude":"44.00000000","longitude":"102.40000000","name":"Dugang Goliin Hural"},{"id":"1586762","latitude":"44.00000000","longitude":"102.40000000","name":"Dugan Goliin Hural"},{"id":"1586772","latitude":"44.00000000","longitude":"102.40000000","name":"Dugun goliin khural"},{"id":"1586804","latitude":"44.38333330","longitude":"104.53333330","name":"Durben deritu urto"},{"id":"1586805","latitude":"44.38333330","longitude":"104.53333330","name":"Durben deritu yurt"},{"id":"1586806","latitude":"44.38333330","longitude":"104.53333330","name":"Durben Derity Urto"},{"id":"1586826","latitude":"43.58361110","longitude":"104.44027780","name":"Dzadagad"},{"id":"1586900","latitude":"42.98333330","longitude":"106.70000000","name":"Dzhibkhulantu"},{"id":"1586901","latitude":"42.98333330","longitude":"106.70000000","name":"Dzhibkhulantu-Somon"},{"id":"1586996","latitude":"42.48333330","longitude":"104.96666670","name":"Ehin Dzag Hural"},{"id":"1586997","latitude":"42.48333330","longitude":"104.96666670","name":"Ehin Dzagiin Hural"},{"id":"1586998","latitude":"42.48333330","longitude":"104.96666670","name":"Ekhin Dzagyn-khure"},{"id":"1586999","latitude":"42.48333330","longitude":"104.96666670","name":"Ekhin tszag khural"},{"id":"1587051","latitude":"42.97416670","longitude":"106.12694440","name":"Erdenetsogt"},{"id":"1587187","latitude":"43.00000000","longitude":"102.20000000","name":"Gandzagatayn H\ufffdryee"},{"id":"1587188","latitude":"43.00000000","longitude":"102.20000000","name":"Gandzagat\ufffdn khure"},{"id":"1587189","latitude":"43.00000000","longitude":"102.20000000","name":"Gandzagatyn khure"},{"id":"1587191","latitude":"43.00000000","longitude":"102.20000000","name":"Gantszagatiin khural"},{"id":"1587206","latitude":"43.33333330","longitude":"104.73333330","name":"Godli balgasuin khid"},{"id":"1587207","latitude":"43.33333330","longitude":"104.73333330","name":"Godli Balgasun Hiid"},{"id":"1587208","latitude":"43.33333330","longitude":"104.73333330","name":"Godli balgasuyn khid"},{"id":"1587209","latitude":"43.33333330","longitude":"104.73333330","name":"Godoli Balgasanii Hiid"},{"id":"1587210","latitude":"43.33333330","longitude":"104.73333330","name":"Godoli Balgasanii Hiyd"},{"id":"1587301","latitude":"43.25000000","longitude":"101.08333330","name":"Gurvantes"},{"id":"1587315","latitude":"43.20000000","longitude":"107.20000000","name":"Haan Bogdo Suma"},{"id":"1587316","latitude":"43.78611110","longitude":"104.49611110","name":"Haan Hongor Suma"},{"id":"1587320","latitude":"43.41666670","longitude":"104.30083330","name":"Habchil \ufffdrt\ufffd\ufffd"},{"id":"1587321","latitude":"43.41666670","longitude":"104.30083330","name":"Habchil Urto"},{"id":"1587373","latitude":"44.25000000","longitude":"104.23333330","name":"Hanaiin Tsagaan Subarga Hiid"},{"id":"1587374","latitude":"44.25000000","longitude":"104.23333330","name":"Hanaiin-Tsagaan-Suharga-Hiyd"},{"id":"1587375","latitude":"43.20000000","longitude":"107.20000000","name":"Han bogda"},{"id":"1587376","latitude":"43.20000000","longitude":"107.20000000","name":"Han bogda sumu"},{"id":"1587377","latitude":"43.20000000","longitude":"107.20000000","name":"Hanbogd"},{"id":"1587398","latitude":"43.78611110","longitude":"104.49611110","name":"Hanhongor"},{"id":"1587399","latitude":"43.78611110","longitude":"104.49611110","name":"Han hongor sumu"},{"id":"1587422","latitude":"44.30000000","longitude":"106.60000000","name":"Hara Noyonii Hiid"},{"id":"1587423","latitude":"44.30000000","longitude":"106.60000000","name":"Hara-Noyonii-Hiyd"},{"id":"1587582","latitude":"44.65000000","longitude":"104.06666670","name":"Holostai"},{"id":"1587597","latitude":"43.46666670","longitude":"103.50000000","name":"Hongor oboo"},{"id":"1587598","latitude":"43.46666670","longitude":"103.50000000","name":"Hongor Oboo Suma"},{"id":"1587599","latitude":"43.46666670","longitude":"103.50000000","name":"Hongor oboo sumu"},{"id":"1587603","latitude":"43.78611110","longitude":"104.49611110","name":"Hongor Suma"},{"id":"1587667","latitude":"43.17361110","longitude":"102.13194440","name":"H\ufffdv\ufffd\ufffdn"},{"id":"1587719","latitude":"43.31277780","longitude":"104.08444440","name":"H\ufffdrmeiin Suma"},{"id":"1587720","latitude":"43.31277780","longitude":"104.08444440","name":"H\ufffdrmen"},{"id":"1587722","latitude":"43.31277780","longitude":"104.08444440","name":"H\ufffdrmiin Suma"},{"id":"1587730","latitude":"43.60000000","longitude":"103.90000000","name":"Hushuu Hural"},{"id":"1587780","latitude":"43.20000000","longitude":"107.20000000","name":"Ihbulag"},{"id":"1587924","latitude":"42.98333330","longitude":"106.70000000","name":"Jibhalanta Suma"},{"id":"1587986","latitude":"43.41666670","longitude":"104.30083330","name":"Khabchil urto"},{"id":"1587987","latitude":"43.41666670","longitude":"104.30083330","name":"Khabchil yurt"},{"id":"1587988","latitude":"43.41666670","longitude":"104.30083330","name":"Khabgil urto"},{"id":"1588047","latitude":"44.25000000","longitude":"104.23333330","name":"Khanain tsagan Suburga Khid"},{"id":"1588048","latitude":"44.25000000","longitude":"104.23333330","name":"Khanayn tsagan suburga khid"},{"id":"1588049","latitude":"43.20000000","longitude":"107.20000000","name":"Khan Bogda"},{"id":"1588050","latitude":"43.20000000","longitude":"107.20000000","name":"Khan Bogda Somon"},{"id":"1588051","latitude":"43.20000000","longitude":"107.20000000","name":"Khanbogd"},{"id":"1588052","latitude":"43.20000000","longitude":"107.20000000","name":"Khan-Bogdo"},{"id":"1588053","latitude":"43.20000000","longitude":"107.20000000","name":"Khan Bogdo Sume"},{"id":"1588071","latitude":"43.78611110","longitude":"104.49611110","name":"Khankhongor"},{"id":"1588099","latitude":"44.30000000","longitude":"106.60000000","name":"Khara noyan\ufffdy khid"},{"id":"1588100","latitude":"44.30000000","longitude":"106.60000000","name":"Khara Noyanyy Khid"},{"id":"1588246","latitude":"43.46666670","longitude":"103.50000000","name":"Khongor Obo"},{"id":"1588247","latitude":"43.46666670","longitude":"103.50000000","name":"Khongor Obo Somon"},{"id":"1588251","latitude":"43.78611110","longitude":"104.49611110","name":"Khongor somon"},{"id":"1588381","latitude":"43.31277780","longitude":"104.08444440","name":"Khurmein Somon"},{"id":"1588382","latitude":"43.31277780","longitude":"104.08444440","name":"Kh\ufffdrmen"},{"id":"1588383","latitude":"43.31277780","longitude":"104.08444440","name":"Khurmeyn somon"},{"id":"1588386","latitude":"43.31277780","longitude":"104.08444440","name":"Khurmin-Somon"},{"id":"1588396","latitude":"43.60000000","longitude":"103.90000000","name":"Khushu Khural"},{"id":"1588443","latitude":"43.49000000","longitude":"103.52444440","name":"Kumirnya Bayshinte"},{"id":"1588445","latitude":"42.96666670","longitude":"106.11666670","name":"Kumirnya Dolon-shartszak-sume"},{"id":"1588453","latitude":"43.20000000","longitude":"104.00000000","name":"Kumirnya Shyulyuty"},{"id":"1588499","latitude":"43.75000000","longitude":"103.30000000","name":"Lamaiin H\ufffdryee"},{"id":"1588514","latitude":"43.75000000","longitude":"103.30000000","name":"Lamain khure"},{"id":"1588528","latitude":"43.75000000","longitude":"103.30000000","name":"Lamayn khure"},{"id":"1588629","latitude":"44.65000000","longitude":"104.05000000","name":"Mandal-Obo"},{"id":"1588630","latitude":"44.65000000","longitude":"104.05000000","name":"Mandal Oboo"},{"id":"1588631","latitude":"44.65000000","longitude":"104.05000000","name":"Mandal Oboo Suma"},{"id":"1588632","latitude":"44.65000000","longitude":"104.05000000","name":"Mandal Obo Somon"},{"id":"1588633","latitude":"44.36666670","longitude":"104.30000000","name":"Mandal Ovoo"},{"id":"1588634","latitude":"44.65000000","longitude":"104.05000000","name":"Mandal-Ovoo"},{"id":"1588663","latitude":"43.80000000","longitude":"104.20000000","name":"Mani Hiid"},{"id":"1588666","latitude":"43.80000000","longitude":"104.20000000","name":"Mani khid"},{"id":"1588667","latitude":"43.80000000","longitude":"104.20000000","name":"Mani-Khure"},{"id":"1588676","latitude":"44.08333330","longitude":"106.83333330","name":"Manla\ufffd"},{"id":"1588677","latitude":"44.08333330","longitude":"106.83333330","name":"Manlai-Somon"},{"id":"1588678","latitude":"44.08333330","longitude":"106.83333330","name":"Manlay"},{"id":"1588679","latitude":"44.08333330","longitude":"106.83333330","name":"Manlay Somon"},{"id":"1588680","latitude":"44.08333330","longitude":"106.83333330","name":"Manlay Suma"},{"id":"1588681","latitude":"44.08333330","longitude":"106.83333330","name":"Manlay sumu"},{"id":"1588682","latitude":"44.08333330","longitude":"106.83333330","name":"Manrai"},{"id":"1588861","latitude":"43.20000000","longitude":"105.58333330","name":"Nalihan Dugan"},{"id":"1588862","latitude":"43.20000000","longitude":"105.58333330","name":"Nalihin Dugang"},{"id":"1588863","latitude":"43.20000000","longitude":"105.58333330","name":"Nalikhin dugang"},{"id":"1588975","latitude":"43.17361110","longitude":"102.13194440","name":"Noin Somon"},{"id":"1588978","latitude":"42.85638890","longitude":"105.13111110","name":"Nomgon"},{"id":"1588980","latitude":"42.85638890","longitude":"105.13111110","name":"Nomogan"},{"id":"1588982","latitude":"42.85638890","longitude":"105.13111110","name":"Nomogan sumu"},{"id":"1588985","latitude":"42.85638890","longitude":"105.13111110","name":"Nomogon"},{"id":"1588986","latitude":"42.85638890","longitude":"105.13111110","name":"Nomogon Somon"},{"id":"1588987","latitude":"42.85638890","longitude":"105.13111110","name":"Nomogon Suma"},{"id":"1589008","latitude":"43.87222220","longitude":"103.62972220","name":"Norbain salouri khorsho"},{"id":"1589009","latitude":"43.87222220","longitude":"103.62972220","name":"Norboiin Salbari Horshoo"},{"id":"1589010","latitude":"43.87222220","longitude":"103.62972220","name":"Norboin salouri khorsho"},{"id":"1589012","latitude":"43.87222220","longitude":"103.62972220","name":"Norboyn Salour Horshoo"},{"id":"1589013","latitude":"43.87222220","longitude":"103.62972220","name":"Norboyn salour yurt"},{"id":"1589026","latitude":"43.17361110","longitude":"102.13194440","name":"Noyan"},{"id":"1589027","latitude":"43.17361110","longitude":"102.13194440","name":"Noyan Somon"},{"id":"1589028","latitude":"43.17361110","longitude":"102.13194440","name":"Noyan Sume"},{"id":"1589029","latitude":"43.17361110","longitude":"102.13194440","name":"Noyan sumu"},{"id":"1589033","latitude":"43.17361110","longitude":"102.13194440","name":"Noy\ufffdn"},{"id":"1589034","latitude":"43.17361110","longitude":"102.13194440","name":"Noyin Somon"},{"id":"1589038","latitude":"43.17361110","longitude":"102.13194440","name":"Noyon"},{"id":"1589039","latitude":"43.17361110","longitude":"102.13194440","name":"Noyon Suma"},{"id":"1589062","latitude":"42.96666670","longitude":"101.50000000","name":"Obooto Hural"},{"id":"1589063","latitude":"42.96666670","longitude":"101.50000000","name":"Obootuin hural"},{"id":"1589071","latitude":"42.96666670","longitude":"101.50000000","name":"Obotuin-khure"},{"id":"1589072","latitude":"42.96666670","longitude":"101.50000000","name":"Obotu Khural"},{"id":"1589073","latitude":"42.96666670","longitude":"101.50000000","name":"Obotuyn-Khural"},{"id":"1589079","latitude":"43.20000000","longitude":"100.71666670","name":"Ochzhiman khural"},{"id":"1589080","latitude":"43.20000000","longitude":"100.71666670","name":"Ochzhimin khural"},{"id":"1589094","latitude":"43.78611110","longitude":"104.49611110","name":"\ufffdg\ufffd\ufffdm\ufffdr"},{"id":"1589099","latitude":"43.20000000","longitude":"100.71666670","name":"Ojiman-Hural"},{"id":"1589100","latitude":"43.20000000","longitude":"100.71666670","name":"Ojimin Hural"},{"id":"1589179","latitude":"43.31277780","longitude":"104.08444440","name":"\ufffdnd\ufffdr h\ufffdrme"},{"id":"1589180","latitude":"43.31277780","longitude":"104.08444440","name":"\ufffdnd\ufffdr H\ufffdrme Suma"},{"id":"1589268","latitude":"43.49000000","longitude":"103.52444440","name":"Pai-shen-t'ai Miao"},{"id":"1589328","latitude":"44.65000000","longitude":"104.06666670","name":"Sai-erh-wu-su-k'o-t'o-lo-chan"},{"id":"1589362","latitude":"42.83333330","longitude":"105.13333330","name":"Sangiin Dalay H\ufffdree"},{"id":"1589364","latitude":"42.83333330","longitude":"105.13333330","name":"Sangiin Dalay H\ufffdryee"},{"id":"1589367","latitude":"42.83333330","longitude":"105.13333330","name":"Sang'iin dalay'iin h\ufffdrie"},{"id":"1589369","latitude":"42.83333330","longitude":"105.13333330","name":"Sang'iin dalay'in h\ufffdrie"},{"id":"1589375","latitude":"42.83333330","longitude":"105.13333330","name":"Sangin Dalain Khure"},{"id":"1589377","latitude":"42.83333330","longitude":"105.13333330","name":"Sangin dalay khure"},{"id":"1589380","latitude":"42.83333330","longitude":"105.13333330","name":"Sangin-Dalayn-Khure"},{"id":"1589448","latitude":"43.61666670","longitude":"102.53333330","name":"Saynshand"},{"id":"1589460","latitude":"43.61666670","longitude":"102.53333330","name":"Seberei"},{"id":"1589461","latitude":"43.61666670","longitude":"102.53333330","name":"Seberei Sume"},{"id":"1589462","latitude":"43.61666670","longitude":"102.53333330","name":"Seberey"},{"id":"1589463","latitude":"43.61666670","longitude":"102.53333330","name":"Seberey somon"},{"id":"1589464","latitude":"43.61666670","longitude":"102.53333330","name":"Seberey Suma"},{"id":"1589465","latitude":"43.61666670","longitude":"102.53333330","name":"Seberey sumu"},{"id":"1589496","latitude":"43.61666670","longitude":"102.53333330","name":"Sevrey"},{"id":"1589533","latitude":"44.00000000","longitude":"104.88333330","name":"Shara Dobu"},{"id":"1589538","latitude":"44.65000000","longitude":"104.06666670","name":"Shara-horosu"},{"id":"1589539","latitude":"44.65000000","longitude":"104.06666670","name":"Shara Hulasa Hiid"},{"id":"1589545","latitude":"44.65000000","longitude":"104.06666670","name":"Shara khulusu khid"},{"id":"1589546","latitude":"44.65000000","longitude":"104.06666670","name":"Shara-khulusun"},{"id":"1589563","latitude":"44.65000000","longitude":"104.05000000","name":"Sharhulsan"},{"id":"1589582","latitude":"44.65000000","longitude":"104.06666670","name":"Shih-lo-ho-lo-su"},{"id":"1589608","latitude":"43.56666670","longitude":"106.01666670","name":"Shireeteyn Hiid"},{"id":"1589610","latitude":"43.56666670","longitude":"106.01666670","name":"Shireetiin Hiid"},{"id":"1589611","latitude":"43.56666670","longitude":"106.01666670","name":"Shireetiin-Hiyd"},{"id":"1589616","latitude":"43.56666670","longitude":"106.01666670","name":"Shiretuin khid"},{"id":"1589617","latitude":"43.56666670","longitude":"106.01666670","name":"Shiretuyn khid"},{"id":"1589637","latitude":"43.95000000","longitude":"107.85000000","name":"Shulen"},{"id":"1589640","latitude":"43.20000000","longitude":"104.00000000","name":"Shuluty"},{"id":"1589642","latitude":"43.20000000","longitude":"104.00000000","name":"Shuluutayn Hiid"},{"id":"1589653","latitude":"43.20000000","longitude":"104.00000000","name":"Shuryutoi"},{"id":"1589656","latitude":"43.20000000","longitude":"104.00000000","name":"Shyulutuin khid"},{"id":"1589657","latitude":"43.20000000","longitude":"104.00000000","name":"Shyulutuyn khid"},{"id":"1589771","latitude":"43.61666670","longitude":"102.53333330","name":"Sy\ufffdwrei"},{"id":"1589800","latitude":"43.58361110","longitude":"104.44027780","name":"Ta-lan-ken-kuo-lo"},{"id":"1589803","latitude":"43.58361110","longitude":"104.44027780","name":"Ta-leng-keng Miao"},{"id":"1590006","latitude":"43.23777780","longitude":"101.03944440","name":"Tost"},{"id":"1590038","latitude":"43.35000000","longitude":"103.16666670","name":"Tsagaan Deresenii Hural"},{"id":"1590075","latitude":"43.05000000","longitude":"101.21666670","name":"Tsagaan Subarga Hural"},{"id":"1590076","latitude":"43.60083330","longitude":"102.19222220","name":"Tsagaan suburga'in hural"},{"id":"1590077","latitude":"43.60083330","longitude":"102.19222220","name":"Tsagaan suburgan'i hural"},{"id":"1590079","latitude":"43.60083330","longitude":"102.19222220","name":"Tsagaansurvaga"},{"id":"1590080","latitude":"43.60083330","longitude":"102.19222220","name":"Tsagaan Suwraga Hural"},{"id":"1590084","latitude":"43.16666670","longitude":"107.15000000","name":"Tsagaan Tologoy Hiid"},{"id":"1590092","latitude":"41.98333330","longitude":"103.25000000","name":"Tsagaan Ulaan S\ufffdme"},{"id":"1590095","latitude":"41.98333330","longitude":"103.25000000","name":"Tsagaan Uulaiin S\ufffdme"},{"id":"1590124","latitude":"43.35000000","longitude":"103.16666670","name":"Tsagan derisuni khural"},{"id":"1590139","latitude":"43.20000000","longitude":"107.20000000","name":"Tsagan Khamar"},{"id":"1590157","latitude":"43.05000000","longitude":"101.21666670","name":"Tsagan suburga khural"},{"id":"1590158","latitude":"43.60083330","longitude":"102.19222220","name":"Tsagan-Suburgani-Khural"},{"id":"1590164","latitude":"43.16666670","longitude":"107.15000000","name":"Tsagan tologoy khid"},{"id":"1590171","latitude":"41.98333330","longitude":"103.25000000","name":"Tsagan Ulain Sume"},{"id":"1590175","latitude":"41.98333330","longitude":"103.25000000","name":"Tsagan-Ulyn-Sume"},{"id":"1590286","latitude":"43.69722220","longitude":"105.73638890","name":"Tsetsen Sume"},{"id":"1590309","latitude":"43.69722220","longitude":"105.73638890","name":"Tsetsey sumu"},{"id":"1590310","latitude":"43.69722220","longitude":"105.73638890","name":"Tsetsey"},{"id":"1590321","latitude":"43.69722220","longitude":"105.73638890","name":"Tsogto Tsetsey Suma"},{"id":"1590322","latitude":"44.43333330","longitude":"105.33333330","name":"Tsogt-Ovoo"},{"id":"1590323","latitude":"44.43333330","longitude":"105.33333330","name":"Tsogt-Owoo"},{"id":"1590324","latitude":"43.08333330","longitude":"107.45000000","name":"Tsogtsol S\ufffdme"},{"id":"1590325","latitude":"43.69722220","longitude":"105.73638890","name":"Tsogt-Tsetsey"},{"id":"1590326","latitude":"43.69722220","longitude":"105.73638890","name":"Tsogttsetsi\ufffd"},{"id":"1590327","latitude":"43.69722220","longitude":"105.73638890","name":"Tsogttsetsiy"},{"id":"1590335","latitude":"43.69722220","longitude":"105.73638890","name":"Tsogtu Tsetsey Somon"},{"id":"1590336","latitude":"43.69722220","longitude":"105.73638890","name":"Tsogtu-Tsetsey"},{"id":"1590337","latitude":"43.69722220","longitude":"105.73638890","name":"Tsogtu Tsetsi"},{"id":"1590340","latitude":"43.66666670","longitude":"107.21666670","name":"Tsohyootayn Hiid"},{"id":"1590341","latitude":"43.66666670","longitude":"107.21666670","name":"Tsohyootoyn Hiid"},{"id":"1590342","latitude":"43.66666670","longitude":"107.21666670","name":"Tsokhiotuin khid"},{"id":"1590343","latitude":"43.66666670","longitude":"107.21666670","name":"Tsokhiotuyn Khid"},{"id":"1590363","latitude":"43.31277780","longitude":"104.08444440","name":"Tsoohor"},{"id":"1590622","latitude":"42.27250000","longitude":"105.19638890","name":"Ulaan ergi hural"},{"id":"1590623","latitude":"42.27250000","longitude":"105.19638890","name":"Ulaan Ergiin Hural"},{"id":"1590674","latitude":"42.27250000","longitude":"105.19638890","name":"Ulan ergiin-khural"},{"id":"1590675","latitude":"42.27250000","longitude":"105.19638890","name":"Ulan ergiyn khural"},{"id":"1590676","latitude":"42.27250000","longitude":"105.19638890","name":"Ulan-Ergyn-Khural"},{"id":"1590677","latitude":"42.27250000","longitude":"105.19638890","name":"Ulan ergyyn khural"},{"id":"1590764","latitude":"43.31277780","longitude":"104.08444440","name":"\ufffdnd\ufffdr h\ufffdrme'iin sumu"},{"id":"1590767","latitude":"43.31277780","longitude":"104.08444440","name":"Undur Khurmein Sume"},{"id":"1590841","latitude":"44.65000000","longitude":"104.06666670","name":"Urto Shara-kholosu"},{"id":"1590854","latitude":"43.25000000","longitude":"101.08333330","name":"Urt"},{"id":"1590887","latitude":"44.16666670","longitude":"104.50000000","name":"\ufffdydzen \ufffdrt\ufffd\ufffd"},{"id":"1590888","latitude":"44.16666670","longitude":"104.50000000","name":"\ufffdydzen"},{"id":"1590889","latitude":"44.08333330","longitude":"106.83333330","name":"\ufffdydzin"},{"id":"1590900","latitude":"44.16666670","longitude":"104.50000000","name":"Uytszen Urto"},{"id":"1590901","latitude":"44.16666670","longitude":"104.50000000","name":"Uytszen yurt"},{"id":"1590902","latitude":"43.49000000","longitude":"103.52444440","name":"Vaishinte"}]