[{"id":"1585090","latitude":"47.90000000","longitude":"107.00000000","name":"Amogolambu"},{"id":"1585091","latitude":"47.90000000","longitude":"107.00000000","name":"Amogolang-batur"},{"id":"1585096","latitude":"47.90000000","longitude":"107.00000000","name":"Amologan-Bator"},{"id":"1585504","latitude":"47.81666670","longitude":"107.16666670","name":"Bayan Djurkhe Sume"},{"id":"1585518","latitude":"47.81666670","longitude":"107.16666670","name":"Bayan-Dzhirukhe-Sumu"},{"id":"1585520","latitude":"47.81666670","longitude":"107.16666670","name":"Bayandz\ufffdrh"},{"id":"1585523","latitude":"47.81666670","longitude":"107.16666670","name":"Bayan dz\ufffdrihe"},{"id":"1585526","latitude":"47.81666670","longitude":"107.16666670","name":"Bayan Dz\ufffdrihe Suma"},{"id":"1585528","latitude":"47.81666670","longitude":"107.16666670","name":"Bayan dz\ufffdrihe sumu"},{"id":"1585541","latitude":"48.08333330","longitude":"107.08333330","name":"Bayan Goliin Dugang"},{"id":"1585550","latitude":"48.08333330","longitude":"107.08333330","name":"Bayan-golyyn dugang"},{"id":"1585681","latitude":"47.81666670","longitude":"107.16666670","name":"Bayan Tszurikhe Somon"},{"id":"1585682","latitude":"47.81666670","longitude":"107.16666670","name":"Bayan-Tszuri-Somon"},{"id":"1585740","latitude":"47.78333330","longitude":"106.61666670","name":"Bayartayn Hiid"},{"id":"1585741","latitude":"47.78333330","longitude":"106.61666670","name":"Bayartayn-Hiyd"},{"id":"1585742","latitude":"47.78333330","longitude":"106.61666670","name":"Bayartuin Khid"},{"id":"1585743","latitude":"47.78333330","longitude":"106.61666670","name":"Bayartuyn Khid"},{"id":"1585861","latitude":"47.83333330","longitude":"107.00000000","name":"Bogdain Khid"},{"id":"1585867","latitude":"47.83333330","longitude":"107.00000000","name":"Bogdoiin Hiid"},{"id":"1586126","latitude":"48.08333330","longitude":"106.53333330","name":"Burhanta"},{"id":"1586165","latitude":"48.08333330","longitude":"106.53333330","name":"Burkhant\ufffd"},{"id":"1586167","latitude":"48.08333330","longitude":"106.53333330","name":"Burkhanty"},{"id":"1586373","latitude":"47.91666670","longitude":"106.91666670","name":"Da H\ufffdryee"},{"id":"1586375","latitude":"47.91666670","longitude":"106.91666670","name":"Da Khure"},{"id":"1586376","latitude":"47.91666670","longitude":"106.91666670","name":"Da-Kure"},{"id":"1586425","latitude":"47.98333330","longitude":"106.91666670","name":"Damba Darajayn Hiid"},{"id":"1586426","latitude":"47.98333330","longitude":"106.91666670","name":"Damba Darajayn Hiyd"},{"id":"1586427","latitude":"47.98333330","longitude":"106.91666670","name":"Damba Daruzhain Khid"},{"id":"1586428","latitude":"47.98333330","longitude":"106.91666670","name":"Damba daruzhayn khid"},{"id":"1586701","latitude":"47.78333330","longitude":"106.85000000","name":"Dologon"},{"id":"1586702","latitude":"47.78333330","longitude":"106.85000000","name":"Dolon"},{"id":"1586709","latitude":"47.78333330","longitude":"106.85000000","name":"Doloon"},{"id":"1586720","latitude":"47.78333330","longitude":"106.85000000","name":"Dolun"},{"id":"1586728","latitude":"47.78333330","longitude":"106.85000000","name":"Doow Luen"},{"id":"1586742","latitude":"47.78333330","longitude":"106.85000000","name":"Doron"},{"id":"1586746","latitude":"47.78333330","longitude":"106.85000000","name":"Dosu Luen"},{"id":"1586766","latitude":"47.88333330","longitude":"107.06666670","name":"Dugang S\ufffdme"},{"id":"1586980","latitude":"47.78333330","longitude":"106.85000000","name":"Dzuunmod"},{"id":"1586984","latitude":"48.01666670","longitude":"106.83333330","name":"Dz\ufffd\ufffdn Salaanii Dugan"},{"id":"1586985","latitude":"48.01666670","longitude":"106.83333330","name":"Dz\ufffd\ufffdn Salaanii Dugang"},{"id":"1587020","latitude":"47.81666670","longitude":"107.16666670","name":"Engershand"},{"id":"1587145","latitude":"47.93333330","longitude":"107.16666670","name":"Gachuunt"},{"id":"1587146","latitude":"47.93333330","longitude":"107.16666670","name":"Gachuurt"},{"id":"1587195","latitude":"47.91666670","longitude":"107.25000000","name":"Gatsuurt"},{"id":"1587866","latitude":"47.83333330","longitude":"107.50000000","name":"Iolain khural"},{"id":"1588441","latitude":"47.91666670","longitude":"106.91666670","name":"K'u-lun"},{"id":"1588595","latitude":"47.90000000","longitude":"107.00000000","name":"Maimachen"},{"id":"1588596","latitude":"47.90000000","longitude":"107.00000000","name":"Maimachin"},{"id":"1588598","latitude":"47.90000000","longitude":"107.00000000","name":"Maimaicheng"},{"id":"1588695","latitude":"47.90000000","longitude":"107.00000000","name":"Maymachen"},{"id":"1588798","latitude":"48.21666670","longitude":"106.73333330","name":"Muhariin Den"},{"id":"1588804","latitude":"48.21666670","longitude":"106.73333330","name":"Mukhryyn Dyan"},{"id":"1588810","latitude":"48.21666670","longitude":"106.73333330","name":"Mukhuryyn-Dyan"},{"id":"1588853","latitude":"47.76666670","longitude":"107.28333330","name":"Na-lai-ha"},{"id":"1588854","latitude":"47.76666670","longitude":"107.28333330","name":"Nalaikha"},{"id":"1588855","latitude":"47.76666670","longitude":"107.28333330","name":"Nala\ufffdkh"},{"id":"1588857","latitude":"47.76666670","longitude":"107.28333330","name":"Nalayha"},{"id":"1588858","latitude":"47.76666670","longitude":"107.28333330","name":"Nalayh"},{"id":"1588859","latitude":"47.76666670","longitude":"107.28333330","name":"Nalaykha"},{"id":"1588860","latitude":"47.76666670","longitude":"107.28333330","name":"Nalaykhu"},{"id":"1588883","latitude":"47.76666670","longitude":"107.28333330","name":"Naraiha"},{"id":"1588920","latitude":"48.21666670","longitude":"106.61666670","name":"Nariin Murii"},{"id":"1589162","latitude":"47.90000000","longitude":"107.00000000","name":"Omolgon Baatar"},{"id":"1589226","latitude":"47.91666670","longitude":"106.91666670","name":"\ufffdrg\ufffd\ufffd"},{"id":"1589254","latitude":"47.91666670","longitude":"106.91666670","name":"Ourga"},{"id":"1589274","latitude":"48.16666670","longitude":"106.66666670","name":"Partidzan\ufffd Negdel"},{"id":"1589482","latitude":"47.78333330","longitude":"106.85000000","name":"Sergeleng"},{"id":"1589483","latitude":"47.78333330","longitude":"106.85000000","name":"Sergeleng Suma"},{"id":"1589486","latitude":"47.78333330","longitude":"106.85000000","name":"Sergelen"},{"id":"1589487","latitude":"47.78333330","longitude":"106.85000000","name":"Serg\ufffdleng"},{"id":"1589488","latitude":"47.78333330","longitude":"106.85000000","name":"Serguleng Sumu"},{"id":"1589489","latitude":"47.78333330","longitude":"106.85000000","name":"Sergulen Somon"},{"id":"1589515","latitude":"48.01666670","longitude":"106.90000000","name":"Shadablingi Hiid"},{"id":"1589516","latitude":"48.01666670","longitude":"106.90000000","name":"Shadablingi-Khid"},{"id":"1589517","latitude":"48.01666670","longitude":"106.90000000","name":"Shaddbling Khid"},{"id":"1589536","latitude":"47.88333330","longitude":"106.60000000","name":"Shara-H\ufffdbiin-Dugang"},{"id":"1589537","latitude":"47.88333330","longitude":"106.60000000","name":"Shara-H\ufffdbiin-Dugan"},{"id":"1589542","latitude":"47.88333330","longitude":"106.60000000","name":"Shara Khuboin Dugang"},{"id":"1589543","latitude":"47.88333330","longitude":"106.60000000","name":"Shara Khubyin dugang"},{"id":"1589544","latitude":"47.88333330","longitude":"106.60000000","name":"Shara khubyyn dugang"},{"id":"1589558","latitude":"48.06666670","longitude":"106.90000000","name":"Sharga Moritoyn Dyan"},{"id":"1589665","latitude":"47.83333330","longitude":"106.68333330","name":"Songiin"},{"id":"1589683","latitude":"48.21666670","longitude":"106.73333330","name":"Stanok Mukhuryyn-Dyan"},{"id":"1589684","latitude":"48.06666670","longitude":"106.90000000","name":"Stanok Sharaganorituin Dyan"},{"id":"1589685","latitude":"48.15000000","longitude":"106.90000000","name":"Stanok Tsagan-Guin-Dyan"},{"id":"1589962","latitude":"47.83333330","longitude":"107.50000000","name":"Tolain Khural"},{"id":"1589978","latitude":"47.78333330","longitude":"106.85000000","name":"To-lung"},{"id":"1589979","latitude":"47.78333330","longitude":"106.85000000","name":"To-lun"},{"id":"1589997","latitude":"47.90000000","longitude":"107.08333330","name":"Torhurah"},{"id":"1590050","latitude":"48.15000000","longitude":"106.90000000","name":"Tsagaan G\ufffdyn Den"},{"id":"1590319","latitude":"48.13333330","longitude":"106.65000000","name":"Tsogt-\ufffdnd\ufffdr"},{"id":"1590413","latitude":"48.01666670","longitude":"106.83333330","name":"Tszun salanyy dugang"},{"id":"1590602","latitude":"47.91666670","longitude":"106.91666670","name":"Ulaan Baatar Hoto"},{"id":"1590603","latitude":"47.91666670","longitude":"106.91666670","name":"Ulaanbaatar"},{"id":"1590604","latitude":"47.91666670","longitude":"106.91666670","name":"Ulaanbaator hota"},{"id":"1590605","latitude":"47.91666670","longitude":"106.91666670","name":"Ulaanbaator"},{"id":"1590606","latitude":"47.91666670","longitude":"106.91666670","name":"Ulaanbaatur"},{"id":"1590664","latitude":"47.91666670","longitude":"106.91666670","name":"Ulan Bator Hoto"},{"id":"1590665","latitude":"47.91666670","longitude":"106.91666670","name":"Ulan-Bator Khoto"},{"id":"1590666","latitude":"47.91666670","longitude":"106.91666670","name":"Ulan Bator"},{"id":"1590802","latitude":"47.91666670","longitude":"106.91666670","name":"Uranbatoru"},{"id":"1590811","latitude":"47.91666670","longitude":"106.91666670","name":"Urga"},{"id":"1590829","latitude":"47.78333330","longitude":"106.85000000","name":"Urto Dolon"},{"id":"1590858","latitude":"47.91666670","longitude":"106.91666670","name":"Uruga"},{"id":"1590950","latitude":"47.83333330","longitude":"107.50000000","name":"Yoliin Hural"}]