[{"id":"1594920","latitude":"-12.56666670","longitude":"33.45000000","name":"Alamu"},{"id":"1594927","latitude":"-12.68333330","longitude":"33.66666670","name":"Alikishani"},{"id":"1594932","latitude":"-12.76666670","longitude":"33.36666670","name":"Amazi"},{"id":"1594937","latitude":"-13.18333330","longitude":"33.58333330","name":"Amonis"},{"id":"1594939","latitude":"-13.11666670","longitude":"33.46666670","name":"Amos Zakocera"},{"id":"1594961","latitude":"-12.63333330","longitude":"33.66666670","name":"Banda"},{"id":"1594969","latitude":"-12.55000000","longitude":"33.41666670","name":"Bango"},{"id":"1594973","latitude":"-13.11666670","longitude":"33.53333330","name":"Bano"},{"id":"1594982","latitude":"-12.55000000","longitude":"33.38333330","name":"Bechani"},{"id":"1594989","latitude":"-12.75000000","longitude":"33.55000000","name":"Benula"},{"id":"1594994","latitude":"-13.05000000","longitude":"33.38333330","name":"Bilale"},{"id":"1595016","latitude":"-12.60000000","longitude":"33.40000000","name":"Bokosi"},{"id":"1595020","latitude":"-12.73333330","longitude":"33.65000000","name":"Bomombo"},{"id":"1595022","latitude":"-12.90000000","longitude":"33.78333330","name":"Bondo"},{"id":"1595029","latitude":"-12.50000000","longitude":"33.51666670","name":"Boni"},{"id":"1595039","latitude":"-12.80000000","longitude":"33.38333330","name":"Buku"},{"id":"1595054","latitude":"-13.11666670","longitude":"33.50000000","name":"Bwanali"},{"id":"1595064","latitude":"-13.25000000","longitude":"33.61666670","name":"Bweya"},{"id":"1595072","latitude":"-12.88333330","longitude":"33.31666670","name":"Cafwamba"},{"id":"1595073","latitude":"-12.95000000","longitude":"33.51666670","name":"Cagweluka"},{"id":"1595076","latitude":"-12.55000000","longitude":"33.51666670","name":"Cakuzizwa"},{"id":"1595077","latitude":"-12.50000000","longitude":"33.61666670","name":"Cakwanika"},{"id":"1595078","latitude":"-12.76666670","longitude":"33.40000000","name":"Cakwawa"},{"id":"1595079","latitude":"-12.60000000","longitude":"33.30000000","name":"Cakwila"},{"id":"1595080","latitude":"-12.90000000","longitude":"33.55000000","name":"Camama"},{"id":"1595082","latitude":"-12.56666670","longitude":"33.35000000","name":"Cambalekani"},{"id":"1595083","latitude":"-12.76666670","longitude":"33.38333330","name":"Caola"},{"id":"1595084","latitude":"-12.83333330","longitude":"33.80000000","name":"Capamba"},{"id":"1595086","latitude":"-12.58333330","longitude":"33.30000000","name":"Caphuka"},{"id":"1595089","latitude":"-12.70000000","longitude":"33.60000000","name":"Capwawa"},{"id":"1595094","latitude":"-12.81666670","longitude":"33.35000000","name":"Cavunguma"},{"id":"1595095","latitude":"-12.73333330","longitude":"33.46666670","name":"Cavura"},{"id":"1595096","latitude":"-12.80000000","longitude":"33.68333330","name":"Cavwelema"},{"id":"1595099","latitude":"-12.73333330","longitude":"33.40000000","name":"Cawola"},{"id":"1595115","latitude":"-12.78333330","longitude":"33.50000000","name":"Chafukira"},{"id":"1595124","latitude":"-13.31666670","longitude":"33.48333330","name":"Chaima"},{"id":"1595132","latitude":"-13.31666670","longitude":"33.50000000","name":"Chakhala"},{"id":"1595133","latitude":"-13.31666670","longitude":"33.33333330","name":"Chakhala II"},{"id":"1595139","latitude":"-13.18333330","longitude":"33.66666670","name":"Chakongwa"},{"id":"1595157","latitude":"-12.75000000","longitude":"33.46666670","name":"Chamakala"},{"id":"1595158","latitude":"-12.93333330","longitude":"33.80000000","name":"Chamama"},{"id":"1595171","latitude":"-13.20000000","longitude":"33.65000000","name":"Chambwe"},{"id":"1595175","latitude":"-13.35000000","longitude":"33.41666670","name":"Chamkoma"},{"id":"1595192","latitude":"-13.21666670","longitude":"33.35000000","name":"Changaluwa"},{"id":"1595216","latitude":"-13.31666670","longitude":"33.55000000","name":"Chapuwala"},{"id":"1595227","latitude":"-13.31666670","longitude":"33.48333330","name":"Chatalala"},{"id":"1595241","latitude":"-12.81666670","longitude":"33.63333330","name":"Chavura"},{"id":"1595280","latitude":"-12.98333330","longitude":"33.45000000","name":"Chibisa"},{"id":"1595288","latitude":"-13.13333330","longitude":"33.45000000","name":"Chibunyu"},{"id":"1595307","latitude":"-13.30000000","longitude":"33.23333330","name":"Chiderezi"},{"id":"1595342","latitude":"-13.28333330","longitude":"33.55000000","name":"Chika"},{"id":"1595345","latitude":"-13.15000000","longitude":"33.65000000","name":"Chikalipo"},{"id":"1595346","latitude":"-13.11666670","longitude":"33.73333330","name":"Chikanda"},{"id":"1595394","latitude":"-12.90000000","longitude":"33.83333330","name":"Chikunguntheni"},{"id":"1595404","latitude":"-13.16666670","longitude":"33.70000000","name":"Chikwakwa"},{"id":"1595413","latitude":"-12.76666670","longitude":"33.51666670","name":"Chikweze"},{"id":"1595419","latitude":"-13.01666670","longitude":"33.50000000","name":"Chilanga"},{"id":"1595441","latitude":"-13.11666670","longitude":"33.60000000","name":"Chilindira"},{"id":"1595443","latitude":"-13.33333330","longitude":"33.46666670","name":"Chilinkoli"},{"id":"1595445","latitude":"-13.10000000","longitude":"33.50000000","name":"Chiloa"},{"id":"1595447","latitude":"-13.08333330","longitude":"33.51666670","name":"Chiloa Matambe"},{"id":"1595448","latitude":"-13.10000000","longitude":"33.50000000","name":"Chiloa Nyilonga"},{"id":"1595466","latitude":"-13.11666670","longitude":"33.71666670","name":"Chima"},{"id":"1595491","latitude":"-13.03333330","longitude":"33.78333330","name":"Chimbonga"},{"id":"1595503","latitude":"-13.28333330","longitude":"33.35000000","name":"Chimelela"},{"id":"1595509","latitude":"-12.90000000","longitude":"33.70000000","name":"Chimkoka"},{"id":"1595514","latitude":"-13.13333330","longitude":"33.63333330","name":"Chimndulu"},{"id":"1595524","latitude":"-13.06666670","longitude":"33.58333330","name":"Chimpamba"},{"id":"1595534","latitude":"-13.05000000","longitude":"33.68333330","name":"Chimphepo"},{"id":"1595535","latitude":"-13.18333330","longitude":"33.68333330","name":"Chimphithi"},{"id":"1595545","latitude":"-12.88333330","longitude":"33.83333330","name":"Chimutha"},{"id":"1595556","latitude":"-13.30000000","longitude":"33.48333330","name":"Chimwara"},{"id":"1595558","latitude":"-13.16666670","longitude":"33.56666670","name":"Chimwaye"},{"id":"1595560","latitude":"-12.93333330","longitude":"33.48333330","name":"Chimwendo"},{"id":"1595566","latitude":"-12.55000000","longitude":"33.41666670","name":"Chimzinga"},{"id":"1595568","latitude":"-12.56666670","longitude":"33.31666670","name":"China"},{"id":"1595569","latitude":"-13.31666670","longitude":"33.43333330","name":"Chinamule"},{"id":"1595583","latitude":"-13.23333330","longitude":"33.55000000","name":"Chinduta"},{"id":"1595584","latitude":"-13.11666670","longitude":"33.46666670","name":"Chinduwe"},{"id":"1595585","latitude":"-13.05000000","longitude":"33.66666670","name":"Chinemba"},{"id":"1595617","latitude":"-13.21666670","longitude":"33.51666670","name":"Chinkhoma"},{"id":"1595635","latitude":"-13.06666670","longitude":"33.63333330","name":"Chinsowa"},{"id":"1595654","latitude":"-13.01666670","longitude":"33.68333330","name":"Chinyama"},{"id":"1595656","latitude":"-13.06666670","longitude":"33.43333330","name":"Chinyamunyamu"},{"id":"1595679","latitude":"-13.06666670","longitude":"33.51666670","name":"Chipaso"},{"id":"1595683","latitude":"-13.11666670","longitude":"33.46666670","name":"Chipekwe"},{"id":"1595684","latitude":"-13.03333330","longitude":"33.51666670","name":"Chipembere"},{"id":"1595695","latitude":"-13.21666670","longitude":"33.51666670","name":"Chiphapi"},{"id":"1595703","latitude":"-13.21666670","longitude":"33.53333330","name":"Chipokolo"},{"id":"1595713","latitude":"-13.08333330","longitude":"33.43333330","name":"Chiponde"},{"id":"1595717","latitude":"-13.43333330","longitude":"33.38333330","name":"Chipoza"},{"id":"1595726","latitude":"-12.83333330","longitude":"33.43333330","name":"Chipwaila"},{"id":"1595747","latitude":"-12.65000000","longitude":"33.51666670","name":"Chirwa"},{"id":"1595748","latitude":"-13.05000000","longitude":"33.65000000","name":"Chisa"},{"id":"1595751","latitude":"-13.10000000","longitude":"33.43333330","name":"Chisambilo"},{"id":"1595759","latitude":"-13.28333330","longitude":"33.55000000","name":"Chiseko"},{"id":"1595762","latitude":"-12.61666670","longitude":"33.51666670","name":"Chisempere"},{"id":"1595763","latitude":"-12.61666670","longitude":"33.51666670","name":"Chisemphere"},{"id":"1595767","latitude":"-13.16666670","longitude":"33.56666670","name":"Chisepo"},{"id":"1595803","latitude":"-13.05000000","longitude":"33.50000000","name":"Chiteyeye"},{"id":"1595805","latitude":"-12.83333330","longitude":"33.78333330","name":"Chithumba"},{"id":"1595814","latitude":"-13.28333330","longitude":"33.53333330","name":"Chitseko"},{"id":"1595815","latitude":"-13.15000000","longitude":"33.70000000","name":"Chitsulo"},{"id":"1595816","latitude":"-12.98333330","longitude":"33.80000000","name":"Chitsulu"},{"id":"1595831","latitude":"-13.18333330","longitude":"33.58333330","name":"Chiutsi"},{"id":"1595835","latitude":"-13.18333330","longitude":"33.51666670","name":"Chivimya"},{"id":"1595860","latitude":"-13.11666670","longitude":"33.53333330","name":"Chiwengo"},{"id":"1595862","latitude":"-13.03333330","longitude":"33.53333330","name":"Chiwerera"},{"id":"1595898","latitude":"-13.33333330","longitude":"33.36666670","name":"Chomola"},{"id":"1595905","latitude":"-12.81666670","longitude":"33.30000000","name":"Chulu"},{"id":"1595911","latitude":"-13.30000000","longitude":"33.51666670","name":"Chungu"},{"id":"1595916","latitude":"-13.33333330","longitude":"33.40000000","name":"Chuzu"},{"id":"1595918","latitude":"-12.53333330","longitude":"33.53333330","name":"Cibojora"},{"id":"1595925","latitude":"-12.61666670","longitude":"33.33333330","name":"Ciekwete"},{"id":"1595926","latitude":"-12.71666670","longitude":"33.35000000","name":"Cigadula"},{"id":"1595930","latitude":"-12.56666670","longitude":"33.41666670","name":"Cikanakuva"},{"id":"1595932","latitude":"-12.53333330","longitude":"33.66666670","name":"Cikhangeni"},{"id":"1595938","latitude":"-12.53333330","longitude":"33.50000000","name":"Cikoya"},{"id":"1595939","latitude":"-12.95000000","longitude":"33.38333330","name":"Cikukula"},{"id":"1595940","latitude":"-12.76666670","longitude":"33.68333330","name":"Cikula"},{"id":"1595942","latitude":"-12.61666670","longitude":"33.30000000","name":"Cikwengwe"},{"id":"1595943","latitude":"-12.90000000","longitude":"33.43333330","name":"Cikwesa"},{"id":"1595946","latitude":"-12.81666670","longitude":"33.33333330","name":"Cilembwe"},{"id":"1595948","latitude":"-12.90000000","longitude":"33.70000000","name":"Cimbayo"},{"id":"1595949","latitude":"-12.60000000","longitude":"33.46666670","name":"Cimbiranjara"},{"id":"1595950","latitude":"-12.85000000","longitude":"33.65000000","name":"Cimbiya"},{"id":"1595951","latitude":"-12.68333330","longitude":"33.28333330","name":"Cimbuli"},{"id":"1595952","latitude":"-12.70000000","longitude":"33.60000000","name":"Cimcimba"},{"id":"1595954","latitude":"-12.90000000","longitude":"33.68333330","name":"Cimdidi"},{"id":"1595959","latitude":"-12.63333330","longitude":"33.30000000","name":"Cimombo"},{"id":"1595961","latitude":"-12.58333330","longitude":"33.46666670","name":"Cimtake"},{"id":"1595965","latitude":"-12.83333330","longitude":"33.66666670","name":"Cimwala"},{"id":"1595973","latitude":"-12.63333330","longitude":"33.45000000","name":"Cinjoka"},{"id":"1595974","latitude":"-12.56666670","longitude":"33.35000000","name":"Cinjunju"},{"id":"1595975","latitude":"-12.91666670","longitude":"33.40000000","name":"Cinkholongo"},{"id":"1595980","latitude":"-12.71666670","longitude":"33.30000000","name":"Cinyanga"},{"id":"1595982","latitude":"-12.68333330","longitude":"33.66666670","name":"Cipeta"},{"id":"1595983","latitude":"-12.81666670","longitude":"33.33333330","name":"Cipevya"},{"id":"1595985","latitude":"-12.80000000","longitude":"33.31666670","name":"Cipolopolo"},{"id":"1595987","latitude":"-12.66666670","longitude":"33.46666670","name":"Cipuku"},{"id":"1595988","latitude":"-12.66666670","longitude":"33.30000000","name":"Cipwaila"},{"id":"1595991","latitude":"-12.96666670","longitude":"33.48333330","name":"Cisazima"},{"id":"1595992","latitude":"-12.86666670","longitude":"33.36666670","name":"Ciseka"},{"id":"1595995","latitude":"-12.61666670","longitude":"33.33333330","name":"Cisinga"},{"id":"1595996","latitude":"-12.71666670","longitude":"33.30000000","name":"Cisokwe"},{"id":"1595997","latitude":"-12.88333330","longitude":"33.35000000","name":"Cisuwula"},{"id":"1595998","latitude":"-12.58333330","longitude":"33.48333330","name":"Citoneka"},{"id":"1596003","latitude":"-13.43333330","longitude":"33.36666670","name":"Ciwadzi"},{"id":"1596004","latitude":"-12.91666670","longitude":"33.40000000","name":"Ciwale"},{"id":"1596006","latitude":"-12.65000000","longitude":"33.66666670","name":"Ciwandauka"},{"id":"1596008","latitude":"-12.98333330","longitude":"33.38333330","name":"Ciwekeka"},{"id":"1596009","latitude":"-12.56666670","longitude":"33.46666670","name":"Ciwela"},{"id":"1596010","latitude":"-12.95000000","longitude":"33.60000000","name":"Ciwera"},{"id":"1596012","latitude":"-12.76666670","longitude":"33.68333330","name":"Ciwotha"},{"id":"1596013","latitude":"-12.88333330","longitude":"33.33333330","name":"Ciwoza"},{"id":"1596015","latitude":"-12.68333330","longitude":"33.46666670","name":"Ciwumnya"},{"id":"1596017","latitude":"-12.68333330","longitude":"33.46666670","name":"Cizungu"},{"id":"1596019","latitude":"-12.73333330","longitude":"33.65000000","name":"Combe"},{"id":"1596029","latitude":"-13.21666670","longitude":"33.66666670","name":"Dambalika"},{"id":"1596050","latitude":"-12.93333330","longitude":"33.51666670","name":"Dawa"},{"id":"1596054","latitude":"-12.56666670","longitude":"33.31666670","name":"Deleleka"},{"id":"1596055","latitude":"-12.48333330","longitude":"33.61666670","name":"Deni"},{"id":"1596058","latitude":"-12.75000000","longitude":"33.55000000","name":"Devwe"},{"id":"1596068","latitude":"-12.75000000","longitude":"33.55000000","name":"Doka"},{"id":"1596075","latitude":"-12.63333330","longitude":"33.31666670","name":"Dowoko"},{"id":"1596077","latitude":"-12.58333330","longitude":"33.33333330","name":"Dudu"},{"id":"1596079","latitude":"-12.73333330","longitude":"33.38333330","name":"Dumanika"},{"id":"1596113","latitude":"-12.60000000","longitude":"33.58333330","name":"Emfeni"},{"id":"1596136","latitude":"-13.11666670","longitude":"33.66666670","name":"Fisi"},{"id":"1596145","latitude":"-13.33333330","longitude":"33.41666670","name":"Foo"},{"id":"1596152","latitude":"-12.90000000","longitude":"33.71666670","name":"Fowodenge"},{"id":"1596153","latitude":"-12.93333330","longitude":"33.73333330","name":"Fowo"},{"id":"1596160","latitude":"-12.63333330","longitude":"33.66666670","name":"Fumozose"},{"id":"1596162","latitude":"-12.98333330","longitude":"33.76666670","name":"Fungwe"},{"id":"1596164","latitude":"-12.65000000","longitude":"33.66666670","name":"Funwayo"},{"id":"1596165","latitude":"-12.75000000","longitude":"33.75000000","name":"Fwifwi"},{"id":"1596168","latitude":"-12.66666670","longitude":"33.35000000","name":"Gaga"},{"id":"1596172","latitude":"-12.93333330","longitude":"33.36666670","name":"Galika"},{"id":"1596185","latitude":"-12.70000000","longitude":"33.66666670","name":"Geremani"},{"id":"1596190","latitude":"-13.06666670","longitude":"33.51666670","name":"Gideon"},{"id":"1596193","latitude":"-12.63333330","longitude":"33.65000000","name":"Gidioni"},{"id":"1596194","latitude":"-12.61666670","longitude":"33.33333330","name":"Gilipa"},{"id":"1596195","latitude":"-13.35000000","longitude":"33.53333330","name":"Gobedi"},{"id":"1596199","latitude":"-12.88333330","longitude":"33.56666670","name":"Gogode"},{"id":"1596214","latitude":"-12.81666670","longitude":"33.31666670","name":"Gonekeni"},{"id":"1596231","latitude":"-12.90000000","longitude":"33.43333330","name":"Guma"},{"id":"1596235","latitude":"-13.08333330","longitude":"33.50000000","name":"Gumba"},{"id":"1596239","latitude":"-12.73333330","longitude":"33.70000000","name":"Gumbo"},{"id":"1596243","latitude":"-13.05000000","longitude":"33.50000000","name":"Gundani"},{"id":"1596251","latitude":"-12.91666670","longitude":"33.70000000","name":"Gwamba"},{"id":"1596261","latitude":"-13.21666670","longitude":"33.50000000","name":"Gwesele"},{"id":"1596266","latitude":"-12.50000000","longitude":"33.56666670","name":"Hangeni"},{"id":"1596267","latitude":"-12.81666670","longitude":"33.60000000","name":"Hango"},{"id":"1596295","latitude":"-13.03333330","longitude":"33.43333330","name":"Jalangombe"},{"id":"1596310","latitude":"-13.01666670","longitude":"33.51666670","name":"Jandalala"},{"id":"1596317","latitude":"-12.81666670","longitude":"33.43333330","name":"Jembe"},{"id":"1596318","latitude":"-12.53333330","longitude":"33.41666670","name":"Jemsi"},{"id":"1596325","latitude":"-12.63333330","longitude":"33.40000000","name":"Jere"},{"id":"1596336","latitude":"-13.33333330","longitude":"33.51666670","name":"Jim"},{"id":"1596339","latitude":"-12.80000000","longitude":"33.66666670","name":"Jobo"},{"id":"1596346","latitude":"-13.08333330","longitude":"33.50000000","name":"John"},{"id":"1596351","latitude":"-13.06666670","longitude":"33.71666670","name":"Jombe"},{"id":"1596355","latitude":"-12.83333330","longitude":"33.66666670","name":"Jonasi"},{"id":"1596361","latitude":"-12.85000000","longitude":"33.38333330","name":"Joni"},{"id":"1596367","latitude":"-12.73333330","longitude":"33.71666670","name":"Juliasi"},{"id":"1596368","latitude":"-13.03333330","longitude":"33.46666670","name":"Juma"},{"id":"1596370","latitude":"-12.73333330","longitude":"33.71666670","name":"Jumbo"},{"id":"1596372","latitude":"-12.75000000","longitude":"33.58333330","name":"Jumo"},{"id":"1596378","latitude":"-12.56666670","longitude":"33.33333330","name":"Jwanthi"},{"id":"1596387","latitude":"-13.10000000","longitude":"33.40000000","name":"Kabapha"},{"id":"1596400","latitude":"-13.06666670","longitude":"33.50000000","name":"Kabuluzi"},{"id":"1596409","latitude":"-12.71666670","longitude":"33.60000000","name":"Kabwanda"},{"id":"1596416","latitude":"-13.28333330","longitude":"33.58333330","name":"Kachara"},{"id":"1596421","latitude":"-13.13333330","longitude":"33.56666670","name":"Kachelenga"},{"id":"1596422","latitude":"-13.21666670","longitude":"33.60000000","name":"Kachembwe"},{"id":"1596423","latitude":"-13.30000000","longitude":"33.16666670","name":"Kachenje"},{"id":"1596434","latitude":"-12.88333330","longitude":"33.83333330","name":"Kachipande"},{"id":"1596439","latitude":"-13.11666670","longitude":"33.51666670","name":"Kachitsa"},{"id":"1596448","latitude":"-12.66666670","longitude":"33.40000000","name":"Kacimphula"},{"id":"1596449","latitude":"-12.50000000","longitude":"33.43333330","name":"Kacinda"},{"id":"1596459","latitude":"-12.93333330","longitude":"33.66666670","name":"Kadazi"},{"id":"1596467","latitude":"-13.15000000","longitude":"33.61666670","name":"Kadifula"},{"id":"1596469","latitude":"-12.61666670","longitude":"33.43333330","name":"Kadosola"},{"id":"1596473","latitude":"-12.93333330","longitude":"33.36666670","name":"Kadumba"},{"id":"1596477","latitude":"-13.16666670","longitude":"33.68333330","name":"Kadzimete"},{"id":"1596497","latitude":"-12.71666670","longitude":"33.61666670","name":"Kagona"},{"id":"1596506","latitude":"-12.78333330","longitude":"33.31666670","name":"Kaikwinde"},{"id":"1596507","latitude":"-12.48333330","longitude":"33.55000000","name":"Kailole"},{"id":"1596513","latitude":"-12.58333330","longitude":"33.31666670","name":"Kaizwanga"},{"id":"1596522","latitude":"-12.56666670","longitude":"33.50000000","name":"Kajosi"},{"id":"1596525","latitude":"-12.53333330","longitude":"33.45000000","name":"Kajwanthira"},{"id":"1596533","latitude":"-12.78333330","longitude":"33.48333330","name":"Kakowa"},{"id":"1596538","latitude":"-12.48333330","longitude":"33.53333330","name":"Kakwale"},{"id":"1596539","latitude":"-12.50000000","longitude":"33.53333330","name":"Kakware"},{"id":"1596542","latitude":"-12.83333330","longitude":"33.33333330","name":"Kakwesa"},{"id":"1596544","latitude":"-12.81666670","longitude":"33.48333330","name":"Kalaile"},{"id":"1596545","latitude":"-12.58333330","longitude":"33.51666670","name":"Kalaluma"},{"id":"1596555","latitude":"-12.65000000","longitude":"33.73333330","name":"Kalemba"},{"id":"1596563","latitude":"-12.53333330","longitude":"33.51666670","name":"Kalikoka"},{"id":"1596564","latitude":"-12.53333330","longitude":"33.51666670","name":"Kalikoko"},{"id":"1596565","latitude":"-12.88333330","longitude":"33.46666670","name":"Kalikwembe"},{"id":"1596570","latitude":"-12.56666670","longitude":"33.41666670","name":"Kalimadola"},{"id":"1596589","latitude":"-13.35000000","longitude":"33.46666670","name":"Kalonga"},{"id":"1596600","latitude":"-12.58333330","longitude":"33.51666670","name":"Kaluluma"},{"id":"1596613","latitude":"-12.83333330","longitude":"33.41666670","name":"Kaluwa"},{"id":"1596621","latitude":"-12.48333330","longitude":"33.63333330","name":"Kamando"},{"id":"1596640","latitude":"-13.13333330","longitude":"33.63333330","name":"Kambanje"},{"id":"1596641","latitude":"-12.58333330","longitude":"33.55000000","name":"Kambatuwa"},{"id":"1596657","latitude":"-12.80000000","longitude":"33.66666670","name":"Kamcoco"},{"id":"1596658","latitude":"-12.88333330","longitude":"33.45000000","name":"Kamdale"},{"id":"1596659","latitude":"-12.51666670","longitude":"33.46666670","name":"Kamdidi"},{"id":"1596669","latitude":"-12.80000000","longitude":"33.40000000","name":"Kamkoba"},{"id":"1596672","latitude":"-12.90000000","longitude":"33.55000000","name":"Kamkwinya"},{"id":"1596675","latitude":"-12.81666670","longitude":"33.70000000","name":"Kamndalilo"},{"id":"1596681","latitude":"-12.61666670","longitude":"33.45000000","name":"Kampalilo"},{"id":"1596702","latitude":"-13.25000000","longitude":"33.45000000","name":"Kamphuru"},{"id":"1596704","latitude":"-12.63333330","longitude":"33.40000000","name":"Kampinga"},{"id":"1596712","latitude":"-12.48333330","longitude":"33.63333330","name":"Kampupu"},{"id":"1596716","latitude":"-12.91666670","longitude":"33.48333330","name":"Kamtawa"},{"id":"1596720","latitude":"-12.71666670","longitude":"33.60000000","name":"Kamtibule"},{"id":"1596723","latitude":"-12.76666670","longitude":"33.35000000","name":"Kamtuwale"},{"id":"1596725","latitude":"-12.85000000","longitude":"33.35000000","name":"Kamuna"},{"id":"1596726","latitude":"-12.51666670","longitude":"33.45000000","name":"Kamunda"},{"id":"1596730","latitude":"-12.85000000","longitude":"33.35000000","name":"Kamunwe"},{"id":"1596735","latitude":"-13.05000000","longitude":"33.65000000","name":"Kamwala"},{"id":"1596741","latitude":"-12.56666670","longitude":"33.65000000","name":"Kamwenye"},{"id":"1596742","latitude":"-12.76666670","longitude":"33.33333330","name":"Kamzati"},{"id":"1596743","latitude":"-12.58333330","longitude":"33.50000000","name":"Kamzimbi"},{"id":"1596753","latitude":"-13.01666670","longitude":"33.48333330","name":"Kanchembele"},{"id":"1596773","latitude":"-12.55000000","longitude":"33.60000000","name":"Kangawa"},{"id":"1596785","latitude":"-13.06666670","longitude":"33.48333330","name":"Kaninga"},{"id":"1596786","latitude":"-12.60000000","longitude":"33.41666670","name":"Kanitute"},{"id":"1596793","latitude":"-13.08333330","longitude":"33.51666670","name":"Kankhande"},{"id":"1596802","latitude":"-12.63333330","longitude":"33.31666670","name":"Kankwatekuti"},{"id":"1596810","latitude":"-12.81666670","longitude":"33.38333330","name":"Kanthole"},{"id":"1596816","latitude":"-12.80000000","longitude":"33.38333330","name":"Kanyakatifa"},{"id":"1596825","latitude":"-13.13333330","longitude":"33.58333330","name":"Kanyangala"},{"id":"1596828","latitude":"-12.93333330","longitude":"33.38333330","name":"Kanyenda"},{"id":"1596841","latitude":"-12.63333330","longitude":"33.53333330","name":"Kanyinji"},{"id":"1596847","latitude":"-12.85000000","longitude":"33.78333330","name":"Kanyumba"},{"id":"1596848","latitude":"-13.23333330","longitude":"33.53333330","name":"Kanyundo"},{"id":"1596849","latitude":"-12.51666670","longitude":"33.45000000","name":"Kanyunya"},{"id":"1596856","latitude":"-13.11666670","longitude":"33.46666670","name":"Kaombachidzenje"},{"id":"1596857","latitude":"-13.10000000","longitude":"33.50000000","name":"Kaomba"},{"id":"1596859","latitude":"-12.81666670","longitude":"33.55000000","name":"Kaongo"},{"id":"1596861","latitude":"-12.96666670","longitude":"33.38333330","name":"Kapaiza"},{"id":"1596862","latitude":"-12.96666670","longitude":"33.38333330","name":"Kapaizi"},{"id":"1596863","latitude":"-13.38333330","longitude":"33.38333330","name":"Kapala"},{"id":"1596868","latitude":"-12.53333330","longitude":"33.48333330","name":"Kapandula"},{"id":"1596873","latitude":"-13.41666670","longitude":"33.38333330","name":"Kapara"},{"id":"1596875","latitude":"-12.70000000","longitude":"33.38333330","name":"Kapatuka"},{"id":"1596876","latitude":"-12.90000000","longitude":"33.53333330","name":"Kapawala"},{"id":"1596877","latitude":"-12.85000000","longitude":"33.35000000","name":"Kapaza"},{"id":"1596878","latitude":"-12.90000000","longitude":"33.80000000","name":"Kapelula"},{"id":"1596889","latitude":"-12.91666670","longitude":"33.81666670","name":"Kaphene"},{"id":"1596890","latitude":"-12.91666670","longitude":"33.81666670","name":"Kapheni"},{"id":"1596905","latitude":"-12.65000000","longitude":"33.40000000","name":"Kapinga"},{"id":"1596906","latitude":"-13.06666670","longitude":"33.58333330","name":"Kapinya"},{"id":"1596919","latitude":"-12.70000000","longitude":"33.61666670","name":"Kapopo"},{"id":"1596931","latitude":"-12.80000000","longitude":"33.80000000","name":"Kapyanga"},{"id":"1596932","latitude":"-12.95000000","longitude":"33.36666670","name":"Kapyela"},{"id":"1596934","latitude":"-12.58333330","longitude":"33.36666670","name":"Kapyokola"},{"id":"1596935","latitude":"-13.23333330","longitude":"33.60000000","name":"Kapyola"},{"id":"1596955","latitude":"-12.68333330","longitude":"33.46666670","name":"Kasalika"},{"id":"1596961","latitude":"-13.03333330","longitude":"33.50000000","name":"Kasanka"},{"id":"1596963","latitude":"-12.66666670","longitude":"33.45000000","name":"Kaseka"},{"id":"1596968","latitude":"-13.31666670","longitude":"33.43333330","name":"Kasera"},{"id":"1596970","latitude":"-13.28333330","longitude":"33.50000000","name":"Kasese"},{"id":"1596974","latitude":"-12.51666670","longitude":"33.48333330","name":"Kasichi"},{"id":"1596978","latitude":"-12.75000000","longitude":"33.33333330","name":"Kasinja"},{"id":"1596983","latitude":"-12.75000000","longitude":"33.36666670","name":"Kasiyadanga"},{"id":"1596984","latitude":"-12.80000000","longitude":"33.71666670","name":"Kasiya"},{"id":"1596987","latitude":"-12.60000000","longitude":"33.46666670","name":"Kasizika"},{"id":"1596996","latitude":"-13.23333330","longitude":"33.55000000","name":"Kasumba"},{"id":"1597000","latitude":"-13.03333330","longitude":"33.48333330","name":"Kasungu"},{"id":"1597005","latitude":"-12.68333330","longitude":"33.51666670","name":"Kaswanda"},{"id":"1597008","latitude":"-12.81666670","longitude":"33.30000000","name":"Kasyeleka"},{"id":"1597012","latitude":"-12.68333330","longitude":"33.35000000","name":"Katalima"},{"id":"1597022","latitude":"-12.60000000","longitude":"33.30000000","name":"Katantha"},{"id":"1597028","latitude":"-12.71666670","longitude":"33.61666670","name":"Katema"},{"id":"1597038","latitude":"-12.60000000","longitude":"33.33333330","name":"Katete"},{"id":"1597043","latitude":"-13.01666670","longitude":"33.45000000","name":"Kathewela"},{"id":"1597061","latitude":"-12.63333330","longitude":"33.30000000","name":"Katsilizika"},{"id":"1597077","latitude":"-12.60000000","longitude":"33.43333330","name":"Katuwa"},{"id":"1597082","latitude":"-12.66666670","longitude":"33.46666670","name":"Kaulamwene"},{"id":"1597085","latitude":"-12.75000000","longitude":"33.60000000","name":"Kaunda"},{"id":"1597092","latitude":"-13.08333330","longitude":"33.65000000","name":"Kauzagaru"},{"id":"1597099","latitude":"-12.70000000","longitude":"33.66666670","name":"Kawale"},{"id":"1597102","latitude":"-13.30000000","longitude":"33.33333330","name":"Kawamba"},{"id":"1597103","latitude":"-13.30000000","longitude":"33.33333330","name":"Kawamba Misozi"},{"id":"1597106","latitude":"-13.08333330","longitude":"33.43333330","name":"Kawaye"},{"id":"1597111","latitude":"-12.80000000","longitude":"33.58333330","name":"Kaweta"},{"id":"1597120","latitude":"-13.08333330","longitude":"33.41666670","name":"Kayesa"},{"id":"1597122","latitude":"-13.08333330","longitude":"33.71666670","name":"Kayeya"},{"id":"1597131","latitude":"-12.65000000","longitude":"33.70000000","name":"Kazembe"},{"id":"1597136","latitude":"-13.11666670","longitude":"33.60000000","name":"Kazombo"},{"id":"1597140","latitude":"-12.58333330","longitude":"33.50000000","name":"Kelula"},{"id":"1597151","latitude":"-13.30000000","longitude":"33.40000000","name":"Khola"},{"id":"1597152","latitude":"-12.70000000","longitude":"33.36666670","name":"Kholowani"},{"id":"1597154","latitude":"-12.68333330","longitude":"33.33333330","name":"Khombe"},{"id":"1597170","latitude":"-12.83333330","longitude":"33.60000000","name":"Khungwa"},{"id":"1597258","latitude":"-12.88333330","longitude":"33.45000000","name":"Kwengwele"},{"id":"1597275","latitude":"-12.58333330","longitude":"33.60000000","name":"Langeni"},{"id":"1597281","latitude":"-12.50000000","longitude":"33.58333330","name":"Lazalo"},{"id":"1597287","latitude":"-13.11666670","longitude":"33.63333330","name":"Leza"},{"id":"1597314","latitude":"-12.81666670","longitude":"33.66666670","name":"Lingonya"},{"id":"1597317","latitude":"-13.11666670","longitude":"33.28333330","name":"Linyangwa"},{"id":"1597323","latitude":"-13.31666670","longitude":"33.43333330","name":"Lisandwa"},{"id":"1597337","latitude":"-12.48333330","longitude":"33.60000000","name":"Loba"},{"id":"1597342","latitude":"-12.83333330","longitude":"33.31666670","name":"Lombwa"},{"id":"1597345","latitude":"-13.03333330","longitude":"33.66666670","name":"Longwe"},{"id":"1597349","latitude":"-12.68333330","longitude":"33.31666670","name":"Loni"},{"id":"1597360","latitude":"-13.10000000","longitude":"33.45000000","name":"Lukwa"},{"id":"1597371","latitude":"-12.56666670","longitude":"33.43333330","name":"Lungu"},{"id":"1597372","latitude":"-12.88333330","longitude":"33.68333330","name":"Lupafya"},{"id":"1597375","latitude":"-12.63333330","longitude":"33.68333330","name":"Lusale"},{"id":"1597383","latitude":"-12.58333330","longitude":"33.41666670","name":"Luziwa"},{"id":"1597385","latitude":"-12.60000000","longitude":"33.60000000","name":"Mabulabo"},{"id":"1597401","latitude":"-12.56666670","longitude":"33.46666670","name":"Machuleka"},{"id":"1597404","latitude":"-13.03333330","longitude":"33.68333330","name":"Macinyila"},{"id":"1597412","latitude":"-13.23333330","longitude":"33.60000000","name":"Madika"},{"id":"1597429","latitude":"-12.66666670","longitude":"33.66666670","name":"Mafuleka"},{"id":"1597454","latitude":"-12.88333330","longitude":"33.43333330","name":"Magomo"},{"id":"1597457","latitude":"-12.58333330","longitude":"33.38333330","name":"Magunje"},{"id":"1597458","latitude":"-12.81666670","longitude":"33.48333330","name":"Magwalangwa"},{"id":"1597487","latitude":"-12.98333330","longitude":"33.63333330","name":"Makanda"},{"id":"1597501","latitude":"-12.86666670","longitude":"33.38333330","name":"Makhula"},{"id":"1597510","latitude":"-13.36666670","longitude":"33.46666670","name":"Makombwa"},{"id":"1597528","latitude":"-12.80000000","longitude":"33.30000000","name":"Makwani"},{"id":"1597541","latitude":"-12.85000000","longitude":"33.30000000","name":"Malanda"},{"id":"1597568","latitude":"-12.56666670","longitude":"33.36666670","name":"Maleyele"},{"id":"1597582","latitude":"-12.78333330","longitude":"33.68333330","name":"Malitimba"},{"id":"1597583","latitude":"-12.78333330","longitude":"33.45000000","name":"Maliwa"},{"id":"1597586","latitude":"-13.36666670","longitude":"33.41666670","name":"Malo"},{"id":"1597600","latitude":"-12.66666670","longitude":"33.30000000","name":"Maluwa"},{"id":"1597601","latitude":"-12.86666670","longitude":"33.60000000","name":"Mambi"},{"id":"1597611","latitude":"-12.78333330","longitude":"33.46666670","name":"Mandevu"},{"id":"1597619","latitude":"-12.73333330","longitude":"33.45000000","name":"Manganela"},{"id":"1597630","latitude":"-12.96666670","longitude":"33.38333330","name":"Mangwazo"},{"id":"1597639","latitude":"-12.86666670","longitude":"33.55000000","name":"Mankhaka"},{"id":"1597640","latitude":"-12.91666670","longitude":"33.68333330","name":"Mankhalala"},{"id":"1597643","latitude":"-12.73333330","longitude":"33.46666670","name":"Mankhangala"},{"id":"1597663","latitude":"-12.78333330","longitude":"33.41666670","name":"Mapupu"},{"id":"1597667","latitude":"-13.26666670","longitude":"33.26666670","name":"Maripela"},{"id":"1597674","latitude":"-13.06666670","longitude":"33.71666670","name":"Masakandevu"},{"id":"1597694","latitude":"-12.96666670","longitude":"33.46666670","name":"Masitala"},{"id":"1597703","latitude":"-12.78333330","longitude":"33.40000000","name":"Masumbi"},{"id":"1597707","latitude":"-13.06666670","longitude":"33.46666670","name":"Matako"},{"id":"1597712","latitude":"-12.83333330","longitude":"33.33333330","name":"Mataya"},{"id":"1597723","latitude":"-12.61666670","longitude":"33.45000000","name":"Matola"},{"id":"1597726","latitude":"-13.16666670","longitude":"33.56666670","name":"Matolokela"},{"id":"1597727","latitude":"-12.73333330","longitude":"33.36666670","name":"Matomola"},{"id":"1597736","latitude":"-12.50000000","longitude":"33.63333330","name":"Matundu"},{"id":"1597743","latitude":"-13.01666670","longitude":"33.55000000","name":"Maundi"},{"id":"1597746","latitude":"-12.56666670","longitude":"33.43333330","name":"Mauya"},{"id":"1597747","latitude":"-12.88333330","longitude":"33.46666670","name":"Mavwanje"},{"id":"1597750","latitude":"-13.18333330","longitude":"33.58333330","name":"Mawango II"},{"id":"1597751","latitude":"-13.15000000","longitude":"33.53333330","name":"Mawango I"},{"id":"1597752","latitude":"-13.10000000","longitude":"33.50000000","name":"Mawango"},{"id":"1597753","latitude":"-13.10000000","longitude":"33.38333330","name":"Mawawa"},{"id":"1597759","latitude":"-13.08333330","longitude":"33.45000000","name":"Mayani"},{"id":"1597769","latitude":"-12.63333330","longitude":"33.51666670","name":"Mazuko"},{"id":"1597770","latitude":"-12.55000000","longitude":"33.58333330","name":"Mazweni"},{"id":"1597773","latitude":"-12.80000000","longitude":"33.48333330","name":"Mbachundu"},{"id":"1597774","latitude":"-12.80000000","longitude":"33.50000000","name":"Mbacunda"},{"id":"1597781","latitude":"-12.75000000","longitude":"33.65000000","name":"Mbali"},{"id":"1597787","latitude":"-12.66666670","longitude":"33.35000000","name":"Mbambo"},{"id":"1597796","latitude":"-12.86666670","longitude":"33.45000000","name":"Mbatata"},{"id":"1597804","latitude":"-12.71666670","longitude":"33.70000000","name":"Mbelewele"},{"id":"1597805","latitude":"-12.73333330","longitude":"33.60000000","name":"Mbemba"},{"id":"1597830","latitude":"-13.03333330","longitude":"33.51666670","name":"Mbiya"},{"id":"1597845","latitude":"-13.11666670","longitude":"33.71666670","name":"Mbozo"},{"id":"1597855","latitude":"-12.66666670","longitude":"33.51666670","name":"Mbuzi"},{"id":"1597863","latitude":"-13.30000000","longitude":"33.46666670","name":"Mbwindi"},{"id":"1597864","latitude":"-12.55000000","longitude":"33.45000000","name":"Mcekaceka"},{"id":"1597881","latitude":"-13.25000000","longitude":"33.58333330","name":"Mchinga"},{"id":"1597892","latitude":"-12.78333330","longitude":"33.45000000","name":"Mdauka"},{"id":"1597899","latitude":"-12.88333330","longitude":"33.48333330","name":"Mduka"},{"id":"1597906","latitude":"-12.78333330","longitude":"33.45000000","name":"Mende"},{"id":"1597928","latitude":"-13.36666670","longitude":"33.38333330","name":"Mgumila"},{"id":"1597936","latitude":"-12.58333330","longitude":"33.48333330","name":"Mgwantha"},{"id":"1597937","latitude":"-12.71666670","longitude":"33.43333330","name":"Mgwede"},{"id":"1597945","latitude":"-13.08333330","longitude":"33.50000000","name":"Migochi"},{"id":"1597984","latitude":"-12.60000000","longitude":"33.43333330","name":"Miyawa"},{"id":"1597985","latitude":"-12.70000000","longitude":"33.30000000","name":"Miyowe"},{"id":"1597987","latitude":"-12.71666670","longitude":"33.68333330","name":"Miziawo"},{"id":"1597990","latitude":"-12.58333330","longitude":"33.30000000","name":"Mizwa"},{"id":"1597992","latitude":"-12.61666670","longitude":"33.61666670","name":"Mjeketa"},{"id":"1598002","latitude":"-12.58333330","longitude":"33.41666670","name":"Mkanda"},{"id":"1598006","latitude":"-12.68333330","longitude":"33.51666670","name":"Mkandawire"},{"id":"1598008","latitude":"-12.90000000","longitude":"33.68333330","name":"Mkando"},{"id":"1598010","latitude":"-12.63333330","longitude":"33.55000000","name":"Mkango"},{"id":"1598018","latitude":"-13.41666670","longitude":"33.41666670","name":"Mkanzo"},{"id":"1598023","latitude":"-13.06666670","longitude":"33.41666670","name":"Mkhalapadzuwa"},{"id":"1598025","latitude":"-12.75000000","longitude":"33.40000000","name":"Mkhoma"},{"id":"1598029","latitude":"-12.73333330","longitude":"33.60000000","name":"Mkhonde"},{"id":"1598033","latitude":"-12.80000000","longitude":"33.30000000","name":"Mkoko"},{"id":"1598038","latitude":"-12.56666670","longitude":"33.66666670","name":"Mkomandoro"},{"id":"1598043","latitude":"-12.61666670","longitude":"33.41666670","name":"Mkondambiri"},{"id":"1598047","latitude":"-13.20000000","longitude":"33.65000000","name":"Mkototera"},{"id":"1598061","latitude":"-13.20000000","longitude":"33.50000000","name":"Mkunkhu"},{"id":"1598073","latitude":"-13.33333330","longitude":"33.35000000","name":"Mkwayaya"},{"id":"1598081","latitude":"-13.33333330","longitude":"33.50000000","name":"Mkwinya"},{"id":"1598090","latitude":"-13.08333330","longitude":"33.50000000","name":"Mlangali"},{"id":"1598097","latitude":"-12.81666670","longitude":"33.48333330","name":"Mlauzi"},{"id":"1598118","latitude":"-12.55000000","longitude":"33.31666670","name":"Mlozi"},{"id":"1598128","latitude":"-13.20000000","longitude":"33.66666670","name":"Mndungama"},{"id":"1598134","latitude":"-13.08333330","longitude":"33.40000000","name":"Mnguwe"},{"id":"1598135","latitude":"-13.18333330","longitude":"33.68333330","name":"Mngwala"},{"id":"1598140","latitude":"-13.06666670","longitude":"33.40000000","name":"Mnthembwe"},{"id":"1598142","latitude":"-13.11666670","longitude":"33.58333330","name":"Mnyanyu"},{"id":"1598168","latitude":"-12.65000000","longitude":"33.41666670","name":"Moyo"},{"id":"1598171","latitude":"-12.56666670","longitude":"33.51666670","name":"Mozesi"},{"id":"1598194","latitude":"-12.65000000","longitude":"33.35000000","name":"Mpasuleni"},{"id":"1598200","latitude":"-13.18333330","longitude":"33.48333330","name":"Mpeni"},{"id":"1598207","latitude":"-12.66666670","longitude":"33.43333330","name":"Mphamba"},{"id":"1598211","latitude":"-12.88333330","longitude":"33.33333330","name":"Mphampha"},{"id":"1598214","latitude":"-12.78333330","longitude":"33.66666670","name":"Mphandukila"},{"id":"1598216","latitude":"-13.21666670","longitude":"33.53333330","name":"Mphasi"},{"id":"1598219","latitude":"-13.13333330","longitude":"33.65000000","name":"Mphekesa"},{"id":"1598231","latitude":"-12.81666670","longitude":"33.43333330","name":"Mphomwa"},{"id":"1598233","latitude":"-12.71666670","longitude":"33.30000000","name":"Mphonde"},{"id":"1598238","latitude":"-12.56666670","longitude":"33.41666670","name":"Mphosa"},{"id":"1598245","latitude":"-13.10000000","longitude":"33.43333330","name":"Mphungu"},{"id":"1598276","latitude":"-13.10000000","longitude":"33.45000000","name":"Mpoto I"},{"id":"1598307","latitude":"-12.68333330","longitude":"33.38333330","name":"Mseka"},{"id":"1598308","latitude":"-12.71666670","longitude":"33.63333330","name":"Msekaranthu"},{"id":"1598313","latitude":"-13.16666670","longitude":"33.43333330","name":"Msenga"},{"id":"1598323","latitude":"-13.05000000","longitude":"33.76666670","name":"Msiwa"},{"id":"1598327","latitude":"-13.00000000","longitude":"33.46666670","name":"Msolola"},{"id":"1598346","latitude":"-12.96666670","longitude":"33.71666670","name":"Mtafiya"},{"id":"1598354","latitude":"-13.05000000","longitude":"33.48333330","name":"Mtambalala"},{"id":"1598362","latitude":"-13.10000000","longitude":"33.40000000","name":"Mtandaza"},{"id":"1598367","latitude":"-13.28333330","longitude":"33.38333330","name":"Mtanga"},{"id":"1598395","latitude":"-12.51666670","longitude":"33.65000000","name":"Mthaceni"},{"id":"1598396","latitude":"-12.71666670","longitude":"33.71666670","name":"Mthambalika"},{"id":"1598399","latitude":"-12.98333330","longitude":"33.65000000","name":"Mthiko"},{"id":"1598409","latitude":"-13.06666670","longitude":"33.48333330","name":"Mtondo"},{"id":"1598449","latitude":"-12.66666670","longitude":"33.31666670","name":"Muhango"},{"id":"1598452","latitude":"-12.55000000","longitude":"33.66666670","name":"Muhoni"},{"id":"1598458","latitude":"-12.55000000","longitude":"33.51666670","name":"Mukula"},{"id":"1598504","latitude":"-12.48333330","longitude":"33.56666670","name":"Muyombe"},{"id":"1598507","latitude":"-13.15000000","longitude":"33.46666670","name":"Mvula"},{"id":"1598537","latitude":"-12.83333330","longitude":"33.51666670","name":"Mwalimo"},{"id":"1598553","latitude":"-12.55000000","longitude":"33.38333330","name":"Mwanda"},{"id":"1598568","latitude":"-12.56666670","longitude":"33.41666670","name":"Mwanyota"},{"id":"1598580","latitude":"-13.06666670","longitude":"33.43333330","name":"Mwase"},{"id":"1598603","latitude":"-12.80000000","longitude":"33.50000000","name":"Mwewe"},{"id":"1598607","latitude":"-13.08333330","longitude":"33.45000000","name":"Mwimba I"},{"id":"1598616","latitude":"-12.68333330","longitude":"33.45000000","name":"Myanja"},{"id":"1598618","latitude":"-12.61666670","longitude":"33.40000000","name":"Myayi"},{"id":"1598619","latitude":"-12.65000000","longitude":"33.40000000","name":"Myombe"},{"id":"1598643","latitude":"-13.11666670","longitude":"33.56666670","name":"Mzoweza"},{"id":"1598648","latitude":"-12.81666670","longitude":"33.68333330","name":"Mzumara"},{"id":"1598649","latitude":"-12.55000000","longitude":"33.48333330","name":"Mzungunika"},{"id":"1598692","latitude":"-13.33333330","longitude":"33.50000000","name":"Nambela"},{"id":"1598779","latitude":"-12.65000000","longitude":"33.36666670","name":"Ndaca"},{"id":"1598789","latitude":"-12.48333330","longitude":"33.58333330","name":"Ndawambe"},{"id":"1598795","latitude":"-12.75000000","longitude":"33.46666670","name":"Ndawo"},{"id":"1598801","latitude":"-13.28333330","longitude":"33.61666670","name":"Ndeka"},{"id":"1598823","latitude":"-12.88333330","longitude":"33.53333330","name":"Nduka"},{"id":"1598824","latitude":"-13.00000000","longitude":"33.48333330","name":"Ndume"},{"id":"1598826","latitude":"-12.96666670","longitude":"33.61666670","name":"Nduwa"},{"id":"1598830","latitude":"-12.73333330","longitude":"33.65000000","name":"Nefani"},{"id":"1598838","latitude":"-12.60000000","longitude":"33.40000000","name":"Ngalamila"},{"id":"1598839","latitude":"-12.55000000","longitude":"33.50000000","name":"Ngala"},{"id":"1598844","latitude":"-12.53333330","longitude":"33.51666670","name":"Nganjo"},{"id":"1598883","latitude":"-12.80000000","longitude":"33.41666670","name":"Ngwala"},{"id":"1598887","latitude":"-12.71666670","longitude":"33.63333330","name":"Ngwenya"},{"id":"1598915","latitude":"-13.03333330","longitude":"33.63333330","name":"Njobvu"},{"id":"1598919","latitude":"-13.30000000","longitude":"33.51666670","name":"Njombwa"},{"id":"1598928","latitude":"-13.08333330","longitude":"33.56666670","name":"Nkakamseza"},{"id":"1598929","latitude":"-13.08333330","longitude":"33.58333330","name":"Nkakomiala"},{"id":"1598950","latitude":"-12.65000000","longitude":"33.68333330","name":"Nkhata"},{"id":"1598955","latitude":"-12.71666670","longitude":"33.40000000","name":"Nkhoma"},{"id":"1598956","latitude":"-13.21666670","longitude":"33.63333330","name":"Nkhondwela"},{"id":"1598964","latitude":"-12.80000000","longitude":"33.56666670","name":"Nkhulande"},{"id":"1598971","latitude":"-12.73333330","longitude":"33.70000000","name":"Nkhuzenje"},{"id":"1598972","latitude":"-12.85000000","longitude":"33.31666670","name":"Nkhuzikuzi"},{"id":"1598994","latitude":"-12.68333330","longitude":"33.45000000","name":"Nkumpha"},{"id":"1598995","latitude":"-13.33333330","longitude":"33.55000000","name":"Nkungulu"},{"id":"1599005","latitude":"-12.68333330","longitude":"33.56666670","name":"Nkweo"},{"id":"1599007","latitude":"-13.28333330","longitude":"33.61666670","name":"Nkwichi"},{"id":"1599082","latitude":"-13.00000000","longitude":"33.38333330","name":"Nthembwe"},{"id":"1599095","latitude":"-13.16666670","longitude":"33.56666670","name":"Nthumbidwa"},{"id":"1599117","latitude":"-12.76666670","longitude":"33.56666670","name":"Nyalunga"},{"id":"1599118","latitude":"-12.73333330","longitude":"33.58333330","name":"Nyalwanga"},{"id":"1599139","latitude":"-12.56666670","longitude":"33.51666670","name":"Nyangula"},{"id":"1599156","latitude":"-12.78333330","longitude":"33.41666670","name":"Nyenjere"},{"id":"1599157","latitude":"-12.61666670","longitude":"33.35000000","name":"Nyezani"},{"id":"1599159","latitude":"-12.63333330","longitude":"33.68333330","name":"Nyirenda"},{"id":"1599180","latitude":"-12.86666670","longitude":"33.43333330","name":"Ofesi"},{"id":"1599181","latitude":"-12.80000000","longitude":"33.48333330","name":"Ofesi Stores"},{"id":"1599182","latitude":"-12.78333330","longitude":"33.55000000","name":"Offisi"},{"id":"1599184","latitude":"-13.30000000","longitude":"33.33333330","name":"Old Chisamba"},{"id":"1599187","latitude":"-12.71666670","longitude":"33.43333330","name":"Olokani"},{"id":"1599192","latitude":"-12.73333330","longitude":"33.48333330","name":"Padukana"},{"id":"1599216","latitude":"-12.68333330","longitude":"33.66666670","name":"Patreke"},{"id":"1599227","latitude":"-12.58333330","longitude":"33.65000000","name":"Perete"},{"id":"1599231","latitude":"-12.58333330","longitude":"33.36666670","name":"Petrosi"},{"id":"1599247","latitude":"-12.83333330","longitude":"33.31666670","name":"Phoka"},{"id":"1599289","latitude":"-13.35000000","longitude":"33.40000000","name":"Saiko"},{"id":"1599295","latitude":"-12.61666670","longitude":"33.40000000","name":"Saka"},{"id":"1599307","latitude":"-12.60000000","longitude":"33.33333330","name":"Sambishiyo"},{"id":"1599311","latitude":"-12.76666670","longitude":"33.40000000","name":"Samsoni"},{"id":"1599375","latitude":"-12.68333330","longitude":"33.46666670","name":"Shaba"},{"id":"1599379","latitude":"-12.63333330","longitude":"33.60000000","name":"Shawa"},{"id":"1599380","latitude":"-13.05000000","longitude":"33.43333330","name":"Shemu"},{"id":"1599387","latitude":"-12.53333330","longitude":"33.60000000","name":"Silimoni"},{"id":"1599396","latitude":"-12.75000000","longitude":"33.68333330","name":"Simlemba"},{"id":"1599398","latitude":"-12.48333330","longitude":"33.55000000","name":"Simoni"},{"id":"1599408","latitude":"-13.35000000","longitude":"33.40000000","name":"Sinde"},{"id":"1599423","latitude":"-12.58333330","longitude":"33.41666670","name":"Sitima"},{"id":"1599424","latitude":"-12.56666670","longitude":"33.45000000","name":"Sitolo"},{"id":"1599425","latitude":"-12.80000000","longitude":"33.36666670","name":"Sitonya"},{"id":"1599437","latitude":"-12.58333330","longitude":"33.33333330","name":"Solomoni"},{"id":"1599439","latitude":"-13.15000000","longitude":"33.70000000","name":"Soloweni"},{"id":"1599450","latitude":"-12.66666670","longitude":"33.51666670","name":"Sopani"},{"id":"1599457","latitude":"-12.73333330","longitude":"33.66666670","name":"Staniele"},{"id":"1599463","latitude":"-12.65000000","longitude":"33.46666670","name":"Sumba"},{"id":"1599471","latitude":"-12.71666670","longitude":"33.40000000","name":"Suwe"},{"id":"1599472","latitude":"-13.03333330","longitude":"33.55000000","name":"Suwila"},{"id":"1599473","latitude":"-12.95000000","longitude":"33.48333330","name":"Suza"},{"id":"1599474","latitude":"-12.96666670","longitude":"33.80000000","name":"Suzho"},{"id":"1599484","latitude":"-12.53333330","longitude":"33.48333330","name":"Tamleti"},{"id":"1599497","latitude":"-12.68333330","longitude":"33.56666670","name":"Tembo"},{"id":"1599504","latitude":"-13.16666670","longitude":"33.45000000","name":"Tena"},{"id":"1599518","latitude":"-12.71666670","longitude":"33.31666670","name":"Thawalawa"},{"id":"1599529","latitude":"-12.61666670","longitude":"33.45000000","name":"Thipa"},{"id":"1599538","latitude":"-12.73333330","longitude":"33.56666670","name":"Thosi"},{"id":"1599557","latitude":"-12.70000000","longitude":"33.66666670","name":"Timoti"},{"id":"1599566","latitude":"-12.81666670","longitude":"33.48333330","name":"Tomasi"},{"id":"1599573","latitude":"-13.30000000","longitude":"33.45000000","name":"Tondolo"},{"id":"1599576","latitude":"-12.98333330","longitude":"33.63333330","name":"Tongole"},{"id":"1599598","latitude":"-12.95000000","longitude":"33.38333330","name":"Tundulu"},{"id":"1599620","latitude":"-13.31666670","longitude":"33.35000000","name":"Valako"},{"id":"1599624","latitude":"-13.00000000","longitude":"33.68333330","name":"Vindevu"},{"id":"1599637","latitude":"-12.65000000","longitude":"33.40000000","name":"Vwalamani"},{"id":"1599638","latitude":"-12.61666670","longitude":"33.31666670","name":"Vyapatamo"},{"id":"1599639","latitude":"-12.58333330","longitude":"33.43333330","name":"Vyauka"},{"id":"1599647","latitude":"-12.76666670","longitude":"33.68333330","name":"Waloyi"},{"id":"1599649","latitude":"-12.56666670","longitude":"33.51666670","name":"Wanthewa"},{"id":"1599661","latitude":"-12.56666670","longitude":"33.43333330","name":"Wilima"},{"id":"1599664","latitude":"-12.98333330","longitude":"33.68333330","name":"Wimbe"},{"id":"1599672","latitude":"-13.01666670","longitude":"33.55000000","name":"Yamwala"},{"id":"1599675","latitude":"-12.63333330","longitude":"33.40000000","name":"Yawinda"},{"id":"1599684","latitude":"-13.16666670","longitude":"33.45000000","name":"Yesaya"},{"id":"1599692","latitude":"-12.60000000","longitude":"33.51666670","name":"Yosefi"},{"id":"1599693","latitude":"-13.13333330","longitude":"33.66666670","name":"Yotamu"},{"id":"1599696","latitude":"-12.51666670","longitude":"33.51666670","name":"Zakalia"},{"id":"1599698","latitude":"-12.81666670","longitude":"33.46666670","name":"Zakeyo"},{"id":"1599699","latitude":"-12.56666670","longitude":"33.35000000","name":"Zakhanya"},{"id":"1599704","latitude":"-12.83333330","longitude":"33.35000000","name":"Zanda"},{"id":"1599714","latitude":"-12.71666670","longitude":"33.31666670","name":"Zeka"},{"id":"1599715","latitude":"-12.50000000","longitude":"33.43333330","name":"Zelema"},{"id":"1599717","latitude":"-12.60000000","longitude":"33.40000000","name":"Zembe"},{"id":"1599726","latitude":"-12.56666670","longitude":"33.36666670","name":"Zifa"},{"id":"1599729","latitude":"-12.60000000","longitude":"33.51666670","name":"Zikheta"},{"id":"1599734","latitude":"-12.73333330","longitude":"33.56666670","name":"Zimkondenge"},{"id":"1599737","latitude":"-12.53333330","longitude":"33.46666670","name":"Zimukambani"},{"id":"1599743","latitude":"-12.50000000","longitude":"33.45000000","name":"Zithani"},{"id":"1599752","latitude":"-12.58333330","longitude":"33.35000000","name":"Zozomala"},{"id":"1599756","latitude":"-12.51666670","longitude":"33.45000000","name":"Zunguwa"},{"id":"1599759","latitude":"-12.63333330","longitude":"33.40000000","name":"Zuwalinyenga"}]