[{"id":"1594916","latitude":"-13.51666670","longitude":"33.86666670","name":"Agamonje"},{"id":"1594946","latitude":"-13.68333330","longitude":"33.73333330","name":"Asembe"},{"id":"1594990","latitude":"-13.65000000","longitude":"33.88333330","name":"Besera"},{"id":"1594999","latitude":"-13.63333330","longitude":"34.00000000","name":"Bimpi"},{"id":"1595037","latitude":"-13.73333330","longitude":"33.68333330","name":"Bowmande"},{"id":"1595108","latitude":"-13.73333330","longitude":"33.88333330","name":"Chadza"},{"id":"1595121","latitude":"-13.56666670","longitude":"33.86666670","name":"Chaguza"},{"id":"1595135","latitude":"-13.65000000","longitude":"33.73333330","name":"Chakhaza"},{"id":"1595140","latitude":"-13.65000000","longitude":"33.98333330","name":"Chakuma"},{"id":"1595170","latitude":"-13.66666670","longitude":"33.76666670","name":"Chambwe"},{"id":"1595174","latitude":"-13.65000000","longitude":"34.00000000","name":"Chamkoma"},{"id":"1595182","latitude":"-13.60000000","longitude":"33.98333330","name":"Chamvu"},{"id":"1595194","latitude":"-13.63333330","longitude":"33.51666670","name":"Chankakhala"},{"id":"1595198","latitude":"-13.65000000","longitude":"34.06666670","name":"Chaola"},{"id":"1595201","latitude":"-13.71666670","longitude":"33.85000000","name":"Chaowa"},{"id":"1595203","latitude":"-13.70000000","longitude":"33.81666670","name":"Chapanza"},{"id":"1595229","latitude":"-13.66666670","longitude":"34.01666670","name":"Chatambalala"},{"id":"1595230","latitude":"-13.65000000","longitude":"33.51666670","name":"Chatanga"},{"id":"1595237","latitude":"-13.73333330","longitude":"33.90000000","name":"Chauwa"},{"id":"1595253","latitude":"-13.56666670","longitude":"33.90000000","name":"Chazama"},{"id":"1595314","latitude":"-13.66666670","longitude":"34.13333330","name":"Chidothi"},{"id":"1595328","latitude":"-13.58333330","longitude":"34.03333330","name":"Chigamba"},{"id":"1595329","latitude":"-13.55000000","longitude":"33.93333330","name":"Chiganda"},{"id":"1595332","latitude":"-13.70000000","longitude":"33.88333330","name":"Chigawa"},{"id":"1595359","latitude":"-13.75000000","longitude":"33.81666670","name":"Chikhadwe"},{"id":"1595367","latitude":"-13.73333330","longitude":"33.66666670","name":"Chikhuta"},{"id":"1595382","latitude":"-13.75000000","longitude":"33.73333330","name":"Chikonde"},{"id":"1595418","latitude":"-13.70000000","longitude":"33.76666670","name":"Chilando"},{"id":"1595435","latitude":"-13.80000000","longitude":"34.11666670","name":"Chilima"},{"id":"1595452","latitude":"-13.66666670","longitude":"33.51666670","name":"Chilonga"},{"id":"1595464","latitude":"-13.68333330","longitude":"33.78333330","name":"Chilusi"},{"id":"1595480","latitude":"-13.70000000","longitude":"33.60000000","name":"Chimbalu"},{"id":"1595486","latitude":"-13.56666670","longitude":"34.01666670","name":"Chimbete"},{"id":"1595493","latitude":"-13.63333330","longitude":"33.61666670","name":"Chimbuli"},{"id":"1595511","latitude":"-13.70000000","longitude":"33.60000000","name":"Chimkoko"},{"id":"1595516","latitude":"-13.55000000","longitude":"33.88333330","name":"Chimombo"},{"id":"1595523","latitude":"-13.68333330","longitude":"34.03333330","name":"Chimpala"},{"id":"1595538","latitude":"-13.65000000","longitude":"33.53333330","name":"Chimptsolo"},{"id":"1595551","latitude":"-13.66666670","longitude":"33.81666670","name":"Chimwala"},{"id":"1595562","latitude":"-13.68333330","longitude":"33.85000000","name":"Chimwere"},{"id":"1595570","latitude":"-13.65000000","longitude":"33.60000000","name":"Chinavinga"},{"id":"1595582","latitude":"-13.65000000","longitude":"33.93333330","name":"Chindura"},{"id":"1595591","latitude":"-13.68333330","longitude":"33.76666670","name":"Chingali"},{"id":"1595598","latitude":"-13.66666670","longitude":"33.63333330","name":"Chinganyama"},{"id":"1595606","latitude":"-13.60000000","longitude":"33.90000000","name":"Chingombe"},{"id":"1595616","latitude":"-13.65000000","longitude":"33.90000000","name":"Chinkata"},{"id":"1595618","latitude":"-13.65000000","longitude":"33.90000000","name":"Chinkhota"},{"id":"1595622","latitude":"-13.75000000","longitude":"33.76666670","name":"Chinkota"},{"id":"1595650","latitude":"-13.70000000","longitude":"33.81666670","name":"Chinvama"},{"id":"1595653","latitude":"-13.71666670","longitude":"33.71666670","name":"Chinyama"},{"id":"1595676","latitude":"-13.61666670","longitude":"34.05000000","name":"Chipapi"},{"id":"1595700","latitude":"-13.68333330","longitude":"33.80000000","name":"Chipitite"},{"id":"1595710","latitude":"-13.65000000","longitude":"33.63333330","name":"Chiponda"},{"id":"1595718","latitude":"-13.60000000","longitude":"33.98333330","name":"Chipudo"},{"id":"1595730","latitude":"-13.68333330","longitude":"33.73333330","name":"Chipwayila"},{"id":"1595753","latitude":"-13.68333330","longitude":"33.55000000","name":"Chisani"},{"id":"1595765","latitude":"-13.73333330","longitude":"33.96666670","name":"Chisenga"},{"id":"1595778","latitude":"-13.75000000","longitude":"33.85000000","name":"Chisumba"},{"id":"1595789","latitude":"-13.73333330","longitude":"33.93333330","name":"Chitanje"},{"id":"1595790","latitude":"-13.68333330","longitude":"33.80000000","name":"Chitanta"},{"id":"1595794","latitude":"-13.68333330","longitude":"33.73333330","name":"Chitedzi"},{"id":"1595861","latitude":"-13.76666670","longitude":"34.13333330","name":"Chiwere"},{"id":"1595863","latitude":"-13.76666670","longitude":"34.13333330","name":"Chiwere's"},{"id":"1595904","latitude":"-13.68333330","longitude":"33.66666670","name":"Chulu"},{"id":"1595933","latitude":"-13.66666670","longitude":"33.96666670","name":"Cikho"},{"id":"1595955","latitude":"-13.70000000","longitude":"33.61666670","name":"Cimkoko"},{"id":"1595956","latitude":"-13.75000000","longitude":"33.78333330","name":"Cimkonbe"},{"id":"1595957","latitude":"-13.75000000","longitude":"33.78333330","name":"Cimkonbera"},{"id":"1595993","latitude":"-13.75000000","longitude":"33.71666670","name":"Ciseko"},{"id":"1595999","latitude":"-13.73333330","longitude":"34.06666670","name":"Citoohi"},{"id":"1596036","latitude":"-13.66666670","longitude":"33.66666670","name":"Dangalilo"},{"id":"1596056","latitude":"-13.71666670","longitude":"33.81666670","name":"Derale"},{"id":"1596073","latitude":"-13.76666670","longitude":"33.76666670","name":"Dothi"},{"id":"1596074","latitude":"-13.65000000","longitude":"33.93333330","name":"Dowa"},{"id":"1596092","latitude":"-13.60000000","longitude":"33.70000000","name":"Dzoole"},{"id":"1596143","latitude":"-13.71666670","longitude":"34.01666670","name":"Fondane"},{"id":"1596174","latitude":"-13.75000000","longitude":"33.98333330","name":"Gamadzi"},{"id":"1596200","latitude":"-13.76666670","longitude":"34.11666670","name":"Gogo"},{"id":"1596206","latitude":"-13.68333330","longitude":"33.96666670","name":"Gomba"},{"id":"1596229","latitude":"-13.70000000","longitude":"33.76666670","name":"Gulundu"},{"id":"1596253","latitude":"-13.56666670","longitude":"33.95000000","name":"Gwazeni"},{"id":"1596256","latitude":"-13.65000000","longitude":"33.73333330","name":"Gwede"},{"id":"1596262","latitude":"-13.53333330","longitude":"33.90000000","name":"Gwileni"},{"id":"1596280","latitude":"-13.70000000","longitude":"33.98333330","name":"Imfayatonse"},{"id":"1596319","latitude":"-13.61666670","longitude":"34.01666670","name":"Jemus"},{"id":"1596350","latitude":"-13.70000000","longitude":"34.00000000","name":"Jojo"},{"id":"1596358","latitude":"-13.60000000","longitude":"34.03333330","name":"Jonas"},{"id":"1596373","latitude":"-13.66666670","longitude":"33.78333330","name":"Jumpha"},{"id":"1596375","latitude":"-13.68333330","longitude":"33.66666670","name":"Junche"},{"id":"1596381","latitude":"-13.60000000","longitude":"33.88333330","name":"Kabagosa"},{"id":"1596431","latitude":"-13.61666670","longitude":"33.90000000","name":"Kachimbwe"},{"id":"1596442","latitude":"-13.73333330","longitude":"33.80000000","name":"Kachuli"},{"id":"1596464","latitude":"-13.56666670","longitude":"33.85000000","name":"Kadewere"},{"id":"1596470","latitude":"-13.58333330","longitude":"33.96666670","name":"Kadula"},{"id":"1596489","latitude":"-13.78333330","longitude":"34.00000000","name":"Kafumphe"},{"id":"1596510","latitude":"-13.73333330","longitude":"33.93333330","name":"Kainja"},{"id":"1596541","latitude":"-13.70000000","longitude":"33.66666670","name":"Kakwesa"},{"id":"1596576","latitude":"-13.63333330","longitude":"33.95000000","name":"Kalindangoma"},{"id":"1596581","latitude":"-13.73333330","longitude":"33.88333330","name":"Kalisha"},{"id":"1596588","latitude":"-13.66666670","longitude":"33.71666670","name":"Kalonga"},{"id":"1596606","latitude":"-13.65000000","longitude":"33.70000000","name":"Kalumbwi"},{"id":"1596614","latitude":"-13.68333330","longitude":"33.71666670","name":"Kaluwila"},{"id":"1596617","latitude":"-13.68333330","longitude":"34.10000000","name":"Kamagwahkwa"},{"id":"1596626","latitude":"-13.65000000","longitude":"33.56666670","name":"Kamanga"},{"id":"1596638","latitude":"-13.68333330","longitude":"33.70000000","name":"Kambalima"},{"id":"1596655","latitude":"-13.66666670","longitude":"33.80000000","name":"Kamchira"},{"id":"1596667","latitude":"-13.55000000","longitude":"33.90000000","name":"Kamkambo"},{"id":"1596673","latitude":"-13.78333330","longitude":"33.78333330","name":"Kamlembo"},{"id":"1596678","latitude":"-13.66666670","longitude":"33.56666670","name":"Kamoto"},{"id":"1596695","latitude":"-13.60000000","longitude":"33.86666670","name":"Kamphasi"},{"id":"1596699","latitude":"-13.66666670","longitude":"34.11666670","name":"Kamphimba"},{"id":"1596722","latitude":"-13.70000000","longitude":"33.93333330","name":"Kamtumbo"},{"id":"1596731","latitude":"-13.66666670","longitude":"33.95000000","name":"Kamuona"},{"id":"1596739","latitude":"-13.81666670","longitude":"34.01666670","name":"Kamwendo"},{"id":"1596771","latitude":"-13.63333330","longitude":"34.05000000","name":"Kandzu"},{"id":"1596798","latitude":"-13.66666670","longitude":"34.01666670","name":"Kankhumbwa"},{"id":"1596821","latitude":"-13.70000000","longitude":"33.86666670","name":"Kanyambo"},{"id":"1596887","latitude":"-13.53333330","longitude":"33.86666670","name":"Kaphamtengo"},{"id":"1596899","latitude":"-13.66666670","longitude":"33.76666670","name":"Kapicila"},{"id":"1596917","latitude":"-13.70000000","longitude":"33.95000000","name":"Kapondasoka"},{"id":"1596918","latitude":"-13.61666670","longitude":"33.60000000","name":"Kaponya"},{"id":"1596944","latitude":"-13.65000000","longitude":"33.95000000","name":"Karusi"},{"id":"1596947","latitude":"-13.65000000","longitude":"33.90000000","name":"Kasagula"},{"id":"1597016","latitude":"-13.66666670","longitude":"33.78333330","name":"Katambo"},{"id":"1597020","latitude":"-13.60000000","longitude":"34.01666670","name":"Katangara"},{"id":"1597027","latitude":"-13.65000000","longitude":"33.91666670","name":"Katema"},{"id":"1597037","latitude":"-13.75000000","longitude":"33.71666670","name":"Katera"},{"id":"1597044","latitude":"-13.68333330","longitude":"33.60000000","name":"Kathontha"},{"id":"1597062","latitude":"-13.63333330","longitude":"33.90000000","name":"Katsukunya"},{"id":"1597083","latitude":"-13.73333330","longitude":"34.03333330","name":"Kauma"},{"id":"1597098","latitude":"-13.66666670","longitude":"33.60000000","name":"Kawale"},{"id":"1597117","latitude":"-13.63333330","longitude":"33.60000000","name":"Kayembe"},{"id":"1597130","latitude":"-13.70000000","longitude":"33.75000000","name":"Kazembe"},{"id":"1597182","latitude":"-13.68333330","longitude":"34.10000000","name":"Kodikila"},{"id":"1597201","latitude":"-13.63333330","longitude":"33.86666670","name":"Koti"},{"id":"1597223","latitude":"-13.61666670","longitude":"34.03333330","name":"Kumela"},{"id":"1597232","latitude":"-13.73333330","longitude":"33.81666670","name":"Kundwe"},{"id":"1597265","latitude":"-13.71666670","longitude":"34.08333330","name":"Kwis"},{"id":"1597277","latitude":"-13.71666670","longitude":"34.10000000","name":"Lavu"},{"id":"1597290","latitude":"-13.68333330","longitude":"33.98333330","name":"Lichapa"},{"id":"1597340","latitude":"-13.78333330","longitude":"33.81666670","name":"Lombadzi"},{"id":"1597364","latitude":"-13.78333330","longitude":"33.81666670","name":"Lumbadzi"},{"id":"1597449","latitude":"-13.75000000","longitude":"34.10000000","name":"Magodi"},{"id":"1597456","latitude":"-13.61666670","longitude":"33.90000000","name":"Magumbe"},{"id":"1597473","latitude":"-13.66666670","longitude":"33.78333330","name":"Majega"},{"id":"1597489","latitude":"-13.65000000","longitude":"33.60000000","name":"Makanga"},{"id":"1597490","latitude":"-13.55000000","longitude":"33.90000000","name":"Makanjila"},{"id":"1597512","latitude":"-13.70000000","longitude":"33.75000000","name":"Makondesa"},{"id":"1597530","latitude":"-13.73333330","longitude":"33.81666670","name":"Makwasi"},{"id":"1597540","latitude":"-13.66666670","longitude":"33.51666670","name":"Malanda"},{"id":"1597545","latitude":"-13.68333330","longitude":"33.65000000","name":"Malangwasila"},{"id":"1597548","latitude":"-13.71666670","longitude":"33.70000000","name":"Malavi"},{"id":"1597576","latitude":"-13.73333330","longitude":"33.86666670","name":"Malima"},{"id":"1597585","latitude":"-13.63333330","longitude":"33.66666670","name":"Maliyamu"},{"id":"1597606","latitude":"-13.70000000","longitude":"33.96666670","name":"Mandala"},{"id":"1597616","latitude":"-13.66666670","longitude":"33.53333330","name":"Mangadz"},{"id":"1597621","latitude":"-13.55000000","longitude":"33.88333330","name":"Mangaoma"},{"id":"1597649","latitude":"-13.73333330","longitude":"33.76666670","name":"Manondo"},{"id":"1597655","latitude":"-13.63333330","longitude":"33.86666670","name":"Manzi"},{"id":"1597704","latitude":"-13.68333330","longitude":"34.03333330","name":"Maswana"},{"id":"1597756","latitude":"-13.65000000","longitude":"34.11666670","name":"Mawende"},{"id":"1597758","latitude":"-13.71666670","longitude":"34.05000000","name":"Mayani"},{"id":"1597761","latitude":"-13.68333330","longitude":"33.96666670","name":"Mayola"},{"id":"1597771","latitude":"-13.61666670","longitude":"33.96666670","name":"Mazyake"},{"id":"1597775","latitude":"-13.68333330","longitude":"33.68333330","name":"Mbacundu"},{"id":"1597777","latitude":"-13.68333330","longitude":"33.83333330","name":"Mbalame"},{"id":"1597782","latitude":"-13.65000000","longitude":"33.95000000","name":"Mbalira"},{"id":"1597788","latitude":"-13.65000000","longitude":"33.48333330","name":"Mbangala"},{"id":"1597853","latitude":"-13.70000000","longitude":"33.60000000","name":"Mbuta"},{"id":"1597886","latitude":"-13.66666670","longitude":"33.53333330","name":"Mchoka"},{"id":"1597895","latitude":"-13.70000000","longitude":"34.01666670","name":"Mdoala"},{"id":"1597907","latitude":"-13.66666670","longitude":"33.88333330","name":"Mengwe"},{"id":"1597908","latitude":"-13.63333330","longitude":"33.98333330","name":"Menuli"},{"id":"1597922","latitude":"-13.71666670","longitude":"33.85000000","name":"Mgonela"},{"id":"1597924","latitude":"-13.71666670","longitude":"33.93333330","name":"Mgubane"},{"id":"1597944","latitude":"-13.71666670","longitude":"33.76666670","name":"Miange"},{"id":"1597968","latitude":"-13.71666670","longitude":"33.88333330","name":"Misango"},{"id":"1597972","latitude":"-13.65000000","longitude":"33.91666670","name":"Missi"},{"id":"1597977","latitude":"-13.58333330","longitude":"33.91666670","name":"Mitembo"},{"id":"1597993","latitude":"-13.68333330","longitude":"34.13333330","name":"Mjele"},{"id":"1598007","latitude":"-13.66666670","longitude":"33.88333330","name":"Mkande"},{"id":"1598016","latitude":"-13.58333330","longitude":"33.86666670","name":"Mkanthama"},{"id":"1598041","latitude":"-13.65000000","longitude":"33.68333330","name":"Mkombe"},{"id":"1598051","latitude":"-13.73333330","longitude":"33.80000000","name":"Mkubu"},{"id":"1598052","latitude":"-13.75000000","longitude":"33.83333330","name":"Mkukula"},{"id":"1598054","latitude":"-13.66666670","longitude":"33.75000000","name":"Mkulela"},{"id":"1598056","latitude":"-13.61666670","longitude":"33.56666670","name":"Mkulumimba"},{"id":"1598079","latitude":"-13.66666670","longitude":"33.63333330","name":"Mkwinda"},{"id":"1598150","latitude":"-13.66666670","longitude":"33.51666670","name":"Mondwe"},{"id":"1598151","latitude":"-13.56666670","longitude":"33.91666670","name":"Monemoa"},{"id":"1598166","latitude":"-13.63333330","longitude":"33.93333330","name":"Moya"},{"id":"1598169","latitude":"-13.66666670","longitude":"33.90000000","name":"Moyomsani"},{"id":"1598181","latitude":"-13.60000000","longitude":"33.96666670","name":"Mpamba"},{"id":"1598210","latitude":"-13.68333330","longitude":"33.61666670","name":"Mphambanya"},{"id":"1598280","latitude":"-13.63333330","longitude":"34.05000000","name":"Mpozera"},{"id":"1598293","latitude":"-13.53333330","longitude":"33.90000000","name":"Msakambewa"},{"id":"1598301","latitude":"-13.66666670","longitude":"33.58333330","name":"Msampha"},{"id":"1598317","latitude":"-13.70000000","longitude":"33.80000000","name":"Msilisa"},{"id":"1598324","latitude":"-13.61666670","longitude":"33.93333330","name":"Msoci"},{"id":"1598325","latitude":"-13.66666670","longitude":"33.63333330","name":"Msokola"},{"id":"1598353","latitude":"-13.75000000","longitude":"34.05000000","name":"Mtalonji"},{"id":"1598363","latitude":"-13.65000000","longitude":"33.76666670","name":"Mtande"},{"id":"1598419","latitude":"-13.68333330","longitude":"33.70000000","name":"Mtsilo"},{"id":"1598430","latitude":"-13.66666670","longitude":"33.53333330","name":"Mtunzi"},{"id":"1598435","latitude":"-13.66666670","longitude":"33.53333330","name":"Mtuzi"},{"id":"1598444","latitude":"-13.63333330","longitude":"33.90000000","name":"Mudinda"},{"id":"1598446","latitude":"-13.75000000","longitude":"33.80000000","name":"Mugubani"},{"id":"1598514","latitude":"-13.68333330","longitude":"33.56666670","name":"Mwacipula"},{"id":"1598541","latitude":"-13.65000000","longitude":"33.70000000","name":"Mwambe"},{"id":"1598625","latitude":"-13.65000000","longitude":"33.66666670","name":"Mzati"},{"id":"1598652","latitude":"-13.68333330","longitude":"33.55000000","name":"Nabwenje"},{"id":"1598661","latitude":"-13.58333330","longitude":"33.86666670","name":"Nakutepa"},{"id":"1598687","latitude":"-13.51666670","longitude":"33.86666670","name":"Namatowo"},{"id":"1598696","latitude":"-13.70000000","longitude":"33.60000000","name":"Nambuma"},{"id":"1598704","latitude":"-13.51666670","longitude":"33.86666670","name":"Namitowo"},{"id":"1598709","latitude":"-13.68333330","longitude":"34.08333330","name":"Namoni"},{"id":"1598738","latitude":"-13.68333330","longitude":"34.08333330","name":"Nasungwe"},{"id":"1598739","latitude":"-13.68333330","longitude":"34.08333330","name":"Nasungwi"},{"id":"1598756","latitude":"-13.60000000","longitude":"33.70000000","name":"Nchefu"},{"id":"1598760","latitude":"-13.70000000","longitude":"33.83333330","name":"Nchenenje"},{"id":"1598788","latitude":"-13.68333330","longitude":"33.78333330","name":"Ndangulu"},{"id":"1598793","latitude":"-13.51666670","longitude":"33.88333330","name":"Ndawambi"},{"id":"1598802","latitude":"-13.65000000","longitude":"34.03333330","name":"Ndekwa"},{"id":"1598812","latitude":"-13.53333330","longitude":"33.91666670","name":"Ndinda"},{"id":"1598822","latitude":"-13.68333330","longitude":"34.08333330","name":"Ndozizira"},{"id":"1598858","latitude":"-13.56666670","longitude":"33.91666670","name":"Ngombende"},{"id":"1598859","latitude":"-13.68333330","longitude":"33.60000000","name":"Ngombe"},{"id":"1598878","latitude":"-13.75000000","longitude":"33.88333330","name":"Ngulu"},{"id":"1598900","latitude":"-13.66666670","longitude":"33.56666670","name":"Njalamaleye"},{"id":"1598901","latitude":"-13.66666670","longitude":"33.56666670","name":"Njala"},{"id":"1598912","latitude":"-13.71666670","longitude":"33.90000000","name":"Njewa"},{"id":"1599020","latitude":"-13.70000000","longitude":"34.05000000","name":"Nomvimbe"},{"id":"1599021","latitude":"-13.70000000","longitude":"34.05000000","name":"Nomyimbe"},{"id":"1599033","latitude":"-13.73333330","longitude":"34.06666670","name":"Nsangu"},{"id":"1599040","latitude":"-13.71666670","longitude":"33.65000000","name":"Nseme"},{"id":"1599065","latitude":"-13.70000000","longitude":"33.80000000","name":"Ntamo"},{"id":"1599079","latitude":"-13.66666670","longitude":"33.81666670","name":"Nthambwe"},{"id":"1599090","latitude":"-13.68333330","longitude":"33.56666670","name":"Nthondowa"},{"id":"1599127","latitude":"-13.53333330","longitude":"33.86666670","name":"Nyamkhwa"},{"id":"1599134","latitude":"-13.60000000","longitude":"34.03333330","name":"Nyangamile"},{"id":"1599141","latitude":"-13.65000000","longitude":"33.71666670","name":"Nyangu"},{"id":"1599164","latitude":"-13.66666670","longitude":"33.55000000","name":"Nyonbawi"},{"id":"1599167","latitude":"-13.56666670","longitude":"33.85000000","name":"Nyonyo"},{"id":"1599170","latitude":"-13.61666670","longitude":"33.88333330","name":"Nyundo"},{"id":"1599238","latitude":"-13.71666670","longitude":"34.01666670","name":"Pheleni"},{"id":"1599239","latitude":"-13.66666670","longitude":"33.53333330","name":"Phenjele"},{"id":"1599265","latitude":"-13.63333330","longitude":"33.63333330","name":"Psyeda"},{"id":"1599326","latitude":"-13.70000000","longitude":"33.78333330","name":"Sangala"},{"id":"1599343","latitude":"-13.63333330","longitude":"34.01666670","name":"Sansani"},{"id":"1599377","latitude":"-13.61666670","longitude":"33.93333330","name":"Shani"},{"id":"1599413","latitude":"-13.66666670","longitude":"33.56666670","name":"Sininda"},{"id":"1599416","latitude":"-13.63333330","longitude":"33.66666670","name":"Sintala"},{"id":"1599432","latitude":"-13.68333330","longitude":"33.90000000","name":"Sobala"},{"id":"1599452","latitude":"-13.75000000","longitude":"34.06666670","name":"Sosale"},{"id":"1599483","latitude":"-13.71666670","longitude":"33.78333330","name":"Tambwe"},{"id":"1599493","latitude":"-13.71666670","longitude":"33.75000000","name":"Tayayo"},{"id":"1599496","latitude":"-13.61666670","longitude":"33.95000000","name":"Tembo"},{"id":"1599559","latitude":"-13.60000000","longitude":"33.96666670","name":"Tiopaizi"},{"id":"1599586","latitude":"-13.66666670","longitude":"33.53333330","name":"Tsicipapa"},{"id":"1599614","latitude":"-13.65000000","longitude":"33.98333330","name":"Uriah"},{"id":"1599641","latitude":"-13.66666670","longitude":"33.80000000","name":"Wadede"},{"id":"1599654","latitude":"-13.61666670","longitude":"33.91666670","name":"Wazaza"},{"id":"1599674","latitude":"-13.73333330","longitude":"34.01666670","name":"Yapola"},{"id":"1599701","latitude":"-13.63333330","longitude":"33.91666670","name":"Zamba"},{"id":"1599724","latitude":"-13.68333330","longitude":"33.85000000","name":"Zidunge"},{"id":"1599746","latitude":"-13.60000000","longitude":"33.96666670","name":"Zolire"}]