[{"id":"1599766","latitude":"19.95000000","longitude":"-88.86666700","name":"Abal"},{"id":"1599987","latitude":"17.93333300","longitude":"-88.83333300","name":"Achiote"},{"id":"1599999","latitude":"17.95000000","longitude":"-88.85000000","name":"Achotal"},{"id":"1600081","latitude":"20.41666700","longitude":"-87.30000000","name":"Acumal"},{"id":"1600117","latitude":"19.43333300","longitude":"-88.82500000","name":"Adolfo de la Huerta"},{"id":"1600147","latitude":"20.99166700","longitude":"-86.86666700","name":"Aduana"},{"id":"1600153","latitude":"18.08333300","longitude":"-88.71666700","name":"\ufffdfrica"},{"id":"1600154","latitude":"20.86666700","longitude":"-87.35416700","name":"Agapito"},{"id":"1600198","latitude":"20.85416700","longitude":"-87.32500000","name":"Agua Azul"},{"id":"1600224","latitude":"18.03333300","longitude":"-88.76666700","name":"Agua Blanca"},{"id":"1600336","latitude":"19.93333300","longitude":"-88.48333300","name":"Aguada"},{"id":"1600837","latitude":"20.41666700","longitude":"-87.30000000","name":"Akumal"},{"id":"1600966","latitude":"19.24583300","longitude":"-88.09583300","name":"Albut"},{"id":"1601041","latitude":"21.08333300","longitude":"-86.85000000","name":"Alfredo V. Bonfil"},{"id":"1601096","latitude":"18.36666700","longitude":"-88.55000000","name":"Allende"},{"id":"1601203","latitude":"19.30000000","longitude":"-88.57916700","name":"Altamirano"},{"id":"1601259","latitude":"18.85000000","longitude":"-88.66666700","name":"Altos de Sevilla"},{"id":"1601301","latitude":"18.30000000","longitude":"-88.61666700","name":"\ufffdlvaro Obreg\ufffdn"},{"id":"1601309","latitude":"18.30000000","longitude":"-88.65000000","name":"\ufffdlvaro Obreg\ufffdn Dos"},{"id":"1601584","latitude":"18.78333300","longitude":"-88.50000000","name":"Andr\ufffds Quintana Roo"},{"id":"1601592","latitude":"20.95416700","longitude":"-87.15833300","name":"Anexa"},{"id":"1602027","latitude":"20.90416700","longitude":"-87.45833300","name":"Arizona"},{"id":"1602642","latitude":"20.35833300","longitude":"-87.33333300","name":"Aventuras"},{"id":"1602646","latitude":"19.05000000","longitude":"-88.41250000","name":"\ufffdvila Camacho"},{"id":"1602859","latitude":"18.66666700","longitude":"-88.38333300","name":"Bacalar"},{"id":"1603102","latitude":"20.33333300","longitude":"-87.36666700","name":"Balcheil"},{"id":"1603174","latitude":"20.51111100","longitude":"-86.94166700","name":"Banco Playa"},{"id":"1603773","latitude":"19.70000000","longitude":"-88.76666700","name":"Benito Ju\ufffdrez"},{"id":"1603774","latitude":"20.81666700","longitude":"-87.32500000","name":"Benito  Ju\ufffdrez"},{"id":"1603902","latitude":"18.85000000","longitude":"-88.46666700","name":"Blanca Flor"},{"id":"1604019","latitude":"20.04166700","longitude":"-87.48333300","name":"Boca Paila"},{"id":"1604020","latitude":"18.48333300","longitude":"-88.31666700","name":"Boca R\ufffdo Hondo"},{"id":"1604070","latitude":"18.11666700","longitude":"-88.72500000","name":"Bolos"},{"id":"1604071","latitude":"19.60000000","longitude":"-88.61666700","name":"Boloyuc"},{"id":"1604229","latitude":"18.11666700","longitude":"-88.71666700","name":"Botes"},{"id":"1604289","latitude":"21.31666700","longitude":"-87.37500000","name":"Bravo Monte"},{"id":"1604341","latitude":"18.93333300","longitude":"-88.65416700","name":"Buena Esperanza"},{"id":"1604344","latitude":"18.88333300","longitude":"-88.46666700","name":"Buenaf\ufffd"},{"id":"1604414","latitude":"18.06666700","longitude":"-88.73333300","name":"Buenavista"},{"id":"1604415","latitude":"18.80000000","longitude":"-88.28333300","name":"Buena Vista"},{"id":"1604531","latitude":"19.96250000","longitude":"-88.76666700","name":"Bulucax"},{"id":"1604561","latitude":"18.50000000","longitude":"-88.51666700","name":"Butr\ufffdn Casas"},{"id":"1604564","latitude":"18.90833300","longitude":"-88.39166700","name":"Caanlunmil"},{"id":"1604582","latitude":"20.12500000","longitude":"-87.45000000","name":"Caba\ufffdas"},{"id":"1604720","latitude":"18.18333300","longitude":"-88.70000000","name":"Cacao"},{"id":"1604773","latitude":"18.91666700","longitude":"-88.21666700","name":"Cafetal"},{"id":"1604774","latitude":"19.71666700","longitude":"-88.80000000","name":"Cafetalito"},{"id":"1604919","latitude":"18.13333300","longitude":"-88.85000000","name":"Calderas"},{"id":"1604921","latitude":"18.65000000","longitude":"-88.41666700","name":"Calderita"},{"id":"1604922","latitude":"18.55000000","longitude":"-88.25000000","name":"Calderitas"},{"id":"1604927","latitude":"17.98333300","longitude":"-88.80000000","name":"Calder\ufffdn"},{"id":"1604964","latitude":"19.71666700","longitude":"-88.81666700","name":"Caletal"},{"id":"1604979","latitude":"18.71111100","longitude":"-89.03333300","name":"California"},{"id":"1605033","latitude":"18.75000000","longitude":"-88.33333300","name":"Calpulli"},{"id":"1605171","latitude":"18.26666700","longitude":"-88.90000000","name":"Campamento"},{"id":"1605207","latitude":"19.13333300","longitude":"-88.14166700","name":"Campi"},{"id":"1605545","latitude":"19.16250000","longitude":"-88.74583300","name":"Canaan"},{"id":"1605551","latitude":"20.00000000","longitude":"-88.15416700","name":"Canach\ufffdn"},{"id":"1605708","latitude":"19.71666700","longitude":"-88.95000000","name":"Cancabch\ufffdn"},{"id":"1605712","latitude":"20.11666700","longitude":"-87.95000000","name":"Cancadzonot"},{"id":"1605717","latitude":"19.97500000","longitude":"-88.12500000","name":"Cancipch\ufffdn"},{"id":"1605720","latitude":"21.16666700","longitude":"-86.83333300","name":"Canc\ufffdn"},{"id":"1605733","latitude":"19.73333300","longitude":"-87.95833300","name":"Candelaria"},{"id":"1605739","latitude":"19.33333300","longitude":"-87.48333300","name":"Candelaria de Chal"},{"id":"1605837","latitude":"18.50000000","longitude":"-88.52916700","name":"Canos A. Madrazo"},{"id":"1605890","latitude":"18.45000000","longitude":"-89.00000000","name":"Caobas"},{"id":"1605905","latitude":"19.38333300","longitude":"-88.14166700","name":"Capch\ufffdn"},{"id":"1605946","latitude":"20.67500000","longitude":"-87.02500000","name":"Capit\ufffdn Lafitte"},{"id":"1606141","latitude":"18.33333300","longitude":"-88.58333300","name":"Carmelita"},{"id":"1606184","latitude":"19.61666700","longitude":"-88.05000000","name":"Carolina"},{"id":"1606206","latitude":"19.80000000","longitude":"-89.01666700","name":"Carral"},{"id":"1606677","latitude":"18.94166700","longitude":"-88.73333300","name":"Cedralito"},{"id":"1606714","latitude":"20.28333300","longitude":"-86.96666700","name":"Celarain"},{"id":"1606755","latitude":"18.65000000","longitude":"-88.40000000","name":"Cenote Azul"},{"id":"1606757","latitude":"18.95000000","longitude":"-88.43333300","name":"Cenote"},{"id":"1606768","latitude":"18.66666700","longitude":"-88.85000000","name":"Central Flores"},{"id":"1606771","latitude":"19.06666700","longitude":"-88.75000000","name":"Central Lirios"},{"id":"1606772","latitude":"20.78750000","longitude":"-87.26666700","name":"Central Victoria"},{"id":"1607143","latitude":"20.35000000","longitude":"-87.35000000","name":"Chacalal"},{"id":"1607167","latitude":"18.43333300","longitude":"-89.18333300","name":"Chacamhacan"},{"id":"1607168","latitude":"18.53333300","longitude":"-89.11666700","name":"Chacanbacab"},{"id":"1607169","latitude":"18.45000000","longitude":"-89.10000000","name":"Chacanhacam"},{"id":"1607180","latitude":"18.48333300","longitude":"-88.46666700","name":"Chac"},{"id":"1607184","latitude":"19.01666700","longitude":"-88.16666700","name":"Chacchoben"},{"id":"1607185","latitude":"18.48333300","longitude":"-88.46666700","name":"Chac Chooben"},{"id":"1607204","latitude":"19.50000000","longitude":"-87.41250000","name":"Chacmool"},{"id":"1607205","latitude":"21.28333300","longitude":"-86.86666700","name":"Chacmuchuch"},{"id":"1607210","latitude":"18.43333300","longitude":"-89.18333300","name":"Chacomchacam"},{"id":"1607334","latitude":"20.36250000","longitude":"-88.06666700","name":"Chamul"},{"id":"1607337","latitude":"20.33333300","longitude":"-88.13333300","name":"Chan ali"},{"id":"1607339","latitude":"19.41666700","longitude":"-88.21666700","name":"Chan-Cah de Repente"},{"id":"1607340","latitude":"19.50000000","longitude":"-87.98333300","name":"Chancah-Veracruz"},{"id":"1607348","latitude":"19.83333300","longitude":"-89.00000000","name":"Chanchakan"},{"id":"1607350","latitude":"20.08333300","longitude":"-87.76666700","name":"Chanch\ufffdn"},{"id":"1607351","latitude":"20.46666700","longitude":"-87.51666700","name":"Ch\ufffdn-Ch\ufffdn"},{"id":"1607352","latitude":"20.40000000","longitude":"-87.97083300","name":"Chan Ch\ufffdn"},{"id":"1607353","latitude":"20.50833300","longitude":"-87.69166700","name":"Chanch\ufffdn"},{"id":"1607356","latitude":"19.40000000","longitude":"-88.38333300","name":"Chan Chenchuc"},{"id":"1607357","latitude":"20.30833300","longitude":"-87.93333300","name":"Chanch\ufffdn Palmar"},{"id":"1607380","latitude":"19.53333300","longitude":"-88.16666700","name":"Chan-Santa Cruz"},{"id":"1607388","latitude":"20.63333300","longitude":"-87.62083300","name":"Chan Tres Reyes"},{"id":"1607645","latitude":"21.28333300","longitude":"-86.86666700","name":"Checmu"},{"id":"1607665","latitude":"19.41666700","longitude":"-88.46666700","name":"Chen Cobre"},{"id":"1607693","latitude":"18.50000000","longitude":"-88.30000000","name":"Chetumal"},{"id":"1607754","latitude":"18.18333300","longitude":"-89.21666700","name":"Chichanch\ufffd"},{"id":"1607755","latitude":"18.11666700","longitude":"-89.23333300","name":"Chichanh\ufffd"},{"id":"1607814","latitude":"20.75000000","longitude":"-100.33333300","name":"Chichimequillas"},{"id":"1608041","latitude":"19.39583300","longitude":"-88.43333300","name":"Chimuc"},{"id":"1608153","latitude":"21.40000000","longitude":"-87.33333300","name":"Chiquila"},{"id":"1608189","latitude":"18.11666700","longitude":"-89.23333300","name":"Chiuchanha"},{"id":"1608374","latitude":"18.01666700","longitude":"-88.78333300","name":"Chumaba"},{"id":"1608380","latitude":"19.48333300","longitude":"-88.23333300","name":"Chumbache"},{"id":"1608381","latitude":"19.48333300","longitude":"-88.23333300","name":"Chumbalch\ufffd"},{"id":"1608390","latitude":"20.17916700","longitude":"-87.56666700","name":"Chum Kop\ufffd"},{"id":"1608391","latitude":"19.30000000","longitude":"-88.13333300","name":"Chumoox"},{"id":"1608393","latitude":"19.30000000","longitude":"-89.38333300","name":"Chump"},{"id":"1608395","latitude":"19.30000000","longitude":"-89.38333300","name":"Chumpil"},{"id":"1608397","latitude":"19.98333300","longitude":"-87.81666700","name":"Chump\ufffdn"},{"id":"1608405","latitude":"18.01666700","longitude":"-88.78333300","name":"Chunaba"},{"id":"1608407","latitude":"19.88333300","longitude":"-88.43333300","name":"Chuncab"},{"id":"1608418","latitude":"19.80000000","longitude":"-88.13333300","name":"Chunculche"},{"id":"1608420","latitude":"18.20000000","longitude":"-89.20000000","name":"Chunhaas"},{"id":"1608421","latitude":"19.65000000","longitude":"-88.21666700","name":"Chunha"},{"id":"1608423","latitude":"18.26666700","longitude":"-89.16666700","name":"Chunhuas"},{"id":"1608426","latitude":"19.55000000","longitude":"-88.68333300","name":"Chunhuhub"},{"id":"1608427","latitude":"19.55000000","longitude":"-88.68333300","name":"Chunhuhu"},{"id":"1608428","latitude":"19.59583300","longitude":"-88.58750000","name":"Chunhuux"},{"id":"1608434","latitude":"19.80000000","longitude":"-88.13333300","name":"Chunkulch\ufffd"},{"id":"1608439","latitude":"20.02500000","longitude":"-87.87500000","name":"Chunyah"},{"id":"1608440","latitude":"20.10000000","longitude":"-87.92500000","name":"Chun- Yah"},{"id":"1608442","latitude":"19.95000000","longitude":"-87.61666700","name":"Chunyaxch\ufffd"},{"id":"1608445","latitude":"19.61666700","longitude":"-88.41666700","name":"Chunyuy"},{"id":"1608714","latitude":"18.82500000","longitude":"-89.16666700","name":"Cinco de Mayo"},{"id":"1608803","latitude":"21.16666700","longitude":"-86.83333300","name":"Ciudad Canc\ufffdn"},{"id":"1608804","latitude":"18.50000000","longitude":"-88.30000000","name":"Ciudad Chetumal"},{"id":"1608908","latitude":"21.03333300","longitude":"-86.78888900","name":"Club Mediterr\ufffdneo"},{"id":"1608913","latitude":"18.44166700","longitude":"-89.11666700","name":"Coaba"},{"id":"1609057","latitude":"20.51666700","longitude":"-87.65000000","name":"Cob\ufffd"},{"id":"1609128","latitude":"18.16666700","longitude":"-88.68333300","name":"Cocoyal"},{"id":"1609132","latitude":"18.16666700","longitude":"-88.68333300","name":"Cocoyol"},{"id":"1609244","latitude":"20.55000000","longitude":"-87.18333300","name":"Coleta Xcaret"},{"id":"1609269","latitude":"19.51666700","longitude":"-88.76666700","name":"Colmenitas"},{"id":"1609280","latitude":"20.31666700","longitude":"-86.95833300","name":"Colombia de los Santos"},{"id":"1609720","latitude":"18.61666700","longitude":"-88.25000000","name":"Comisi\ufffdn de las Flores"},{"id":"1609792","latitude":"18.06666700","longitude":"-88.73333300","name":"Concepcion"},{"id":"1609979","latitude":"20.50833300","longitude":"-86.94583300","name":"Conzumel"},{"id":"1610039","latitude":"18.40000000","longitude":"-88.81666700","name":"Corazal"},{"id":"1610117","latitude":"18.45000000","longitude":"-88.80000000","name":"Corozal"},{"id":"1610122","latitude":"19.27916700","longitude":"-88.50000000","name":"Corozo"},{"id":"1610319","latitude":"20.65833300","longitude":"-87.70000000","name":"Cosanch\ufffdr"},{"id":"1610500","latitude":"20.50833300","longitude":"-86.94583300","name":"Cozumel"},{"id":"1610521","latitude":"20.90833300","longitude":"-87.36250000","name":"Crist\ufffdbal Col\ufffdn"},{"id":"1611262","latitude":"20.10833300","longitude":"-88.26250000","name":"Culumpich"},{"id":"1611301","latitude":"19.61666700","longitude":"-88.41666700","name":"Cunyuy"},{"id":"1611402","latitude":"19.30000000","longitude":"-88.10000000","name":"Damian Camona"},{"id":"1611403","latitude":"19.30000000","longitude":"-88.10000000","name":"Dami\ufffdn Carmona"},{"id":"1611613","latitude":"19.08750000","longitude":"-88.80000000","name":"Dieciocho de Marzo"},{"id":"1611731","latitude":"22.60000000","longitude":"-102.30000000","name":"Dolores"},{"id":"1611825","latitude":"18.12916700","longitude":"-89.16250000","name":"Dos Aguadas"},{"id":"1611834","latitude":"17.91666700","longitude":"-88.86666700","name":"Dos Bocas"},{"id":"1611859","latitude":"18.56666700","longitude":"-88.03333300","name":"Dos Hermanas"},{"id":"1611867","latitude":"21.07083300","longitude":"-87.02500000","name":"Dos Matas Pino"},{"id":"1611984","latitude":"20.36666700","longitude":"-88.08750000","name":"Dzith-Ox"},{"id":"1611996","latitude":"20.48333300","longitude":"-88.01666700","name":"Dzok"},{"id":"1612014","latitude":"19.94583300","longitude":"-88.43333300","name":"Dzoyola"},{"id":"1612016","latitude":"19.90000000","longitude":"-88.80000000","name":"Dzuich\ufffd"},{"id":"1612018","latitude":"19.53333300","longitude":"-88.46666700","name":"Dzul\ufffd"},{"id":"1612985","latitude":"18.94166700","longitude":"-88.56666700","name":"El Baj\ufffdo"},{"id":"1613287","latitude":"18.91666700","longitude":"-88.21666700","name":"El Cafetal"},{"id":"1613401","latitude":"19.83333300","longitude":"-88.21666700","name":"El Candil"},{"id":"1613499","latitude":"20.72500000","longitude":"-87.01666700","name":"El Caracol"},{"id":"1613696","latitude":"18.67916700","longitude":"-89.95833300","name":"El Cedral"},{"id":"1614109","latitude":"18.70000000","longitude":"-88.18333300","name":"El Cocal"},{"id":"1614286","latitude":"18.45000000","longitude":"-88.80000000","name":"El Corozal"},{"id":"1614383","latitude":"20.85000000","longitude":"-86.90416700","name":"El Crucero"},{"id":"1614497","latitude":"20.83333300","longitude":"-87.16666700","name":"El Delirio"},{"id":"1614560","latitude":"21.01666700","longitude":"-87.28333300","name":"El D\ufffdaz"},{"id":"1614569","latitude":"21.01666700","longitude":"-87.28333300","name":"El Diez"},{"id":"1614649","latitude":"19.83333300","longitude":"-88.21666700","name":"El Dzibal"},{"id":"1614666","latitude":"21.18333300","longitude":"-87.16666700","name":"El Ed\ufffdn"},{"id":"1614675","latitude":"19.70000000","longitude":"-88.73333300","name":"Elemax"},{"id":"1614676","latitude":"19.70000000","longitude":"-88.73333300","name":"Elemay"},{"id":"1614767","latitude":"19.09166700","longitude":"-88.15833300","name":"El Esfuerzo"},{"id":"1614949","latitude":"18.95833300","longitude":"-88.96666700","name":"El Gallito"},{"id":"1615205","latitude":"20.76666700","longitude":"-86.95000000","name":"El Hijo Pr\ufffddigo"},{"id":"1615298","latitude":"20.87500000","longitude":"-87.55000000","name":"El Ideal"},{"id":"1615786","latitude":"20.66250000","longitude":"-87.02916700","name":"El Marlyn Azul"},{"id":"1615803","latitude":"19.65000000","longitude":"-88.82500000","name":"El Martirio"},{"id":"1615819","latitude":"19.70000000","longitude":"-88.73333300","name":"El Max"},{"id":"1615972","latitude":"19.23333300","longitude":"-88.64583300","name":"El Mirador"},{"id":"1616140","latitude":"19.63333300","longitude":"-88.78333300","name":"El Naranja"},{"id":"1616580","latitude":"18.90000000","longitude":"-88.70416700","name":"El Para\ufffdso"},{"id":"1616905","latitude":"19.00000000","longitude":"-87.60000000","name":"El Placer"},{"id":"1617041","latitude":"19.25000000","longitude":"-87.57500000","name":"El Porvenir"},{"id":"1617293","latitude":"19.39583300","longitude":"-88.60833300","name":"El Ramonal"},{"id":"1617513","latitude":"18.75000000","longitude":"-88.33333300","name":"El Retiro"},{"id":"1617601","latitude":"19.42916700","longitude":"-88.56666700","name":"El Roble"},{"id":"1617969","latitude":"19.82916700","longitude":"-88.11666700","name":"El Se\ufffdor"},{"id":"1617989","latitude":"18.71250000","longitude":"-88.23333300","name":"El Sinal"},{"id":"1618070","latitude":"18.75833300","longitude":"-88.52500000","name":"El Suspiro"},{"id":"1618553","latitude":"19.43333300","longitude":"-88.75000000","name":"El Triunfo"},{"id":"1618640","latitude":"18.95833300","longitude":"-87.60000000","name":"El Uvero"},{"id":"1618992","latitude":"19.07916700","longitude":"-88.78333300","name":"Emiliano Zapata"},{"id":"1618993","latitude":"20.83333300","longitude":"-87.13750000","name":"Emiliano  Zapata"},{"id":"1619122","latitude":"19.88333300","longitude":"-87.86666700","name":"Enegible"},{"id":"1619156","latitude":"18.45000000","longitude":"-88.00000000","name":"Ensenada de Poltico"},{"id":"1619183","latitude":"20.01666700","longitude":"-88.14166700","name":"Epich"},{"id":"1619273","latitude":"19.77500000","longitude":"-89.05000000","name":"Escondido"},{"id":"1619303","latitude":"19.75000000","longitude":"-88.70000000","name":"Esmeralda"},{"id":"1619640","latitude":"18.36666700","longitude":"-88.55000000","name":"Estebes"},{"id":"1619650","latitude":"17.93333300","longitude":"-88.86666700","name":"Estero"},{"id":"1619653","latitude":"17.93333300","longitude":"-88.86666700","name":"Estero Franco"},{"id":"1619663","latitude":"18.36666700","longitude":"-88.55000000","name":"Esteves"},{"id":"1619715","latitude":"19.95833300","longitude":"-88.09166700","name":"Exhacienda San Antonio"},{"id":"1619771","latitude":"19.58333300","longitude":"-88.05000000","name":"Felipe Carillo Puerto"},{"id":"1619778","latitude":"19.58333300","longitude":"-88.05000000","name":"Felipe Carrillo Puerto"},{"id":"1619784","latitude":"19.67500000","longitude":"-87.96250000","name":"Felipe Cerrillo Puerto"},{"id":"1619840","latitude":"19.86666700","longitude":"-88.40000000","name":"Filomeno Mata"},{"id":"1619848","latitude":"20.92916700","longitude":"-86.87500000","name":"Flamingos"},{"id":"1619942","latitude":"18.40000000","longitude":"-88.86666700","name":"Fragua"},{"id":"1619983","latitude":"20.15000000","longitude":"-88.02500000","name":"Francisco I. Madero"},{"id":"1620008","latitude":"18.97500000","longitude":"-88.70000000","name":"Francisco J. Mujica"},{"id":"1620017","latitude":"20.15000000","longitude":"-88.15833300","name":"Francisco May"},{"id":"1620057","latitude":"18.46666700","longitude":"-88.83333300","name":"Francisco Villa"},{"id":"1620234","latitude":"18.41666700","longitude":"-87.75000000","name":"Galiban"},{"id":"1620385","latitude":"19.01666700","longitude":"-88.51666700","name":"Gato"},{"id":"1620404","latitude":"19.49166700","longitude":"-88.75000000","name":"Gavilanes"},{"id":"1620409","latitude":"18.41666700","longitude":"-87.75000000","name":"Gavil\ufffdn"},{"id":"1620422","latitude":"19.60000000","longitude":"-88.55000000","name":"G. David G.G. Ruiz"},{"id":"1620589","latitude":"18.48333300","longitude":"-88.66666700","name":"Gonz\ufffdlez Ortega"},{"id":"1620613","latitude":"19.14583300","longitude":"-88.49166700","name":"Graciano S\ufffdnchez"},{"id":"1620863","latitude":"18.71666700","longitude":"-88.45000000","name":"Guadalupe"},{"id":"1620921","latitude":"19.13333300","longitude":"-88.59166700","name":"Guadalupe  Victoria"},{"id":"1621402","latitude":"19.61666700","longitude":"-88.41666700","name":"Gunyuy"},{"id":"1621410","latitude":"19.21666700","longitude":"-88.35833300","name":"Gustava D\ufffdaz Ordaz"},{"id":"1621415","latitude":"18.41666700","longitude":"-89.15000000","name":"Gustavo D\ufffdaz Ordaz"},{"id":"1621425","latitude":"19.68333300","longitude":"-88.31666700","name":"Guti\ufffdrrez N\ufffdjera"},{"id":"1621707","latitude":"20.75833300","longitude":"-87.22500000","name":"H\ufffdroe de Nacozan"},{"id":"1621774","latitude":"20.60000000","longitude":"-87.66666700","name":"Hidalgo y  Cort\ufffds"},{"id":"1621862","latitude":"19.81666700","longitude":"-88.31666700","name":"Hobompich"},{"id":"1621873","latitude":"21.51666700","longitude":"-87.37500000","name":"Holbox"},{"id":"1621888","latitude":"20.35833300","longitude":"-87.97916700","name":"Hondzonot"},{"id":"1622158","latitude":"18.86666700","longitude":"-88.83333300","name":"Huatusco"},{"id":"1622196","latitude":"20.04166700","longitude":"-88.52083300","name":"Huay Max"},{"id":"1622199","latitude":"18.50000000","longitude":"-88.41666700","name":"Huay Pix"},{"id":"1622539","latitude":"19.90000000","longitude":"-89.00000000","name":"Huitzina"},{"id":"1622673","latitude":"18.08333300","longitude":"-89.16666700","name":"Icaich\ufffd"},{"id":"1622840","latitude":"19.60000000","longitude":"-88.78333300","name":"Insurgentes"},{"id":"1622909","latitude":"21.20000000","longitude":"-86.71666700","name":"Isla Mujeres"},{"id":"1622942","latitude":"19.03333300","longitude":"-88.61666700","name":"Iturbide"},{"id":"1623497","latitude":"19.88333300","longitude":"-88.59166700","name":"Javier Rojo G\ufffdmez"},{"id":"1623571","latitude":"20.69583300","longitude":"-87.03333300","name":"Jesusito"},{"id":"1623606","latitude":"19.06666700","longitude":"-88.75000000","name":"Jes\ufffds Mart\ufffdnez Ross"},{"id":"1623869","latitude":"19.75000000","longitude":"-88.71666700","name":"Jos\ufffd Mar\ufffda Morelos"},{"id":"1623903","latitude":"18.10833300","longitude":"-88.73333300","name":"Jos\ufffd N. Rovirosa"},{"id":"1624093","latitude":"18.48333300","longitude":"-88.48333300","name":"Juan Sarabia"},{"id":"1624231","latitude":"19.92916700","longitude":"-88.86250000","name":"Justicia Social"},{"id":"1624254","latitude":"19.87916700","longitude":"-88.31666700","name":"Kampocolch\ufffd"},{"id":"1624255","latitude":"19.85000000","longitude":"-88.32916700","name":"Kampoco Nuevo"},{"id":"1624268","latitude":"19.90000000","longitude":"-87.81666700","name":"Kancab-Ch\ufffd"},{"id":"1624269","latitude":"19.71666700","longitude":"-88.95000000","name":"Kancabchen"},{"id":"1624270","latitude":"19.75000000","longitude":"-88.44583300","name":"Kancab-Ch\ufffdn"},{"id":"1624282","latitude":"19.71666700","longitude":"-88.85833300","name":"Kankab-Ch\ufffdn"},{"id":"1624284","latitude":"20.36666700","longitude":"-88.18333300","name":"Kan Kadzonot"},{"id":"1624289","latitude":"19.33333300","longitude":"-88.90000000","name":"Kantemo"},{"id":"1624294","latitude":"21.09166700","longitude":"-87.45000000","name":"Kantunilkin"},{"id":"1624303","latitude":"19.53333300","longitude":"-88.46666700","name":"Kava"},{"id":"1624353","latitude":"18.41666700","longitude":"-88.80000000","name":"Kohunlich"},{"id":"1624355","latitude":"19.45000000","longitude":"-88.26666700","name":"Komch\ufffdn"},{"id":"1624361","latitude":"19.30000000","longitude":"-88.13333300","name":"Kopchen"},{"id":"1624362","latitude":"19.30000000","longitude":"-88.13333300","name":"Kopchhen"},{"id":"1624689","latitude":"17.91666700","longitude":"-88.86666700","name":"La Boca"},{"id":"1624854","latitude":"18.98333300","longitude":"-88.50000000","name":"La Buena Fe"},{"id":"1625499","latitude":"18.06666700","longitude":"-88.73333300","name":"La Concepci\ufffdn"},{"id":"1625815","latitude":"18.45000000","longitude":"-88.00000000","name":"La Ensenada"},{"id":"1625882","latitude":"19.75000000","longitude":"-88.70000000","name":"La Esmeralda"},{"id":"1625908","latitude":"19.85833300","longitude":"-88.58333300","name":"La Esperanza"},{"id":"1626019","latitude":"20.67500000","longitude":"-87.02500000","name":"Lafitte"},{"id":"1626203","latitude":"20.50416700","longitude":"-87.25000000","name":"La Gloria"},{"id":"1626288","latitude":"19.70000000","longitude":"-88.00000000","name":"La Guardia"},{"id":"1626355","latitude":"19.92500000","longitude":"-87.76666700","name":"Laguna de la Esperanza"},{"id":"1626402","latitude":"18.68333300","longitude":"-88.26666700","name":"Laguna Guerrero"},{"id":"1626405","latitude":"19.50000000","longitude":"-88.38333300","name":"Laguna Kan\ufffd"},{"id":"1626700","latitude":"20.95000000","longitude":"-86.87500000","name":"La Isla"},{"id":"1627534","latitude":"20.23333300","longitude":"-88.13333300","name":"La Na"},{"id":"1627846","latitude":"18.35000000","longitude":"-88.58333300","name":"La Pasadit"},{"id":"1629105","latitude":"19.77500000","longitude":"-87.94166700","name":"Las Estrellas"},{"id":"1629432","latitude":"19.06666700","longitude":"-88.75000000","name":"Lasliros"},{"id":"1629749","latitude":"19.26250000","longitude":"-88.09166700","name":"Las Palmas"},{"id":"1630457","latitude":"17.90000000","longitude":"-88.88333300","name":"La Uni\ufffdn"},{"id":"1630617","latitude":"19.43333300","longitude":"-87.45000000","name":"La Victoria"},{"id":"1630671","latitude":"18.86250000","longitude":"-88.44166700","name":"La Virtud"},{"id":"1630760","latitude":"18.69166700","longitude":"-88.85416700","name":"L\ufffdzaro C\ufffdrdenas"},{"id":"1630832","latitude":"20.96666700","longitude":"-87.19166700","name":"Leona Vicario"},{"id":"1630903","latitude":"18.75833300","longitude":"-88.85416700","name":"Libertad"},{"id":"1630946","latitude":"18.79583300","longitude":"-88.86666700","name":"Limonar"},{"id":"1630964","latitude":"18.98333300","longitude":"-88.10000000","name":"Limones"},{"id":"1631012","latitude":"19.06666700","longitude":"-88.75000000","name":"Lirios"},{"id":"1631207","latitude":"19.38333300","longitude":"-89.13333300","name":"Locche"},{"id":"1631209","latitude":"19.38333300","longitude":"-89.13333300","name":"Lochh\ufffd"},{"id":"1631210","latitude":"19.38333300","longitude":"-89.13333300","name":"Lochh\ufffd"},{"id":"1631259","latitude":"20.50000000","longitude":"-87.93333300","name":"Lol-Be"},{"id":"1632027","latitude":"20.50277800","longitude":"-86.76666700","name":"Los Cocos"},{"id":"1632149","latitude":"19.07916700","longitude":"-88.45000000","name":"Los Divorciados"},{"id":"1632161","latitude":"20.60000000","longitude":"-87.10000000","name":"Los Dos Compadres"},{"id":"1632331","latitude":"19.47500000","longitude":"-88.60416700","name":"Los Guiros"},{"id":"1632523","latitude":"19.06666700","longitude":"-88.75000000","name":"Los Lirios"},{"id":"1633369","latitude":"18.65416700","longitude":"-88.20833300","name":"Luis Echeverr\ufffda"},{"id":"1633417","latitude":"20.55416700","longitude":"-87.74166700","name":"Luz"},{"id":"1633427","latitude":"19.26666700","longitude":"-89.33333300","name":"Macanch\ufffd"},{"id":"1633434","latitude":"20.33333300","longitude":"-87.56666700","name":"Macario G\ufffdmez"},{"id":"1633655","latitude":"18.71666700","longitude":"-87.71666700","name":"Mahagual"},{"id":"1633704","latitude":"18.71666700","longitude":"-87.71666700","name":"Majahual"},{"id":"1633710","latitude":"18.71666700","longitude":"-87.71666700","name":"Majaqual"},{"id":"1634080","latitude":"18.93333300","longitude":"-88.61666700","name":"Margarita Maza de Ju\ufffdrez"},{"id":"1634130","latitude":"19.63333300","longitude":"-88.75000000","name":"Mariano"},{"id":"1634174","latitude":"20.65833300","longitude":"-87.03333300","name":"Marlin Azul"},{"id":"1634210","latitude":"18.96666700","longitude":"-88.38333300","name":"Marru\ufffdo"},{"id":"1634479","latitude":"19.00000000","longitude":"-88.26666700","name":"M. Avila Camacho"},{"id":"1634684","latitude":"19.05000000","longitude":"-88.97916700","name":"Melchor Ocampo"},{"id":"1634726","latitude":"18.30000000","longitude":"-88.61666700","name":"Mengel"},{"id":"1634920","latitude":"19.33333300","longitude":"-89.36666700","name":"Mesapich"},{"id":"1635270","latitude":"18.81666700","longitude":"-88.33333300","name":"Miguel Hidalgo"},{"id":"1635304","latitude":"20.03333300","longitude":"-87.66666700","name":"Mil\ufffdn"},{"id":"1635625","latitude":"19.38333300","longitude":"-88.25000000","name":"Mixtequilla"},{"id":"1635633","latitude":"20.08333300","longitude":"-87.76666700","name":"Mizal"},{"id":"1635677","latitude":"18.95000000","longitude":"-88.65000000","name":"Modesto C\ufffdmara"},{"id":"1635691","latitude":"18.46666700","longitude":"-88.93333300","name":"Mohacal"},{"id":"1635731","latitude":"20.59166700","longitude":"-86.73750000","name":"Molas"},{"id":"1635808","latitude":"19.48333300","longitude":"-88.02916700","name":"Molul"},{"id":"1635886","latitude":"18.68333300","longitude":"-88.45000000","name":"Montecristo"},{"id":"1635957","latitude":"19.26666700","longitude":"-88.70833300","name":"Monte Olivo"},{"id":"1636001","latitude":"20.36250000","longitude":"-87.67916700","name":"Monte Sinal"},{"id":"1636109","latitude":"18.36666700","longitude":"-88.76666700","name":"Moreno"},{"id":"1636142","latitude":"18.60416700","longitude":"-88.31666700","name":"Morocoy"},{"id":"1636269","latitude":"21.20000000","longitude":"-86.71666700","name":"Mujeres"},{"id":"1636348","latitude":"20.06666700","longitude":"-87.61666700","name":"Muyil"},{"id":"1636374","latitude":"18.47916700","longitude":"-88.75833300","name":"Nachicocom"},{"id":"1636493","latitude":"20.05833300","longitude":"-88.32916700","name":"Naranjal"},{"id":"1636497","latitude":"19.36666700","longitude":"-88.45833300","name":"Naranjal Poniente"},{"id":"1636740","latitude":"18.45000000","longitude":"-88.91666700","name":"Nicol\ufffds Bravo"},{"id":"1636872","latitude":"18.46666700","longitude":"-88.93333300","name":"Nohakal"},{"id":"1636876","latitude":"19.18750000","longitude":"-89.16666700","name":"Noha"},{"id":"1636880","latitude":"19.08333300","longitude":"-88.18333300","name":"Nohbec"},{"id":"1636881","latitude":"19.86666700","longitude":"-89.05000000","name":"Noh-Bec"},{"id":"1636882","latitude":"19.08333300","longitude":"-88.18333300","name":"Nohbek"},{"id":"1636885","latitude":"19.43333300","longitude":"-88.15000000","name":"Noh-Cah"},{"id":"1636894","latitude":"18.78333300","longitude":"-89.10000000","name":"Nohpimienta"},{"id":"1636895","latitude":"20.42500000","longitude":"-88.10833300","name":"Noh-Suyt\ufffdn"},{"id":"1637120","latitude":"18.73333300","longitude":"-89.23333300","name":"Noshayab"},{"id":"1637196","latitude":"18.88333300","longitude":"-88.53333300","name":"Nueva Jerusalem"},{"id":"1637199","latitude":"19.30000000","longitude":"-88.53333300","name":"Nueva Loria"},{"id":"1637245","latitude":"20.44166700","longitude":"-87.76666700","name":"Nueva Uni\ufffdn"},{"id":"1637268","latitude":"18.72083300","longitude":"-89.13333300","name":"Nuevo Becar"},{"id":"1637271","latitude":"18.90416700","longitude":"-89.13750000","name":"Nuevo Cana\ufffdn"},{"id":"1637289","latitude":"19.35833300","longitude":"-88.76666700","name":"Nuevo Conduc\ufffdn"},{"id":"1637300","latitude":"20.71666700","longitude":"-87.58333300","name":"Nuevo Durango"},{"id":"1637313","latitude":"19.10000000","longitude":"-88.71666700","name":"Nuevo Hoctum"},{"id":"1637322","latitude":"19.25000000","longitude":"-88.55000000","name":"Nuevo Israel"},{"id":"1637399","latitude":"19.30833300","longitude":"-88.65000000","name":"Nuevo Plan de la Noria"},{"id":"1637414","latitude":"19.23750000","longitude":"-89.16666700","name":"Nuevo Put"},{"id":"1637459","latitude":"20.95000000","longitude":"-87.28750000","name":"Nuevo Valladolid"},{"id":"1637495","latitude":"20.86666700","longitude":"-87.59583300","name":"Nyo X Can"},{"id":"1637673","latitude":"18.48333300","longitude":"-88.48333300","name":"Ocum"},{"id":"1637925","latitude":"19.96666700","longitude":"-88.50000000","name":"Okop"},{"id":"1638114","latitude":"19.62500000","longitude":"-89.02500000","name":"Orth\ufffdn P. Blanco"},{"id":"1638190","latitude":"19.01666700","longitude":"-88.83333300","name":"Otilio Monta\ufffdo"},{"id":"1638289","latitude":"20.51666700","longitude":"-87.18333300","name":"Paamul"},{"id":"1638331","latitude":"19.30000000","longitude":"-88.16666700","name":"Pachinul"},{"id":"1638334","latitude":"19.30000000","longitude":"-88.16666700","name":"Pachmul"},{"id":"1638524","latitude":"18.20000000","longitude":"-88.66666700","name":"Palmarcito"},{"id":"1638561","latitude":"18.20000000","longitude":"-88.66666700","name":"Palmarito"},{"id":"1638576","latitude":"18.20000000","longitude":"-88.66666700","name":"Palmar"},{"id":"1638688","latitude":"20.51666700","longitude":"-87.18333300","name":"Palmol"},{"id":"1638689","latitude":"20.51666700","longitude":"-87.18333300","name":"Palmul"},{"id":"1638787","latitude":"19.96083300","longitude":"-88.38333300","name":"Palomar"},{"id":"1638912","latitude":"20.51666700","longitude":"-87.18333300","name":"Pamul"},{"id":"1639102","latitude":"18.98333300","longitude":"-88.48333300","name":"Paraiso"},{"id":"1639109","latitude":"18.40000000","longitude":"-88.05833300","name":"Paraje Calentura"},{"id":"1639118","latitude":"18.40000000","longitude":"-88.80000000","name":"Paraje"},{"id":"1639538","latitude":"21.51666700","longitude":"-87.10000000","name":"Paso Xolul"},{"id":"1639655","latitude":"18.50000000","longitude":"-88.30000000","name":"Payo Obispo"},{"id":"1639656","latitude":"19.27916700","longitude":"-88.40416700","name":"Paytoro"},{"id":"1639727","latitude":"18.95000000","longitude":"-88.16666700","name":"Pedro Antonio S\ufffdntos"},{"id":"1639749","latitude":"19.54166700","longitude":"-88.72500000","name":"Pedro Moreno"},{"id":"1639920","latitude":"21.15416700","longitude":"-87.14166700","name":"P\ufffdnjamo"},{"id":"1640070","latitude":"19.26666700","longitude":"-88.20000000","name":"Petacab"},{"id":"1640090","latitude":"19.26666700","longitude":"-88.20000000","name":"Petcacab"},{"id":"1640097","latitude":"19.20000000","longitude":"-88.42500000","name":"Pet\ufffd Tulix"},{"id":"1640113","latitude":"20.05000000","longitude":"-88.69166700","name":"Petulillo"},{"id":"1640362","latitude":"18.43333300","longitude":"-89.15000000","name":"Piedras Negras"},{"id":"1640471","latitude":"19.49583300","longitude":"-88.65833300","name":"Pimienta"},{"id":"1640549","latitude":"20.11666700","longitude":"-87.58750000","name":"Pino Su\ufffdrez"},{"id":"1640672","latitude":"19.00000000","longitude":"-87.60000000","name":"Placer"},{"id":"1640730","latitude":"19.31666700","longitude":"-88.78333300","name":"Plan de la Noria"},{"id":"1640833","latitude":"20.27916700","longitude":"-87.39166700","name":"Playa Aventura"},{"id":"1640848","latitude":"20.61666700","longitude":"-87.06666700","name":"Playa del Carmen"},{"id":"1641015","latitude":"19.95000000","longitude":"-88.83333300","name":"Pocol"},{"id":"1641040","latitude":"19.15000000","longitude":"-88.21666700","name":"Polink\ufffdn"},{"id":"1641041","latitude":"19.15000000","longitude":"-88.21666700","name":"Polinquin"},{"id":"1641055","latitude":"19.15000000","longitude":"-88.21666700","name":"Poluincil"},{"id":"1641056","latitude":"19.15000000","longitude":"-88.21666700","name":"Poluink\ufffdn"},{"id":"1641067","latitude":"19.61666700","longitude":"-88.55000000","name":"Polytic"},{"id":"1641068","latitude":"19.60000000","longitude":"-88.61666700","name":"Polyuc"},{"id":"1641087","latitude":"19.51666700","longitude":"-88.26666700","name":"Pom"},{"id":"1641535","latitude":"19.18333300","longitude":"-88.08333300","name":"Pozo Pemex"},{"id":"1641538","latitude":"19.62083300","longitude":"-88.88750000","name":"Pozo Pirata"},{"id":"1641675","latitude":"19.32500000","longitude":"-88.56250000","name":"Presidente Ju\ufffdrez"},{"id":"1641706","latitude":"19.80000000","longitude":"-88.75833300","name":"Presumida"},{"id":"1641774","latitude":"19.10416700","longitude":"-88.65000000","name":"Progreso"},{"id":"1641839","latitude":"18.21666700","longitude":"-88.65000000","name":"Puct\ufffd"},{"id":"1641928","latitude":"18.35000000","longitude":"-88.58333300","name":"Puenta Agua Dulce"},{"id":"1642161","latitude":"19.65833300","longitude":"-89.06666700","name":"Puerto Arturo"},{"id":"1642169","latitude":"18.79583300","longitude":"-87.66666700","name":"Puerto Bravo"},{"id":"1642311","latitude":"21.18333300","longitude":"-86.81666700","name":"Puerto Ju\ufffdrez"},{"id":"1642333","latitude":"19.28333300","longitude":"-87.46666700","name":"Puerto Madero"},{"id":"1642346","latitude":"20.83333300","longitude":"-86.86666700","name":"Puerto Morelos"},{"id":"1642427","latitude":"19.76666700","longitude":"-87.45000000","name":"Punta Allen"},{"id":"1642476","latitude":"20.65416700","longitude":"-87.63333300","name":"Punta Laguna"},{"id":"1642479","latitude":"20.75000000","longitude":"-86.98333300","name":"Punta Maroma"},{"id":"1642481","latitude":"20.55833300","longitude":"-86.90000000","name":"Punta Norte"},{"id":"1642569","latitude":"19.65416700","longitude":"-89.43333300","name":"Put"},{"id":"1642721","latitude":"20.46250000","longitude":"-88.13333300","name":"Quintana"},{"id":"1642840","latitude":"18.41666700","longitude":"-88.53333300","name":"Ramonal"},{"id":"1642875","latitude":"19.70000000","longitude":"-87.75000000","name":"Ranas"},{"id":"1643061","latitude":"18.71666700","longitude":"-88.36666700","name":"Rancho Bacalar"},{"id":"1644260","latitude":"18.90000000","longitude":"-88.21666700","name":"Rancho Judas Tadeo"},{"id":"1645582","latitude":"19.49583300","longitude":"-88.11666700","name":"Rancho San  Isidro"},{"id":"1646045","latitude":"19.91250000","longitude":"-88.54166700","name":"Rancho Viejo"},{"id":"1646046","latitude":"20.30000000","longitude":"-87.50416700","name":"Rancho  Viejo"},{"id":"1646047","latitude":"21.20000000","longitude":"-86.91250000","name":"Rancho Viejo"},{"id":"1646213","latitude":"19.20388900","longitude":"-88.11250000","name":"Reforma Agraria"},{"id":"1646230","latitude":"18.75000000","longitude":"-88.51666700","name":"Reforma"},{"id":"1646728","latitude":"18.88333300","longitude":"-88.76666700","name":"R\ufffdo Escondido"},{"id":"1646758","latitude":"18.80833300","longitude":"-87.66666700","name":"R\ufffdo Indio"},{"id":"1646825","latitude":"21.41666700","longitude":"-87.25000000","name":"R\ufffdo Turbio"},{"id":"1646835","latitude":"19.03750000","longitude":"-89.04166700","name":"R\ufffdo Verde"},{"id":"1647109","latitude":"18.41666700","longitude":"-88.78333300","name":"Ruinas Kohunl\ufffdch"},{"id":"1647139","latitude":"19.05000000","longitude":"-88.75000000","name":"Sabana Grande"},{"id":"1647172","latitude":"20.03333300","longitude":"-88.58333300","name":"Sab\ufffdn"},{"id":"1647180","latitude":"18.33333300","longitude":"-88.55000000","name":"Sabidos"},{"id":"1647249","latitude":"18.91666700","longitude":"-89.11666700","name":"Sacbecan"},{"id":"1647256","latitude":"18.45000000","longitude":"-88.53333300","name":"Sac Kaan"},{"id":"1647279","latitude":"18.45000000","longitude":"-88.53333300","name":"Sac Xaan"},{"id":"1647280","latitude":"18.45000000","longitude":"-88.53333300","name":"Sacx\ufffdn"},{"id":"1647298","latitude":"19.70000000","longitude":"-88.00000000","name":"Sahcab\ufffd"},{"id":"1647301","latitude":"19.43333300","longitude":"-88.36666700","name":"Sahcabch\ufffdn"},{"id":"1647303","latitude":"19.70000000","longitude":"-88.00000000","name":"Sahcabo"},{"id":"1647305","latitude":"20.41250000","longitude":"-87.97083300","name":"Sahcamucuy"},{"id":"1647337","latitude":"20.65000000","longitude":"-87.61666700","name":"Sajacanch\ufffdn"},{"id":"1647834","latitude":"21.21666700","longitude":"-87.42500000","name":"San Angel"},{"id":"1648081","latitude":"19.66666700","longitude":"-88.08333300","name":"San Antonio Nuevo"},{"id":"1648283","latitude":"20.16666700","longitude":"-88.05833300","name":"San Bartolo"},{"id":"1648410","latitude":"18.89583300","longitude":"-88.16666700","name":"San Carlos"},{"id":"1648467","latitude":"20.79722200","longitude":"-87.50000000","name":"San Cosme"},{"id":"1648506","latitude":"19.55833300","longitude":"-88.66666700","name":"San Crist\ufffdbal"},{"id":"1648534","latitude":"19.32500000","longitude":"-88.33333300","name":"San Daniel"},{"id":"1648592","latitude":"19.36666700","longitude":"-88.25000000","name":"San Diego"},{"id":"1648638","latitude":"20.85000000","longitude":"-87.08333300","name":"San Eduardo"},{"id":"1648684","latitude":"21.38333300","longitude":"-87.34166700","name":"San Eusebio"},{"id":"1648698","latitude":"18.80000000","longitude":"-88.40833300","name":"San Felipe Bacalar"},{"id":"1648749","latitude":"18.80000000","longitude":"-88.81666700","name":"San Felipe"},{"id":"1648808","latitude":"18.88333300","longitude":"-88.56666700","name":"San Fernando"},{"id":"1648820","latitude":"19.96250000","longitude":"-88.35000000","name":"San Francisco Ake"},{"id":"1648825","latitude":"18.10000000","longitude":"-88.71666700","name":"San Francisco Botes"},{"id":"1648976","latitude":"19.55000000","longitude":"-89.08333300","name":"San Francisco"},{"id":"1649291","latitude":"19.34166700","longitude":"-88.88750000","name":"San Isidro Poniente"},{"id":"1649310","latitude":"19.41666700","longitude":"-88.10000000","name":"San Isidro"},{"id":"1649699","latitude":"18.36666700","longitude":"-89.00000000","name":"San Jos\ufffd de la Monta\ufffda"},{"id":"1650012","latitude":"19.80000000","longitude":"-88.10833300","name":"San Jos\ufffd Primero"},{"id":"1650041","latitude":"18.70000000","longitude":"-88.21666700","name":"San Jos\ufffd"},{"id":"1650077","latitude":"18.70000000","longitude":"-88.26666700","name":"San Jos\ufffd Xcayal"},{"id":"1650210","latitude":"20.38333300","longitude":"-87.75416700","name":"San Juan de Dios"},{"id":"1650425","latitude":"20.02500000","longitude":"-88.61666700","name":"San Juan Ote"},{"id":"1650630","latitude":"19.34583300","longitude":"-88.35000000","name":"San Lorenzo"},{"id":"1650781","latitude":"19.65833300","longitude":"-88.44583300","name":"San Luis"},{"id":"1650818","latitude":"18.60416700","longitude":"-88.22916700","name":"San Manuel"},{"id":"1650864","latitude":"19.83750000","longitude":"-88.78333300","name":"San Marcos"},{"id":"1650925","latitude":"20.83055600","longitude":"-87.28333300","name":"San Martiniano"},{"id":"1650954","latitude":"20.53333300","longitude":"-87.18333300","name":"San Mart\ufffdn"},{"id":"1651127","latitude":"20.50833300","longitude":"-86.94583300","name":"San Miguel Cozumel"},{"id":"1651139","latitude":"20.50833300","longitude":"-86.94583300","name":"San Miguel de Cozumel"},{"id":"1651217","latitude":"20.70833300","longitude":"-87.00000000","name":"San Miguelito"},{"id":"1651427","latitude":"20.30833300","longitude":"-88.20000000","name":"San Nicol\ufffds"},{"id":"1651518","latitude":"20.06666700","longitude":"-87.63333300","name":"San Pablo"},{"id":"1651758","latitude":"18.70833300","longitude":"-88.85416700","name":"San Pedro Peralta"},{"id":"1651794","latitude":"19.31666700","longitude":"-88.15000000","name":"San Pedro"},{"id":"1651875","latitude":"20.13333300","longitude":"-87.95000000","name":"San Polito"},{"id":"1651876","latitude":"18.01666700","longitude":"-88.76666700","name":"San Prudencio"},{"id":"1651972","latitude":"20.13333300","longitude":"-88.11250000","name":"San Ram\ufffdn"},{"id":"1652000","latitude":"18.76666700","longitude":"-88.55000000","name":"San Roman"},{"id":"1652043","latitude":"20.31250000","longitude":"-88.06250000","name":"San Salvador"},{"id":"1652109","latitude":"20.35000000","longitude":"-88.01666700","name":"San Silverio"},{"id":"1652401","latitude":"18.23333300","longitude":"-87.83333300","name":"Santa Cecilia"},{"id":"1652454","latitude":"18.91666700","longitude":"-88.15000000","name":"Santa Cruz Chico"},{"id":"1652463","latitude":"19.58333300","longitude":"-88.05000000","name":"Santa Cruz de Bravo"},{"id":"1652624","latitude":"18.48333300","longitude":"-88.40000000","name":"Santa Elena"},{"id":"1652715","latitude":"19.80000000","longitude":"-88.77500000","name":"Santa Gertrudis"},{"id":"1652784","latitude":"19.47916700","longitude":"-88.10000000","name":"Santa Isabel"},{"id":"1652808","latitude":"19.77500000","longitude":"-87.46666700","name":"Santa Julia"},{"id":"1652845","latitude":"18.48333300","longitude":"-88.48333300","name":"Santa Lucia"},{"id":"1653050","latitude":"19.36666700","longitude":"-88.40416700","name":"Santa Mar\ufffda Poniente"},{"id":"1653079","latitude":"19.86666700","longitude":"-88.40000000","name":"Santa Mar\ufffda"},{"id":"1653358","latitude":"18.48333300","longitude":"-88.46666700","name":"Santa Rosa"},{"id":"1653406","latitude":"18.01666700","longitude":"-88.78333300","name":"Santa Teresa"},{"id":"1653730","latitude":"19.76666700","longitude":"-88.70000000","name":"Santo Domingo"},{"id":"1653814","latitude":"19.81666700","longitude":"-88.72500000","name":"Santo Tom\ufffds"},{"id":"1654096","latitude":"19.05000000","longitude":"-88.75000000","name":"Savana Grande"},{"id":"1654210","latitude":"19.76666700","longitude":"-87.78333300","name":"Se\ufffdor Dos Esperanzas"},{"id":"1654212","latitude":"19.83333300","longitude":"-88.11666700","name":"Se\ufffdor"},{"id":"1654229","latitude":"18.55000000","longitude":"-88.58333300","name":"Sergio Buitr\ufffdn"},{"id":"1654408","latitude":"21.53333300","longitude":"-87.16666700","name":"Sinal"},{"id":"1654482","latitude":"20.66666700","longitude":"-87.05000000","name":"Smyrna"},{"id":"1654584","latitude":"21.46666700","longitude":"-87.05000000","name":"Solferino"},{"id":"1654599","latitude":"21.34166700","longitude":"-87.43333300","name":"Sollerino"},{"id":"1654778","latitude":"18.48333300","longitude":"-88.40000000","name":"Subteniente L\ufffdpez"},{"id":"1654844","latitude":"18.73333300","longitude":"-88.50000000","name":"Suspiro"},{"id":"1654873","latitude":"19.97500000","longitude":"-88.68333300","name":"Tabasco"},{"id":"1654891","latitude":"19.75000000","longitude":"-88.26666700","name":"Tabil"},{"id":"1654893","latitude":"19.75000000","longitude":"-88.26666700","name":"Tab\ufffd"},{"id":"1655175","latitude":"19.53333300","longitude":"-88.61666700","name":"Tampak"},{"id":"1655177","latitude":"19.15000000","longitude":"-87.52083300","name":"Tampalam"},{"id":"1655214","latitude":"20.23333300","longitude":"-87.41666700","name":"Tancah"},{"id":"1655217","latitude":"20.23333300","longitude":"-87.41666700","name":"Tan-Can"},{"id":"1655218","latitude":"20.23333300","longitude":"-87.41666700","name":"Tancar"},{"id":"1656652","latitude":"20.24166700","longitude":"-88.23333300","name":"Tepich"},{"id":"1657238","latitude":"18.83333300","longitude":"-88.55000000","name":"Tierra Negra"},{"id":"1657287","latitude":"19.70416700","longitude":"-89.05000000","name":"Tigre Grande"},{"id":"1657305","latitude":"20.20833300","longitude":"-88.37500000","name":"Tihosuco"},{"id":"1657318","latitude":"19.91666700","longitude":"-88.15000000","name":"Tik"},{"id":"1657483","latitude":"19.91666700","longitude":"-88.21666700","name":"Tixcacal Guardia"},{"id":"1657485","latitude":"19.91666700","longitude":"-88.21666700","name":"Tixcacal"},{"id":"1657509","latitude":"19.35000000","longitude":"-88.26250000","name":"Tixmul"},{"id":"1657964","latitude":"19.86666700","longitude":"-88.93333300","name":"Tobxil\ufffd"},{"id":"1658055","latitude":"18.48333300","longitude":"-89.18333300","name":"Tomas Aznar"},{"id":"1658059","latitude":"18.01666700","longitude":"-89.06666700","name":"Tom\ufffds Garrido"},{"id":"1658490","latitude":"18.23333300","longitude":"-89.01666700","name":"Tres Garant\ufffdas"},{"id":"1658514","latitude":"20.83333300","longitude":"-87.21666700","name":"Tres Mar\ufffdas"},{"id":"1658540","latitude":"19.73333300","longitude":"-87.88333300","name":"Tres Reyes"},{"id":"1658546","latitude":"19.45000000","longitude":"-88.86666700","name":"Tres Rosas"},{"id":"1658769","latitude":"20.12500000","longitude":"-87.45000000","name":"Tulum"},{"id":"1658770","latitude":"20.21666700","longitude":"-87.46666700","name":"Tul\ufffdn"},{"id":"1658838","latitude":"19.88333300","longitude":"-88.13333300","name":"Tusik"},{"id":"1658953","latitude":"19.40000000","longitude":"-88.66666700","name":"Tzolicab"},{"id":"1658967","latitude":"19.00000000","longitude":"-87.58750000","name":"Tzucox"},{"id":"1658985","latitude":"18.63333300","longitude":"-88.20000000","name":"Ubero"},{"id":"1658993","latitude":"18.48333300","longitude":"-88.48333300","name":"Uc\ufffdm"},{"id":"1658997","latitude":"19.41666700","longitude":"-88.04583300","name":"Uh -May"},{"id":"1659000","latitude":"19.85000000","longitude":"-89.05000000","name":"Uitziln\ufffd"},{"id":"1659001","latitude":"19.85000000","longitude":"-89.05000000","name":"Uitzina"},{"id":"1659034","latitude":"21.05416700","longitude":"-87.43333300","name":"Unidad \ufffdfrica"},{"id":"1659035","latitude":"19.99166700","longitude":"-88.43333300","name":"Unidad Agr\ufffdcola Chan-Xc\ufffdn"},{"id":"1659036","latitude":"18.16666700","longitude":"-88.80000000","name":"Unidad Agr\ufffdcola Chechmil"},{"id":"1659037","latitude":"19.13333300","longitude":"-88.20833300","name":"Unidad Agr\ufffdcola  Cuauht\ufffdmoc"},{"id":"1659038","latitude":"17.96666700","longitude":"-88.91666700","name":"Unidad Agr\ufffdcola El Hular"},{"id":"1659039","latitude":"18.06250000","longitude":"-88.91666700","name":"Unidad Agr\ufffdcola Galeras"},{"id":"1659040","latitude":"20.25000000","longitude":"-87.42083300","name":"Unidad Agr\ufffdcola Tan Kah"},{"id":"1659041","latitude":"19.88750000","longitude":"-88.22500000","name":"Unidad  Agr\ufffdcola X.- Hazil"},{"id":"1659043","latitude":"18.59166700","longitude":"-88.46666700","name":"Unidad de Riego"},{"id":"1659044","latitude":"19.85000000","longitude":"-88.90833300","name":"Unidad de  Riego"},{"id":"1659045","latitude":"21.22500000","longitude":"-87.37916700","name":"Unidad Ganadera Emiliano Zapata"},{"id":"1659046","latitude":"18.25416700","longitude":"-88.82083300","name":"Unidad Ganadera La Juventud"},{"id":"1659047","latitude":"20.75416700","longitude":"-87.48333300","name":"Unidad Ganadera Santa Ana"},{"id":"1659048","latitude":"19.43333300","longitude":"-88.01666700","name":"Unidad Ganadera Tres Pocitos"},{"id":"1659053","latitude":"19.43750000","longitude":"-88.12916700","name":"Unidad Riego"},{"id":"1659087","latitude":"21.25833300","longitude":"-87.24166700","name":"Uni\ufffdn"},{"id":"1659105","latitude":"18.70000000","longitude":"-88.44166700","name":"Urbe Blanca"},{"id":"1659142","latitude":"18.71666700","longitude":"-88.25000000","name":"Ursulo Galv\ufffdn"},{"id":"1659162","latitude":"18.63333300","longitude":"-88.20000000","name":"Uvero"},{"id":"1659166","latitude":"20.32500000","longitude":"-87.64166700","name":"Uxul"},{"id":"1659269","latitude":"18.41666700","longitude":"-88.91666700","name":"Valito"},{"id":"1659277","latitude":"20.86388900","longitude":"-87.06666700","name":"Vallarta"},{"id":"1659345","latitude":"19.18333300","longitude":"-88.51666700","name":"Valle Hermoso"},{"id":"1659650","latitude":"19.30000000","longitude":"-88.76666700","name":"Venustiano Carranza"},{"id":"1659665","latitude":"18.70833300","longitude":"-89.06666700","name":"Veracruz"},{"id":"1659769","latitude":"20.93333300","longitude":"-87.32500000","name":"Vicente Guerrero"},{"id":"1659866","latitude":"19.76666700","longitude":"-87.58333300","name":"Vig\ufffda Chico"},{"id":"1660284","latitude":"19.75000000","longitude":"-88.16666700","name":"Xaaxkax"},{"id":"1660366","latitude":"19.85000000","longitude":"-87.71666700","name":"Xarcos"},{"id":"1660371","latitude":"18.75000000","longitude":"-88.18333300","name":"Xax\ufffdn"},{"id":"1660386","latitude":"20.16666700","longitude":"-88.46666700","name":"X-Cabil"},{"id":"1660388","latitude":"18.26666700","longitude":"-87.83333300","name":"Xcalac"},{"id":"1660389","latitude":"18.26666700","longitude":"-87.83333300","name":"Xcalak"},{"id":"1660397","latitude":"20.07500000","longitude":"-88.30833300","name":"X-Ca\ufffda"},{"id":"1660401","latitude":"19.10000000","longitude":"-89.33333300","name":"Xcanh\ufffd"},{"id":"1660402","latitude":"19.75000000","longitude":"-88.48333300","name":"Xcansul"},{"id":"1660408","latitude":"20.55000000","longitude":"-87.18333300","name":"Xcaret"},{"id":"1660409","latitude":"20.58333300","longitude":"-87.11666700","name":"X Caret"},{"id":"1660417","latitude":"19.46666700","longitude":"-87.95000000","name":"Xcintoil"},{"id":"1660419","latitude":"19.83333300","longitude":"-88.98333300","name":"Xcobilacal"},{"id":"1660423","latitude":"19.43750000","longitude":"-88.09166700","name":"X-Conh\ufffd"},{"id":"1660424","latitude":"18.18333300","longitude":"-88.70000000","name":"Xcop\ufffdn"},{"id":"1660447","latitude":"20.08333300","longitude":"-87.94166700","name":"Xdoznot Chico"},{"id":"1660449","latitude":"20.45000000","longitude":"-87.30000000","name":"Xelh\ufffd"},{"id":"1660450","latitude":"20.45000000","longitude":"-87.30000000","name":"Xelma"},{"id":"1660451","latitude":"20.45000000","longitude":"-87.30000000","name":"Xelna"},{"id":"1660453","latitude":"20.45000000","longitude":"-87.30000000","name":"Xetna"},{"id":"1660456","latitude":"19.41250000","longitude":"-88.07916700","name":"X-Hazil Sur"},{"id":"1660464","latitude":"19.65000000","longitude":"-88.48333300","name":"Xiatil"},{"id":"1660514","latitude":"19.80000000","longitude":"-88.16666700","name":"Ximaben"},{"id":"1660518","latitude":"19.80000000","longitude":"-88.16666700","name":"Xinaben"},{"id":"1660551","latitude":"18.26666700","longitude":"-88.23333300","name":"X-Kalakonot"},{"id":"1660552","latitude":"18.26666700","longitude":"-87.83333300","name":"Xkalak"},{"id":"1660558","latitude":"19.10000000","longitude":"-89.33333300","name":"Xkanh\ufffd"},{"id":"1660560","latitude":"19.10000000","longitude":"-89.33333300","name":"Xkanka"},{"id":"1660562","latitude":"17.86666700","longitude":"-89.25000000","name":"Xkan R\ufffdo"},{"id":"1660563","latitude":"17.86666700","longitude":"-89.25000000","name":"Xkan"},{"id":"1660567","latitude":"20.40000000","longitude":"-88.03333300","name":"X-Kinchil"},{"id":"1660573","latitude":"20.15833300","longitude":"-88.31250000","name":"X-Lata"},{"id":"1660578","latitude":"19.80000000","longitude":"-88.16666700","name":"Xmab\ufffdn"},{"id":"1660579","latitude":"19.70000000","longitude":"-88.18333300","name":"X-Mac-N\ufffdh"},{"id":"1660588","latitude":"19.60000000","longitude":"-89.16666700","name":"Xnoh-Cruz"},{"id":"1660675","latitude":"20.49583300","longitude":"-87.95000000","name":"Xocob"},{"id":"1660734","latitude":"20.35833300","longitude":"-87.75000000","name":"Xo-Nixte"},{"id":"1660767","latitude":"19.68333300","longitude":"-88.41666700","name":"Xpichil"},{"id":"1660768","latitude":"19.70000000","longitude":"-88.36666700","name":"X-Pichil"},{"id":"1660770","latitude":"20.46666700","longitude":"-87.24527800","name":"X-Puh\ufffd"},{"id":"1660772","latitude":"20.11666700","longitude":"-88.61666700","name":"X-Querol"},{"id":"1660782","latitude":"20.30833300","longitude":"-88.27500000","name":"X-Tobil"},{"id":"1660784","latitude":"18.76666700","longitude":"-88.30000000","name":"Xtocmoc"},{"id":"1660811","latitude":"20.40833300","longitude":"-88.03333300","name":"Xuiluh"},{"id":"1660814","latitude":"18.55000000","longitude":"-88.46666700","name":"Xula"},{"id":"1660815","latitude":"18.55000000","longitude":"-88.46666700","name":"Xul-Ha"},{"id":"1660823","latitude":"19.75000000","longitude":"-88.16666700","name":"Yaaxbax"},{"id":"1660824","latitude":"19.81666700","longitude":"-87.76666700","name":"Yaaxche"},{"id":"1660832","latitude":"18.36666700","longitude":"-89.05000000","name":"Yacalobispo"},{"id":"1660879","latitude":"20.30000000","longitude":"-88.01666700","name":"Yalch\ufffdn"},{"id":"1660956","latitude":"20.05000000","longitude":"-88.09583300","name":"Yaxch\ufffdn"},{"id":"1660958","latitude":"18.41666700","longitude":"-88.93333300","name":"Yaxch\ufffd"},{"id":"1660973","latitude":"19.77500000","longitude":"-88.18333300","name":"Yaxley"},{"id":"1661090","latitude":"19.40000000","longitude":"-88.46666700","name":"Yoactum"},{"id":"1661091","latitude":"19.40000000","longitude":"-88.46666700","name":"Yoact\ufffdn"},{"id":"1661096","latitude":"19.93333300","longitude":"-88.05000000","name":"Yocdzonot"},{"id":"1661103","latitude":"18.26666700","longitude":"-88.90000000","name":"Yocoroso"},{"id":"1661105","latitude":"20.05000000","longitude":"-87.87500000","name":"Yod Kal"},{"id":"1661109","latitude":"19.79166700","longitude":"-88.28333300","name":"Yodzonot Nuevo"},{"id":"1661110","latitude":"19.41666700","longitude":"-88.00000000","name":"Yodzonot"},{"id":"1661149","latitude":"21.51666700","longitude":"-87.26666700","name":"Yoluk"},{"id":"1661150","latitude":"19.41666700","longitude":"-88.00000000","name":"Yolzonot"},{"id":"1661259","latitude":"20.06666700","longitude":"-88.60000000","name":"Zacalaca"},{"id":"1661387","latitude":"19.43333300","longitude":"-88.36666700","name":"Zahcabchen"},{"id":"1661393","latitude":"19.49166700","longitude":"-88.79166700","name":"Zalarrancho"},{"id":"1661398","latitude":"19.78750000","longitude":"-88.98333300","name":"Zalzuquil"},{"id":"1661647","latitude":"18.60000000","longitude":"-88.51666700","name":"Zeta"},{"id":"1661700","latitude":"19.31666700","longitude":"-87.43750000","name":"Ziquipal"}]