[{"id":"1599765","latitude":"20.63333300","longitude":"-89.68333300","name":"Abal\ufffd"},{"id":"1599767","latitude":"21.00000000","longitude":"-89.93333300","name":"Abal"},{"id":"1599871","latitude":"20.81666700","longitude":"-89.45000000","name":"Acanc\ufffdh"},{"id":"1599872","latitude":"21.23333300","longitude":"-88.28333300","name":"Acanc\ufffdn"},{"id":"1599874","latitude":"20.58333300","longitude":"-89.83333300","name":"Acansip"},{"id":"1600048","latitude":"20.76666700","longitude":"-89.98333300","name":"Act\ufffdn"},{"id":"1600049","latitude":"21.33333300","longitude":"-87.98333300","name":"Actunch\ufffdn"},{"id":"1600050","latitude":"20.92500000","longitude":"-88.11666700","name":"Actuncoh"},{"id":"1600051","latitude":"20.55000000","longitude":"-90.16666700","name":"Ac\ufffd"},{"id":"1600834","latitude":"20.63333300","longitude":"-88.66666700","name":"Akach\ufffdn"},{"id":"1600835","latitude":"20.93333300","longitude":"-89.30000000","name":"Ak\ufffd"},{"id":"1600836","latitude":"20.25000000","longitude":"-89.35000000","name":"Akil"},{"id":"1601031","latitude":"20.06666700","longitude":"-89.14583300","name":"Alfonso Caso"},{"id":"1601195","latitude":"20.75000000","longitude":"-89.91666700","name":"Altamira"},{"id":"1601331","latitude":"20.88333300","longitude":"-89.46666700","name":"Amado"},{"id":"1601638","latitude":"21.00000000","longitude":"-89.68333300","name":"Anicabil"},{"id":"1601718","latitude":"20.76666700","longitude":"-89.98333300","name":"Antun"},{"id":"1601940","latitude":"21.10000000","longitude":"-88.66666700","name":"Arco"},{"id":"1602695","latitude":"20.96666700","longitude":"-88.71666700","name":"Ayim"},{"id":"1602696","latitude":"20.96666700","longitude":"-88.71666700","name":"Ayin"},{"id":"1602754","latitude":"20.95000000","longitude":"-89.61666700","name":"Azcorra"},{"id":"1602843","latitude":"21.10000000","longitude":"-89.41666700","name":"Baca"},{"id":"1602858","latitude":"20.81666700","longitude":"-89.35000000","name":"Bacala"},{"id":"1602860","latitude":"20.81666700","longitude":"-89.35000000","name":"Bacalar"},{"id":"1602883","latitude":"20.78333300","longitude":"-90.15000000","name":"Bacenc\ufffd"},{"id":"1602910","latitude":"21.56666700","longitude":"-88.36666700","name":"Bachul"},{"id":"1603087","latitude":"20.46666700","longitude":"-89.51666700","name":"Balanchech\ufffdn"},{"id":"1603089","latitude":"20.78333300","longitude":"-88.43333300","name":"Balant\ufffdn"},{"id":"1603090","latitude":"20.36666700","longitude":"-89.51666700","name":"Balantunil"},{"id":"1603101","latitude":"20.22500000","longitude":"-88.72500000","name":"Balch\ufffd"},{"id":"1603140","latitude":"20.13333300","longitude":"-88.66666700","name":"Baluarte"},{"id":"1603526","latitude":"21.13333300","longitude":"-89.55000000","name":"Baspul"},{"id":"1603605","latitude":"20.86666700","longitude":"-89.78333300","name":"Batzan"},{"id":"1603641","latitude":"19.83333300","longitude":"-89.36666700","name":"Becanch\ufffdn"},{"id":"1603642","latitude":"21.25000000","longitude":"-88.81666700","name":"Bece"},{"id":"1603649","latitude":"21.25000000","longitude":"-88.81666700","name":"Beec"},{"id":"1603696","latitude":"20.90000000","longitude":"-90.08333300","name":"Bella Esperanza"},{"id":"1603697","latitude":"20.53333300","longitude":"-89.61666700","name":"Bella Flor"},{"id":"1603704","latitude":"21.06666700","longitude":"-89.83333300","name":"Bella Uni\ufffdn"},{"id":"1603755","latitude":"21.25000000","longitude":"-87.70000000","name":"Benito Ju\ufffdez"},{"id":"1603781","latitude":"19.90833300","longitude":"-89.50000000","name":"Benito Ju\ufffdrez"},{"id":"1603823","latitude":"20.63333300","longitude":"-89.95000000","name":"Bernardo"},{"id":"1604034","latitude":"21.01666700","longitude":"-89.18333300","name":"Bocoba"},{"id":"1604039","latitude":"20.40000000","longitude":"-89.31666700","name":"Boctunch\ufffdn"},{"id":"1604051","latitude":"21.01666700","longitude":"-89.18333300","name":"Bokob\ufffd"},{"id":"1604062","latitude":"21.35000000","longitude":"-87.83333300","name":"Bolisha"},{"id":"1604064","latitude":"20.55000000","longitude":"-87.93750000","name":"Bolmay"},{"id":"1604065","latitude":"20.83333300","longitude":"-89.83333300","name":"Bol\ufffdn"},{"id":"1604237","latitude":"20.56666700","longitude":"-89.11666700","name":"Botochec"},{"id":"1604244","latitude":"21.28333300","longitude":"-89.25000000","name":"Boxact\ufffdn"},{"id":"1604338","latitude":"21.20000000","longitude":"-88.78333300","name":"Buctzot"},{"id":"1604339","latitude":"21.20000000","longitude":"-88.78333300","name":"Buctzotz"},{"id":"1604342","latitude":"21.30000000","longitude":"-87.96666700","name":"Buena Esperanza"},{"id":"1604451","latitude":"20.80000000","longitude":"-89.21666700","name":"Buenavista"},{"id":"1604563","latitude":"21.20000000","longitude":"-88.06666700","name":"Buytuc"},{"id":"1604691","latitude":"20.98333300","longitude":"-89.23333300","name":"Cacalch\ufffdn"},{"id":"1604693","latitude":"20.51666700","longitude":"-88.76666700","name":"Cacalghen"},{"id":"1604722","latitude":"20.70000000","longitude":"-89.75000000","name":"Cacao"},{"id":"1604891","latitude":"20.80000000","longitude":"-88.88333300","name":"Calam"},{"id":"1604895","latitude":"21.01666700","longitude":"-88.18333300","name":"Calatmul"},{"id":"1604907","latitude":"20.90000000","longitude":"-89.83333300","name":"Calax\ufffdn"},{"id":"1604913","latitude":"20.56666700","longitude":"-89.91666700","name":"Calcehtok"},{"id":"1605018","latitude":"19.88333300","longitude":"-88.93333300","name":"Calmis"},{"id":"1605023","latitude":"20.15000000","longitude":"-88.66666700","name":"Calotmul"},{"id":"1605127","latitude":"19.99166700","longitude":"-88.88333300","name":"Cambul"},{"id":"1605543","latitude":"20.55000000","longitude":"-88.11666700","name":"Camtun"},{"id":"1605683","latitude":"20.48333300","longitude":"-89.48333300","name":"Canal\ufffdn"},{"id":"1605687","latitude":"21.40000000","longitude":"-87.73333300","name":"Canamui"},{"id":"1605688","latitude":"21.40000000","longitude":"-87.73333300","name":"Canamuy"},{"id":"1605709","latitude":"20.71666700","longitude":"-90.15000000","name":"Cancabch\ufffdn"},{"id":"1605711","latitude":"20.73333300","longitude":"-89.03333300","name":"Cancabk\ufffd"},{"id":"1605715","latitude":"20.85000000","longitude":"-89.80000000","name":"Canchak\ufffdn"},{"id":"1605737","latitude":"20.30833300","longitude":"-88.79583300","name":"Candelaria"},{"id":"1605759","latitude":"20.20000000","longitude":"-89.06666700","name":"Canek"},{"id":"1605775","latitude":"20.85000000","longitude":"-89.43333300","name":"Canicab"},{"id":"1605840","latitude":"21.16666700","longitude":"-89.10000000","name":"Cansahcab"},{"id":"1605841","latitude":"20.83333300","longitude":"-89.78333300","name":"Cansap"},{"id":"1605845","latitude":"20.48333300","longitude":"-89.08333300","name":"Cantamayec"},{"id":"1605846","latitude":"20.48333300","longitude":"-89.08333300","name":"Cantamayeco"},{"id":"1605880","latitude":"21.31666700","longitude":"-88.91666700","name":"Canuptunich"},{"id":"1606187","latitude":"20.35000000","longitude":"-88.30000000","name":"Carolina"},{"id":"1606410","latitude":"20.43333300","longitude":"-88.36666700","name":"Casamit"},{"id":"1606412","latitude":"20.71666700","longitude":"-88.63333300","name":"Casanch\ufffd"},{"id":"1606570","latitude":"19.88333300","longitude":"-88.93333300","name":"Catmis"},{"id":"1606575","latitude":"20.75000000","longitude":"-87.81666700","name":"Catz\ufffdn"},{"id":"1606577","latitude":"21.15000000","longitude":"-89.00000000","name":"Cauac\ufffd"},{"id":"1606578","latitude":"20.85000000","longitude":"-89.60000000","name":"Cauca"},{"id":"1606579","latitude":"21.01666700","longitude":"-89.71666700","name":"Caucel"},{"id":"1606587","latitude":"20.48333300","longitude":"-89.08333300","name":"Cautamayec"},{"id":"1606595","latitude":"20.69166700","longitude":"-87.81250000","name":"Cavich"},{"id":"1606597","latitude":"20.06666700","longitude":"-89.13333300","name":"Caxaytuc"},{"id":"1606598","latitude":"20.06666700","longitude":"-89.13333300","name":"Caxaytuk"},{"id":"1606604","latitude":"20.06666700","longitude":"-89.13333300","name":"Caxytuco"},{"id":"1606608","latitude":"20.66666700","longitude":"-89.56666700","name":"Caya"},{"id":"1606698","latitude":"20.88333300","longitude":"-89.96666700","name":"Cehchan"},{"id":"1606729","latitude":"20.86666700","longitude":"-90.40000000","name":"Celest\ufffdn"},{"id":"1606730","latitude":"20.45833300","longitude":"-88.46666700","name":"Celf\ufffdn"},{"id":"1606753","latitude":"20.15000000","longitude":"-88.75000000","name":"Cenotche"},{"id":"1606756","latitude":"21.27083300","longitude":"-87.71666700","name":"Cenote Azul"},{"id":"1606758","latitude":"20.96666700","longitude":"-88.61666700","name":"Cenotillo"},{"id":"1606784","latitude":"20.13333300","longitude":"-88.75000000","name":"Cepeda"},{"id":"1606785","latitude":"20.13333300","longitude":"-88.66666700","name":"Cepeda Feraza"},{"id":"1606786","latitude":"20.14583300","longitude":"-89.25000000","name":"Cepeda Peraza"},{"id":"1606829","latitude":"21.41666700","longitude":"-88.78333300","name":"Cerrito"},{"id":"1607123","latitude":"21.35000000","longitude":"-89.11666700","name":"Chabihau"},{"id":"1607127","latitude":"20.75000000","longitude":"-89.86666700","name":"Chabl\ufffd"},{"id":"1607128","latitude":"21.10000000","longitude":"-89.58333300","name":"Chablekal"},{"id":"1607130","latitude":"21.13333300","longitude":"-89.20000000","name":"Chacabal"},{"id":"1607134","latitude":"20.46666700","longitude":"-89.56666700","name":"Chac\ufffd"},{"id":"1607170","latitude":"21.05000000","longitude":"-88.60000000","name":"Chacanh\ufffd"},{"id":"1607171","latitude":"20.56666700","longitude":"-88.36666700","name":"Chacanot"},{"id":"1607181","latitude":"21.03333300","longitude":"-89.81666700","name":"Chac"},{"id":"1607202","latitude":"20.95000000","longitude":"-89.03333300","name":"Chac-Hon"},{"id":"1607203","latitude":"21.05000000","longitude":"-88.90000000","name":"Chacmay"},{"id":"1607206","latitude":"20.18333300","longitude":"-89.33333300","name":"Chacmul\ufffdn"},{"id":"1607212","latitude":"20.95000000","longitude":"-89.03333300","name":"Chac\ufffdn"},{"id":"1607215","latitude":"20.55000000","longitude":"-89.66666700","name":"Chacsinicch\ufffd"},{"id":"1607216","latitude":"20.93333300","longitude":"-89.66666700","name":"Chacsinkin"},{"id":"1607218","latitude":"20.53333300","longitude":"-90.00000000","name":"Chact\ufffdn"},{"id":"1607219","latitude":"20.53333300","longitude":"-90.00000000","name":"Chactunx"},{"id":"1607226","latitude":"20.15000000","longitude":"-89.01666700","name":"Chaczink\ufffdn"},{"id":"1607227","latitude":"20.80000000","longitude":"-88.70000000","name":"Chadzonot"},{"id":"1607250","latitude":"20.25000000","longitude":"-89.73333300","name":"Chak"},{"id":"1607260","latitude":"20.86666700","longitude":"-88.96666700","name":"Chalant\ufffd"},{"id":"1607293","latitude":"20.96666700","longitude":"-89.73333300","name":"Chalmuch"},{"id":"1607294","latitude":"20.96666700","longitude":"-89.73333300","name":"Chalmulch"},{"id":"1607330","latitude":"20.50000000","longitude":"-89.35000000","name":"Chamuch"},{"id":"1607342","latitude":"21.35000000","longitude":"-88.48333300","name":"Chancalotmul"},{"id":"1607347","latitude":"20.98333300","longitude":"-87.78333300","name":"Chan Cenote"},{"id":"1607354","latitude":"20.23333300","longitude":"-88.80000000","name":"Chan Chen"},{"id":"1607355","latitude":"21.30000000","longitude":"-88.41666700","name":"Chanch\ufffdn"},{"id":"1607358","latitude":"20.39166700","longitude":"-88.47222200","name":"Chan-Chichimil\ufffd"},{"id":"1607359","latitude":"20.53333300","longitude":"-90.03333300","name":"Chanchochola"},{"id":"1607364","latitude":"19.86666700","longitude":"-89.48333300","name":"Chan Dzinup"},{"id":"1607365","latitude":"20.80000000","longitude":"-88.70000000","name":"Chandzonot"},{"id":"1607366","latitude":"21.28333300","longitude":"-88.38333300","name":"Chan Ed\ufffdn"},{"id":"1607370","latitude":"20.13333300","longitude":"-88.93333300","name":"Chan Kan"},{"id":"1607371","latitude":"20.13333300","longitude":"-88.93333300","name":"Chankanyuc"},{"id":"1607372","latitude":"20.56666700","longitude":"-89.56666700","name":"Chankin"},{"id":"1607373","latitude":"20.55000000","longitude":"-88.51666700","name":"Chan-Kom"},{"id":"1607379","latitude":"21.21666700","longitude":"-88.25000000","name":"Chan San Antonio"},{"id":"1607381","latitude":"20.52083300","longitude":"-88.06250000","name":"Chan Santa Cruz"},{"id":"1607389","latitude":"21.00166700","longitude":"-87.69166700","name":"Chan Tres Reyes"},{"id":"1607390","latitude":"20.83333300","longitude":"-89.63333300","name":"Chantun"},{"id":"1607391","latitude":"20.71666700","longitude":"-88.23333300","name":"Chan Yokdzonot"},{"id":"1607393","latitude":"20.46666700","longitude":"-89.46666700","name":"Chapab"},{"id":"1607594","latitude":"20.76666700","longitude":"-87.75000000","name":"Chauaco"},{"id":"1607595","latitude":"20.76666700","longitude":"-87.75000000","name":"Chauao"},{"id":"1607630","latitude":"21.35000000","longitude":"-89.11666700","name":"Chavihau"},{"id":"1607635","latitude":"20.58333300","longitude":"-89.80000000","name":"Chay"},{"id":"1607640","latitude":"20.55000000","longitude":"-88.41666700","name":"Chebalam"},{"id":"1607641","latitude":"20.51666700","longitude":"-88.36666700","name":"Chebalan"},{"id":"1607644","latitude":"20.77500000","longitude":"-87.96666700","name":"Chechmil"},{"id":"1607652","latitude":"20.63333300","longitude":"-89.70000000","name":"Chekeken"},{"id":"1607654","latitude":"21.00000000","longitude":"-89.81666700","name":"Chel"},{"id":"1607656","latitude":"21.26666700","longitude":"-89.75000000","name":"Chelem"},{"id":"1607657","latitude":"21.26666700","longitude":"-89.75000000","name":"Chelen"},{"id":"1607658","latitude":"21.05000000","longitude":"-89.26666700","name":"Chemal"},{"id":"1607659","latitude":"20.65000000","longitude":"-87.93333300","name":"Chemax"},{"id":"1607664","latitude":"20.93750000","longitude":"-90.03333300","name":"Chencan"},{"id":"1607667","latitude":"21.06666700","longitude":"-89.95000000","name":"Chencop\ufffd"},{"id":"1607668","latitude":"21.08333300","longitude":"-89.83333300","name":"Chen Copo"},{"id":"1607670","latitude":"20.56666700","longitude":"-89.63333300","name":"Chenkac"},{"id":"1607672","latitude":"21.01666700","longitude":"-89.65000000","name":"Chenk"},{"id":"1607673","latitude":"20.63333300","longitude":"-89.70000000","name":"Chenkeken"},{"id":"1607674","latitude":"21.01666700","longitude":"-89.65000000","name":"Chenk\ufffd"},{"id":"1607675","latitude":"21.01666700","longitude":"-89.65000000","name":"Chenkuo"},{"id":"1607692","latitude":"20.35000000","longitude":"-89.70000000","name":"Chetulix"},{"id":"1607696","latitude":"21.00000000","longitude":"-89.01666700","name":"Cheul"},{"id":"1607697","latitude":"21.06666700","longitude":"-89.71666700","name":"Cheuman"},{"id":"1607720","latitude":"20.43750000","longitude":"-88.38888900","name":"Chibilub"},{"id":"1607738","latitude":"20.33333300","longitude":"-89.15833300","name":"Chicam"},{"id":"1607751","latitude":"20.98333300","longitude":"-89.98333300","name":"Chicch\ufffd"},{"id":"1607752","latitude":"21.03333300","longitude":"-89.46666700","name":"Chic"},{"id":"1607753","latitude":"20.68333300","longitude":"-89.01666700","name":"Chicehil"},{"id":"1607760","latitude":"20.61666700","longitude":"-89.81666700","name":"Chich"},{"id":"1607762","latitude":"20.98333300","longitude":"-89.98333300","name":"Chiche"},{"id":"1607763","latitude":"20.66666700","longitude":"-88.56666700","name":"Chich\ufffdn-Itz\ufffd"},{"id":"1607765","latitude":"21.03333300","longitude":"-89.46666700","name":"Chi"},{"id":"1607784","latitude":"20.66666700","longitude":"-89.25000000","name":"Chichi"},{"id":"1607798","latitude":"20.91666700","longitude":"-89.03333300","name":"Chichih\ufffd"},{"id":"1607799","latitude":"20.91666700","longitude":"-89.03333300","name":"Chichihuh"},{"id":"1607816","latitude":"20.61666700","longitude":"-88.21666700","name":"Chichimil\ufffd"},{"id":"1607823","latitude":"20.91666700","longitude":"-89.03333300","name":"Chichi\ufffd"},{"id":"1607828","latitude":"20.33333300","longitude":"-88.48333300","name":"Chicintzonot"},{"id":"1607831","latitude":"21.05000000","longitude":"-88.90000000","name":"Chicmay"},{"id":"1607881","latitude":"21.13333300","longitude":"-89.51666700","name":"Chicxulub"},{"id":"1607929","latitude":"20.68333300","longitude":"-89.01666700","name":"Chikekil"},{"id":"1607930","latitude":"20.33333300","longitude":"-88.48333300","name":"Chikindzonot"},{"id":"1607992","latitude":"20.63333300","longitude":"-89.08333300","name":"Chilob"},{"id":"1608032","latitude":"20.16666700","longitude":"-89.66666700","name":"Chimay"},{"id":"1608077","latitude":"20.51666700","longitude":"-88.41666700","name":"Chindzonot"},{"id":"1608085","latitude":"20.68333300","longitude":"-89.40000000","name":"Chinkil\ufffd"},{"id":"1608098","latitude":"20.70000000","longitude":"-89.39583300","name":"Chinquila"},{"id":"1608109","latitude":"20.48333300","longitude":"-88.38333300","name":"Chinzonote"},{"id":"1608113","latitude":"21.48333300","longitude":"-87.53333300","name":"Chipept\ufffd"},{"id":"1608178","latitude":"21.53333300","longitude":"-88.55000000","name":"Chisahcab"},{"id":"1608218","latitude":"20.23333300","longitude":"-88.80000000","name":"Chnchen"},{"id":"1608227","latitude":"21.00000000","longitude":"-89.46666700","name":"Choch\ufffd"},{"id":"1608228","latitude":"21.00000000","longitude":"-89.46666700","name":"Chochoh"},{"id":"1608229","latitude":"20.75000000","longitude":"-89.83333300","name":"Chochol\ufffd"},{"id":"1608230","latitude":"20.99166700","longitude":"-89.46666700","name":"Choch\ufffdn"},{"id":"1608250","latitude":"21.05000000","longitude":"-89.55000000","name":"Chohil"},{"id":"1608269","latitude":"21.01666700","longitude":"-89.28333300","name":"Cholul"},{"id":"1608273","latitude":"21.25000000","longitude":"-89.11666700","name":"Chomul"},{"id":"1608274","latitude":"21.06666700","longitude":"-89.91666700","name":"Chomul Ho"},{"id":"1608320","latitude":"21.18333300","longitude":"-89.38333300","name":"Chovench\ufffd"},{"id":"1608321","latitude":"21.18333300","longitude":"-89.38333300","name":"Chovenchen"},{"id":"1608322","latitude":"21.25000000","longitude":"-89.86666700","name":"Chovent\ufffdn"},{"id":"1608327","latitude":"20.53333300","longitude":"-89.70000000","name":"Choyob"},{"id":"1608333","latitude":"21.01666700","longitude":"-89.63333300","name":"Chuburna"},{"id":"1608334","latitude":"21.01666700","longitude":"-89.63333300","name":"Chuburn\ufffd de Hidalgo"},{"id":"1608335","latitude":"21.13333300","longitude":"-88.31666700","name":"Chuc-ac"},{"id":"1608336","latitude":"20.96666700","longitude":"-89.81666700","name":"Chucach\ufffdn"},{"id":"1608341","latitude":"20.80000000","longitude":"-88.78333300","name":"Chuc"},{"id":"1608342","latitude":"20.45833300","longitude":"-90.09583300","name":"Chuc-Holoch"},{"id":"1608349","latitude":"21.23333300","longitude":"-88.91666700","name":"Chucmich\ufffdn"},{"id":"1608350","latitude":"20.22500000","longitude":"-88.55000000","name":"Chucteil"},{"id":"1608356","latitude":"21.10000000","longitude":"-89.00000000","name":"Chuhuas"},{"id":"1608358","latitude":"20.90000000","longitude":"-89.00000000","name":"Chuich\ufffd"},{"id":"1608369","latitude":"20.50000000","longitude":"-89.35000000","name":"Chulmuch"},{"id":"1608370","latitude":"20.78333300","longitude":"-87.71666700","name":"Chuluc"},{"id":"1608371","latitude":"20.78333300","longitude":"-87.71666700","name":"Chuluco"},{"id":"1608373","latitude":"20.56666700","longitude":"-87.96666700","name":"Chulutan"},{"id":"1608379","latitude":"20.43333300","longitude":"-89.31666700","name":"Chumayel"},{"id":"1608382","latitude":"20.80000000","longitude":"-88.81666700","name":"Chumbec"},{"id":"1608386","latitude":"20.65000000","longitude":"-90.21666700","name":"Chumchucmil"},{"id":"1608387","latitude":"20.86666700","longitude":"-89.86666700","name":"Chum"},{"id":"1608399","latitude":"20.38333300","longitude":"-89.36666700","name":"Chumucb\ufffd"},{"id":"1608400","latitude":"20.50000000","longitude":"-89.35000000","name":"Chumuc"},{"id":"1608401","latitude":"20.38333300","longitude":"-89.36666700","name":"Chumuch\ufffd"},{"id":"1608402","latitude":"20.38333300","longitude":"-89.36666700","name":"Chumuchen"},{"id":"1608404","latitude":"21.25000000","longitude":"-89.11666700","name":"Chumul"},{"id":"1608406","latitude":"21.28333300","longitude":"-88.78333300","name":"Chun Abal"},{"id":"1608410","latitude":"20.80000000","longitude":"-89.83333300","name":"Chunchacab"},{"id":"1608411","latitude":"20.85000000","longitude":"-89.75000000","name":"Chunchil"},{"id":"1608413","latitude":"20.35833300","longitude":"-89.07083300","name":"Chunchub"},{"id":"1608414","latitude":"20.65000000","longitude":"-90.21666700","name":"Chunchucmil"},{"id":"1608415","latitude":"20.65000000","longitude":"-90.21666700","name":"Chunchumil"},{"id":"1608416","latitude":"20.86666700","longitude":"-89.86666700","name":"Chun"},{"id":"1608417","latitude":"21.05000000","longitude":"-89.30000000","name":"Chun Copo"},{"id":"1608424","latitude":"21.08333300","longitude":"-89.93333300","name":"Chunhu\ufffds"},{"id":"1608425","latitude":"20.11666700","longitude":"-89.66250000","name":"Chunhuaymi"},{"id":"1608433","latitude":"20.70000000","longitude":"-89.33333300","name":"Chunkan\ufffdn"},{"id":"1608436","latitude":"21.25000000","longitude":"-88.43750000","name":"Chuntzal\ufffdn"},{"id":"1608438","latitude":"20.95000000","longitude":"-89.88333300","name":"Chuny\ufffd"},{"id":"1608441","latitude":"20.18333300","longitude":"-89.47500000","name":"Chunyah"},{"id":"1608444","latitude":"21.41666700","longitude":"-88.63333300","name":"Chunyaxnic"},{"id":"1608496","latitude":"21.06666700","longitude":"-88.16666700","name":"Chuytab"},{"id":"1608502","latitude":"21.27916700","longitude":"-89.59583300","name":"Cicxulub Puerto"},{"id":"1608684","latitude":"20.98333300","longitude":"-89.36666700","name":"Cilinch\ufffd"},{"id":"1608685","latitude":"21.01666700","longitude":"-89.51666700","name":"Cilpach"},{"id":"1608744","latitude":"21.10000000","longitude":"-89.36666700","name":"Cipche"},{"id":"1608785","latitude":"20.95000000","longitude":"-89.11666700","name":"Citilcum"},{"id":"1608786","latitude":"20.95000000","longitude":"-89.11666700","name":"Citilc\ufffdn"},{"id":"1608787","latitude":"20.51666700","longitude":"-89.53333300","name":"Citincabch\ufffdn"},{"id":"1608788","latitude":"20.51666700","longitude":"-89.53333300","name":"Citinkabch\ufffdn"},{"id":"1608821","latitude":"20.96666700","longitude":"-89.61666700","name":"Ciudad de M\ufffdrida"},{"id":"1608863","latitude":"20.20000000","longitude":"-89.28333300","name":"Ciudad Obreg\ufffdn"},{"id":"1608883","latitude":"20.88333300","longitude":"-88.23333300","name":"Cixk\ufffd"},{"id":"1608884","latitude":"20.88333300","longitude":"-88.23333300","name":"Cix\ufffd"},{"id":"1608949","latitude":"20.68333300","longitude":"-90.16666700","name":"Coahuila"},{"id":"1609214","latitude":"20.56666700","longitude":"-89.78333300","name":"Cohobchacan"},{"id":"1609608","latitude":"21.25000000","longitude":"-87.63333300","name":"Colonia Yucat\ufffdn"},{"id":"1609730","latitude":"21.31666700","longitude":"-88.91666700","name":"Comnutunich"},{"id":"1609798","latitude":"20.52500000","longitude":"-90.18750000","name":"Concepci\ufffdn"},{"id":"1609830","latitude":"20.61666700","longitude":"-90.03333300","name":"Conch\ufffd"},{"id":"1609907","latitude":"21.06666700","longitude":"-89.53333300","name":"Conkal"},{"id":"1609909","latitude":"21.31666700","longitude":"-88.91666700","name":"Connutunich"},{"id":"1610016","latitude":"21.04166700","longitude":"-89.58333300","name":"Cop\ufffd"},{"id":"1610339","latitude":"21.08333300","longitude":"-89.70000000","name":"Cosgalla"},{"id":"1610341","latitude":"20.61666700","longitude":"-89.05000000","name":"Cosil"},{"id":"1610346","latitude":"21.09583300","longitude":"-89.71666700","name":"Cosoaya"},{"id":"1610384","latitude":"20.06666700","longitude":"-89.13333300","name":"Coxaytun"},{"id":"1610393","latitude":"21.25000000","longitude":"-88.76666700","name":"Coxub\ufffd"},{"id":"1610395","latitude":"20.66666700","longitude":"-89.56666700","name":"Coya"},{"id":"1610494","latitude":"20.43333300","longitude":"-88.36666700","name":"Cozamil"},{"id":"1610544","latitude":"20.55000000","longitude":"-88.33333300","name":"Crucero"},{"id":"1610669","latitude":"20.90000000","longitude":"-90.05000000","name":"Cruz Hab\ufffdn"},{"id":"1610902","latitude":"20.88333300","longitude":"-89.00000000","name":"Cuauht\ufffdmoc"},{"id":"1611007","latitude":"20.90000000","longitude":"-89.41666700","name":"Cuca"},{"id":"1611049","latitude":"21.25000000","longitude":"-88.34166700","name":"Cuenca Lechera"},{"id":"1611134","latitude":"21.43333300","longitude":"-88.40000000","name":"Cueva"},{"id":"1611263","latitude":"21.43333300","longitude":"-87.71666700","name":"Culux"},{"id":"1611298","latitude":"20.63333300","longitude":"-88.30000000","name":"Cuncunul"},{"id":"1611308","latitude":"21.15833300","longitude":"-88.18750000","name":"Cupul"},{"id":"1611354","latitude":"20.75000000","longitude":"-87.81666700","name":"Cutsin"},{"id":"1611377","latitude":"21.51666700","longitude":"-87.68333300","name":"Cuyo"},{"id":"1611391","latitude":"20.73333300","longitude":"-89.31666700","name":"Cuzam\ufffd"},{"id":"1611393","latitude":"20.80000000","longitude":"-89.95000000","name":"Cuzumal"},{"id":"1611529","latitude":"20.51666700","longitude":"-90.15000000","name":"Desarrollo Campesino"},{"id":"1611679","latitude":"21.08333300","longitude":"-89.60000000","name":"Dizibichaltun"},{"id":"1611737","latitude":"20.46250000","longitude":"-89.16666700","name":"Dolores"},{"id":"1611888","latitude":"21.06666700","longitude":"-89.10000000","name":"Dsitya"},{"id":"1611948","latitude":"21.08333300","longitude":"-89.60000000","name":"Dxililchalt\ufffdn"},{"id":"1611950","latitude":"20.83333300","longitude":"-88.05000000","name":"Dzalbay"},{"id":"1611951","latitude":"20.55000000","longitude":"-88.11666700","name":"Dzamtun"},{"id":"1611952","latitude":"20.38333300","longitude":"-89.46666700","name":"Dzan"},{"id":"1611953","latitude":"20.55000000","longitude":"-88.11666700","name":"Dzapt\ufffdn"},{"id":"1611954","latitude":"20.56666700","longitude":"-88.43750000","name":"Dzeal"},{"id":"1611955","latitude":"20.65000000","longitude":"-89.30000000","name":"Dzecuzama"},{"id":"1611957","latitude":"21.20000000","longitude":"-89.30000000","name":"Dzemul"},{"id":"1611958","latitude":"20.15000000","longitude":"-88.75000000","name":"Dzenotchel"},{"id":"1611959","latitude":"20.25000000","longitude":"-88.81666700","name":"Dzibac"},{"id":"1611962","latitude":"21.08333300","longitude":"-89.60000000","name":"Dzibichalt\ufffdn"},{"id":"1611963","latitude":"21.28333300","longitude":"-88.05000000","name":"Dzibich\ufffdn"},{"id":"1611964","latitude":"20.90000000","longitude":"-89.80000000","name":"Dzibikak"},{"id":"1611966","latitude":"21.01666700","longitude":"-88.25000000","name":"Dzicila"},{"id":"1611967","latitude":"21.25000000","longitude":"-89.05000000","name":"Dzidzantum"},{"id":"1611968","latitude":"21.25000000","longitude":"-89.05000000","name":"Dzidzant\ufffdn"},{"id":"1611969","latitude":"20.09166700","longitude":"-89.05000000","name":"Dzi"},{"id":"1611970","latitude":"20.57500000","longitude":"-90.12500000","name":"Dzidzibachi"},{"id":"1611971","latitude":"20.50000000","longitude":"-88.63333300","name":"Dzidziche"},{"id":"1611972","latitude":"21.01666700","longitude":"-88.25000000","name":"Dzidzila"},{"id":"1611973","latitude":"20.48333300","longitude":"-88.38333300","name":"Dzidzilch\ufffd"},{"id":"1611974","latitude":"21.30000000","longitude":"-88.33333300","name":"Dzidzya"},{"id":"1611975","latitude":"21.40000000","longitude":"-88.88333300","name":"Dzilam de Bravo"},{"id":"1611976","latitude":"21.28333300","longitude":"-88.93333300","name":"Dzilam"},{"id":"1611977","latitude":"21.28333300","longitude":"-88.93333300","name":"Dzilam Gonz\ufffdlez"},{"id":"1611978","latitude":"21.05000000","longitude":"-89.28333300","name":"Dzina"},{"id":"1611979","latitude":"20.68333300","longitude":"-89.01666700","name":"Dzinchel"},{"id":"1611980","latitude":"20.64166700","longitude":"-88.25000000","name":"Dzinuo"},{"id":"1611981","latitude":"20.85000000","longitude":"-88.51666700","name":"Dzit\ufffds"},{"id":"1611985","latitude":"20.78333300","longitude":"-89.40000000","name":"Dzitin\ufffd"},{"id":"1611987","latitude":"20.63333300","longitude":"-88.25000000","name":"Dzitnup"},{"id":"1611988","latitude":"21.06666700","longitude":"-88.46666700","name":"Dzit Ox"},{"id":"1611989","latitude":"21.16666700","longitude":"-88.40000000","name":"Dzitox"},{"id":"1611990","latitude":"21.16666700","longitude":"-88.40000000","name":"Dzit Ox Rosado"},{"id":"1611991","latitude":"21.05000000","longitude":"-89.70000000","name":"Dzitya"},{"id":"1611992","latitude":"20.91666700","longitude":"-89.19166700","name":"Dziuch\ufffd"},{"id":"1611993","latitude":"20.93333300","longitude":"-89.65000000","name":"Dzizcal"},{"id":"1611995","latitude":"20.71666700","longitude":"-87.87083300","name":"Dzodzil"},{"id":"1611997","latitude":"21.13333300","longitude":"-88.90000000","name":"Dzoncauich"},{"id":"1611999","latitude":"21.23333300","longitude":"-87.93750000","name":"Dzonot Ak\ufffd"},{"id":"1612000","latitude":"21.23333300","longitude":"-88.00000000","name":"Dzonot-Ak\ufffd"},{"id":"1612001","latitude":"21.31666700","longitude":"-87.91666700","name":"Dzonot Boch"},{"id":"1612002","latitude":"21.33333300","longitude":"-87.88333300","name":"Dzonot Carretero"},{"id":"1612003","latitude":"21.28333300","longitude":"-89.01666700","name":"Dzonotcay"},{"id":"1612004","latitude":"20.15000000","longitude":"-88.75000000","name":"Dzonotchel"},{"id":"1612005","latitude":"21.03333300","longitude":"-87.93333300","name":"Dzonot"},{"id":"1612006","latitude":"20.61666700","longitude":"-89.66666700","name":"Dzonotila"},{"id":"1612007","latitude":"21.30000000","longitude":"-88.65000000","name":"Dzonot-Lu"},{"id":"1612008","latitude":"21.33333300","longitude":"-87.85000000","name":"Dzonot Pinto"},{"id":"1612009","latitude":"21.25000000","longitude":"-87.90416700","name":"Dzonot Tigre"},{"id":"1612010","latitude":"21.28000000","longitude":"-88.76666700","name":"Dzonot Zabila"},{"id":"1612011","latitude":"21.31666700","longitude":"-88.75000000","name":"Dzonot Zubila"},{"id":"1612013","latitude":"20.78333300","longitude":"-89.58333300","name":"Dzoyaxch\ufffd"},{"id":"1612015","latitude":"20.90000000","longitude":"-89.58333300","name":"Dzoyola"},{"id":"1612017","latitude":"20.90000000","longitude":"-89.20000000","name":"Dzuich\ufffd"},{"id":"1612019","latitude":"20.98333300","longitude":"-89.21666700","name":"Dzul\ufffd"},{"id":"1612020","latitude":"20.86666700","longitude":"-89.65000000","name":"Dzunnuncan"},{"id":"1612021","latitude":"20.86666700","longitude":"-89.65000000","name":"Dzununc\ufffdn"},{"id":"1612022","latitude":"20.26666700","longitude":"-89.06250000","name":"Dzutah"},{"id":"1612023","latitude":"21.00000000","longitude":"-88.33333300","name":"Dzutu"},{"id":"1612024","latitude":"20.90000000","longitude":"-89.20000000","name":"Dzuych\ufffd"},{"id":"1612037","latitude":"21.55000000","longitude":"-88.16666700","name":"Ebem"},{"id":"1612039","latitude":"20.65000000","longitude":"-88.25000000","name":"Ebt\ufffdn"},{"id":"1612041","latitude":"20.88333300","longitude":"-89.01666700","name":"Ebul\ufffd"},{"id":"1612055","latitude":"20.81250000","longitude":"-87.72500000","name":"Echeverr\ufffda"},{"id":"1612061","latitude":"21.55000000","longitude":"-88.16666700","name":"Edem"},{"id":"1612082","latitude":"20.30000000","longitude":"-88.41666700","name":"Ehpedz"},{"id":"1612547","latitude":"20.90000000","longitude":"-88.15000000","name":"Ekbalab"},{"id":"1612548","latitude":"20.12500000","longitude":"-89.06250000","name":"Ekbalam"},{"id":"1612549","latitude":"20.90000000","longitude":"-88.15000000","name":"Ekbal\ufffdn"},{"id":"1612551","latitude":"20.96666700","longitude":"-89.35000000","name":"Ekmul"},{"id":"1612552","latitude":"20.75000000","longitude":"-89.37500000","name":"Eknak\ufffdn"},{"id":"1612553","latitude":"20.30000000","longitude":"-88.41666700","name":"Ekpedz"},{"id":"1612554","latitude":"20.30000000","longitude":"-88.41666700","name":"Ekpetz"},{"id":"1612555","latitude":"20.50000000","longitude":"-89.51666700","name":"Ekue"},{"id":"1612556","latitude":"20.50000000","longitude":"-89.51666700","name":"Ekuh\ufffd"},{"id":"1612725","latitude":"21.03750000","longitude":"-87.65416700","name":"El Alamo"},{"id":"1613663","latitude":"20.66666700","longitude":"-88.58333300","name":"El Castillo"},{"id":"1613763","latitude":"21.41666700","longitude":"-88.78333300","name":"El Cerrito"},{"id":"1613824","latitude":"20.09583300","longitude":"-89.51250000","name":"El Chaparral"},{"id":"1614387","latitude":"20.80000000","longitude":"-90.30000000","name":"El Crucero"},{"id":"1614486","latitude":"21.51666700","longitude":"-87.68333300","name":"El Cuyo"},{"id":"1614668","latitude":"21.04583300","longitude":"-87.67916700","name":"El Ed\ufffdn"},{"id":"1614950","latitude":"20.26666700","longitude":"-88.51666700","name":"El Gallito"},{"id":"1616489","latitude":"21.38333300","longitude":"-90.25000000","name":"El Palmar"},{"id":"1616583","latitude":"20.68333300","longitude":"-90.10000000","name":"El Para\ufffdso"},{"id":"1617295","latitude":"21.14166700","longitude":"-87.91666700","name":"El Ramonal"},{"id":"1618112","latitude":"21.35000000","longitude":"-88.90416700","name":"El Tajo"},{"id":"1618949","latitude":"21.55000000","longitude":"-87.98333300","name":"Emal"},{"id":"1619001","latitude":"20.02083300","longitude":"-89.07500000","name":"Emiliano Zapata"},{"id":"1619196","latitude":"20.01666700","longitude":"-89.05000000","name":"Ermila"},{"id":"1619204","latitude":"20.01666700","longitude":"-89.05000000","name":"Ermita"},{"id":"1619346","latitude":"20.80000000","longitude":"-90.26666700","name":"Esperanza"},{"id":"1619400","latitude":"21.01666700","longitude":"-88.31666700","name":"Espita"},{"id":"1619479","latitude":"20.96666700","longitude":"-89.50000000","name":"Estaci\ufffdn Oncan"},{"id":"1619696","latitude":"21.00000000","longitude":"-89.33333300","name":"Euan"},{"id":"1619781","latitude":"21.17083300","longitude":"-87.72500000","name":"Felipe Carrillo Puerto"},{"id":"1620078","latitude":"21.23333300","longitude":"-87.69166700","name":"Fransisco Villa"},{"id":"1620259","latitude":"20.26666700","longitude":"-88.51666700","name":"Gallito"},{"id":"1620632","latitude":"20.58333300","longitude":"-90.03333300","name":"Granada"},{"id":"1620704","latitude":"21.23333300","longitude":"-88.71666700","name":"Grano de Oro"},{"id":"1620736","latitude":"21.24583300","longitude":"-87.60000000","name":"G.S. Numero Dos"},{"id":"1620737","latitude":"21.23750000","longitude":"-87.58333300","name":"G.S. Numero Tres"},{"id":"1620871","latitude":"20.03750000","longitude":"-88.98333300","name":"Guadalupe"},{"id":"1621428","latitude":"20.73333300","longitude":"-89.31666700","name":"Guzama"},{"id":"1621622","latitude":"21.10000000","longitude":"-89.15000000","name":"Haidzonot"},{"id":"1621623","latitude":"20.48333300","longitude":"-90.08333300","name":"Halach\ufffd"},{"id":"1621624","latitude":"21.12500000","longitude":"-90.06250000","name":"Hal-Al"},{"id":"1621626","latitude":"20.45000000","longitude":"-89.96666700","name":"Hallal"},{"id":"1621651","latitude":"21.13333300","longitude":"-88.73333300","name":"Haydzonot"},{"id":"1621750","latitude":"20.48333300","longitude":"-89.50000000","name":"Hich\ufffd"},{"id":"1621841","latitude":"21.11666700","longitude":"-89.35000000","name":"Hili"},{"id":"1621863","latitude":"21.08333300","longitude":"-89.75000000","name":"Hobony\ufffd"},{"id":"1621864","latitude":"20.81666700","longitude":"-89.25000000","name":"Hocab\ufffd"},{"id":"1621865","latitude":"20.86666700","longitude":"-89.20000000","name":"Hoct\ufffdn"},{"id":"1621870","latitude":"20.86666700","longitude":"-89.33333300","name":"Holact\ufffdn"},{"id":"1621874","latitude":"20.75833300","longitude":"-88.94027800","name":"Holca"},{"id":"1621878","latitude":"21.40000000","longitude":"-88.81666700","name":"Holchac\ufffdn"},{"id":"1621880","latitude":"20.73333300","longitude":"-89.28333300","name":"Hom\ufffdn"},{"id":"1621959","latitude":"20.80000000","longitude":"-89.70000000","name":"Hotzuc"},{"id":"1622080","latitude":"20.33333300","longitude":"-89.01666700","name":"Huantuchac"},{"id":"1622156","latitude":"20.33333300","longitude":"-89.01666700","name":"Huatunchac"},{"id":"1622197","latitude":"21.30000000","longitude":"-89.51666700","name":"Huaymilun"},{"id":"1622212","latitude":"21.03333300","longitude":"-89.25000000","name":"Hubich\ufffdn"},{"id":"1622213","latitude":"20.91666700","longitude":"-89.33333300","name":"Hubil\ufffd"},{"id":"1622214","latitude":"20.78333300","longitude":"-89.25000000","name":"Hucul\ufffd"},{"id":"1622221","latitude":"19.90000000","longitude":"-89.28333300","name":"Huechil"},{"id":"1622382","latitude":"21.03333300","longitude":"-89.25000000","name":"Huhbichen"},{"id":"1622383","latitude":"20.71666700","longitude":"-89.16666700","name":"Huh\ufffd"},{"id":"1622384","latitude":"20.96666700","longitude":"-89.86666700","name":"Huhkanab"},{"id":"1622625","latitude":"20.90000000","longitude":"-89.73333300","name":"Humxectaman"},{"id":"1622627","latitude":"20.53333300","longitude":"-89.51666700","name":"Hunabch\ufffdn"},{"id":"1622629","latitude":"20.90000000","longitude":"-89.76666700","name":"Hundzilkuk"},{"id":"1622631","latitude":"20.96666700","longitude":"-89.86666700","name":"Hunkanab"},{"id":"1622632","latitude":"21.10000000","longitude":"-88.45000000","name":"Hunmuch"},{"id":"1622633","latitude":"21.11250000","longitude":"-88.45000000","name":"Hunmuch Santa Mar\ufffda"},{"id":"1622634","latitude":"19.81250000","longitude":"-89.50000000","name":"Hunto Chac"},{"id":"1622635","latitude":"20.33333300","longitude":"-89.01666700","name":"Huntuchac"},{"id":"1622636","latitude":"21.01666700","longitude":"-89.86666700","name":"Hunucm\ufffd"},{"id":"1622637","latitude":"20.83333300","longitude":"-88.08333300","name":"Hunuk\ufffd"},{"id":"1622638","latitude":"20.86666700","longitude":"-89.55000000","name":"Hunxactaman"},{"id":"1622639","latitude":"20.86666700","longitude":"-89.55000000","name":"Hunxectam\ufffdn"},{"id":"1622681","latitude":"20.16666700","longitude":"-88.56666700","name":"Ichmul"},{"id":"1622689","latitude":"20.91666700","longitude":"-89.70000000","name":"Idzincab"},{"id":"1622690","latitude":"21.03333300","longitude":"-88.03333300","name":"Idzint\ufffd"},{"id":"1622774","latitude":"20.66666700","longitude":"-88.55000000","name":"Ikil"},{"id":"1622951","latitude":"21.06666700","longitude":"-88.05000000","name":"Itzimte"},{"id":"1622952","latitude":"20.91666700","longitude":"-89.70000000","name":"Itzincab"},{"id":"1623012","latitude":"21.15000000","longitude":"-89.48333300","name":"Ixil"},{"id":"1623148","latitude":"20.93333300","longitude":"-89.01666700","name":"Izamal"},{"id":"1623795","latitude":"20.95000000","longitude":"-89.20000000","name":"Jonat"},{"id":"1623839","latitude":"21.36666700","longitude":"-88.33333300","name":"Josefita"},{"id":"1623851","latitude":"19.93750000","longitude":"-89.20000000","name":"Jos\ufffd L\ufffdpez Portillo"},{"id":"1623915","latitude":"20.70000000","longitude":"-87.83333300","name":"Joteoch"},{"id":"1624226","latitude":"20.96666700","longitude":"-89.31666700","name":"Jusch\ufffd"},{"id":"1624243","latitude":"20.28333300","longitude":"-89.65000000","name":"Kabah"},{"id":"1624244","latitude":"20.50000000","longitude":"-88.71666700","name":"Kacabdzonot"},{"id":"1624245","latitude":"20.56666700","longitude":"-89.78333300","name":"Kahabchacab"},{"id":"1624246","latitude":"20.03333300","longitude":"-89.08333300","name":"Kakaln\ufffd"},{"id":"1624247","latitude":"21.28333300","longitude":"-87.90000000","name":"Kalach Viejo"},{"id":"1624251","latitude":"21.08333300","longitude":"-89.20000000","name":"Kambul"},{"id":"1624252","latitude":"20.71666700","longitude":"-89.25000000","name":"Kampep\ufffdn"},{"id":"1624253","latitude":"20.71666700","longitude":"-89.25000000","name":"Kampepn"},{"id":"1624256","latitude":"20.73333300","longitude":"-89.25000000","name":"Kamun"},{"id":"1624257","latitude":"20.60000000","longitude":"-89.88333300","name":"Kanach\ufffdn"},{"id":"1624258","latitude":"20.93333300","longitude":"-89.56666700","name":"Kanac\ufffdn"},{"id":"1624259","latitude":"20.86666700","longitude":"-90.11666700","name":"Kan\ufffd"},{"id":"1624260","latitude":"20.44583300","longitude":"-88.76250000","name":"Kanakom"},{"id":"1624261","latitude":"20.70000000","longitude":"-88.41666700","name":"Kanalbilt\ufffdn"},{"id":"1624262","latitude":"20.70000000","longitude":"-88.41666700","name":"Kanalbit\ufffdn"},{"id":"1624263","latitude":"20.98333300","longitude":"-88.96666700","name":"Kan\ufffdn"},{"id":"1624264","latitude":"20.93333300","longitude":"-89.56666700","name":"Kanas\ufffdn"},{"id":"1624265","latitude":"20.93333300","longitude":"-89.56666700","name":"Kanazin"},{"id":"1624266","latitude":"21.21666700","longitude":"-88.21666700","name":"Kancab\ufffd"},{"id":"1624267","latitude":"20.60000000","longitude":"-89.11666700","name":"Kancabal"},{"id":"1624271","latitude":"20.53333300","longitude":"-90.13333300","name":"Kancabch\ufffdn"},{"id":"1624272","latitude":"21.16666700","longitude":"-89.24166700","name":"Kancabch\ufffdn Uci"},{"id":"1624273","latitude":"20.73333300","longitude":"-89.03333300","name":"Kancabc\ufffd"},{"id":"1624274","latitude":"20.35000000","longitude":"-88.56666700","name":"Kancabdzonot"},{"id":"1624275","latitude":"20.20000000","longitude":"-89.33333300","name":"Kancab"},{"id":"1624276","latitude":"20.50000000","longitude":"-88.71666700","name":"Kancabtzonot"},{"id":"1624277","latitude":"20.35000000","longitude":"-88.56666700","name":"Kancabzonot"},{"id":"1624278","latitude":"20.85000000","longitude":"-89.80000000","name":"Kanchakan"},{"id":"1624280","latitude":"20.72083300","longitude":"-88.85833300","name":"Kankabch\ufffdn de Valencia"},{"id":"1624283","latitude":"20.66666700","longitude":"-89.11666700","name":"Kankabconot"},{"id":"1624285","latitude":"20.60000000","longitude":"-89.86666700","name":"Kankirixa"},{"id":"1624286","latitude":"20.60000000","longitude":"-89.86666700","name":"Kankirixch\ufffd"},{"id":"1624287","latitude":"20.11666700","longitude":"-89.20000000","name":"Kanlel"},{"id":"1624288","latitude":"21.20000000","longitude":"-89.21666700","name":"Kansucop\ufffd"},{"id":"1624290","latitude":"20.00000000","longitude":"-89.30000000","name":"Kantemo"},{"id":"1624291","latitude":"21.11666700","longitude":"-89.53333300","name":"Kantoina"},{"id":"1624292","latitude":"21.11666700","longitude":"-89.53333300","name":"Kantoyn\ufffd"},{"id":"1624293","latitude":"20.80000000","longitude":"-89.03333300","name":"Kantunil"},{"id":"1624295","latitude":"20.73333300","longitude":"-89.25000000","name":"Kanum"},{"id":"1624296","latitude":"20.73333300","longitude":"-89.25000000","name":"Kan\ufffdn"},{"id":"1624297","latitude":"20.10000000","longitude":"-88.06666700","name":"Kanxoc"},{"id":"1624298","latitude":"20.65000000","longitude":"-89.90000000","name":"Kapoma"},{"id":"1624301","latitude":"20.90000000","longitude":"-89.38333300","name":"Katanchel"},{"id":"1624302","latitude":"20.61666700","longitude":"-88.41666700","name":"Kaua"},{"id":"1624305","latitude":"21.10000000","longitude":"-89.15000000","name":"Kaydzonot"},{"id":"1624307","latitude":"20.10000000","longitude":"-89.61666700","name":"Kenic"},{"id":"1624309","latitude":"20.10000000","longitude":"-89.61666700","name":"Keuic"},{"id":"1624311","latitude":"21.18333300","longitude":"-88.16666700","name":"Kikil"},{"id":"1624312","latitude":"20.41666700","longitude":"-88.45000000","name":"Kikinku"},{"id":"1624313","latitude":"21.13333300","longitude":"-89.70000000","name":"Kikteil"},{"id":"1624314","latitude":"20.80000000","longitude":"-89.03333300","name":"Kilinche"},{"id":"1624333","latitude":"20.30000000","longitude":"-89.08333300","name":"Kimbila"},{"id":"1624334","latitude":"20.48333300","longitude":"-88.28333300","name":"Kimil"},{"id":"1624335","latitude":"20.53333300","longitude":"-89.33333300","name":"Kinchah\ufffdu"},{"id":"1624336","latitude":"21.31666700","longitude":"-88.03333300","name":"Kinchak\ufffdn"},{"id":"1624337","latitude":"20.91666700","longitude":"-89.95000000","name":"Kinchil"},{"id":"1624338","latitude":"21.05000000","longitude":"-89.15000000","name":"Kinich\ufffd"},{"id":"1624340","latitude":"21.13333300","longitude":"-89.31666700","name":"Kin\ufffd"},{"id":"1624341","latitude":"20.31666700","longitude":"-89.13333300","name":"Kinil"},{"id":"1624342","latitude":"21.05000000","longitude":"-89.15000000","name":"Kininch\ufffd"},{"id":"1624349","latitude":"20.07916700","longitude":"-89.52500000","name":"Kobenhaltun"},{"id":"1624351","latitude":"20.63333300","longitude":"-90.15000000","name":"Kochol"},{"id":"1624352","latitude":"20.56666700","longitude":"-89.78333300","name":"Kohobchacab"},{"id":"1624356","latitude":"21.10000000","longitude":"-89.66666700","name":"Komch\ufffdn"},{"id":"1624357","latitude":"21.15000000","longitude":"-89.26250000","name":"Komch\ufffdn Mart\ufffdnez"},{"id":"1624358","latitude":"20.65000000","longitude":"-89.90000000","name":"Kompoma"},{"id":"1624363","latitude":"20.65000000","longitude":"-89.90000000","name":"Kopom\ufffd"},{"id":"1624364","latitude":"21.05000000","longitude":"-89.24166700","name":"Kopt\ufffd"},{"id":"1624366","latitude":"20.56666700","longitude":"-89.33333300","name":"Kuchecan"},{"id":"1624367","latitude":"21.10000000","longitude":"-89.56666700","name":"Kuch\ufffd"},{"id":"1624368","latitude":"20.85000000","longitude":"-89.90000000","name":"Kuchel"},{"id":"1624369","latitude":"20.56666700","longitude":"-89.33333300","name":"Kuchkan"},{"id":"1624370","latitude":"21.03333300","longitude":"-88.31666700","name":"Kukil\ufffd"},{"id":"1624371","latitude":"20.71666700","longitude":"-89.45000000","name":"Kukul\ufffd"},{"id":"1624372","latitude":"20.80000000","longitude":"-89.03333300","name":"Kulinch\ufffd"},{"id":"1624373","latitude":"21.43333300","longitude":"-87.71666700","name":"Kulux"},{"id":"1624374","latitude":"20.48333300","longitude":"-88.28333300","name":"Kumil"},{"id":"1624375","latitude":"20.71666700","longitude":"-89.41666700","name":"Kuncheil\ufffd"},{"id":"1624376","latitude":"20.91666700","longitude":"-88.32500000","name":"Kunche"},{"id":"1624377","latitude":"20.63333300","longitude":"-88.30000000","name":"Kunkunul"},{"id":"1624378","latitude":"20.83333300","longitude":"-88.08333300","name":"Kunuku"},{"id":"1624379","latitude":"20.50000000","longitude":"-90.20000000","name":"Kupul\ufffdn"},{"id":"1624380","latitude":"20.85000000","longitude":"-87.88055600","name":"Kuseb"},{"id":"1624381","latitude":"21.11666700","longitude":"-89.40416700","name":"Kuxub"},{"id":"1624619","latitude":"21.88333300","longitude":"-102.96666700","name":"La Barranca"},{"id":"1624641","latitude":"21.00000000","longitude":"-88.33333300","name":"Labch\ufffdn"},{"id":"1624684","latitude":"20.21666700","longitude":"-89.56666700","name":"Labna"},{"id":"1625023","latitude":"21.42500000","longitude":"-88.39166700","name":"La Candelaria"},{"id":"1625915","latitude":"19.95833300","longitude":"-89.06666700","name":"La Esperanza"},{"id":"1626249","latitude":"21.20416700","longitude":"-88.55000000","name":"La Gran Lucha"},{"id":"1626704","latitude":"21.38333300","longitude":"-88.93333300","name":"La Isla"},{"id":"1626709","latitude":"21.38333300","longitude":"-88.93333300","name":"La Islita"},{"id":"1626998","latitude":"21.21666700","longitude":"-87.79583300","name":"La Libertad"},{"id":"1627001","latitude":"21.45000000","longitude":"-88.37500000","name":"La Librada"},{"id":"1627180","latitude":"20.78333300","longitude":"-89.80000000","name":"Lama"},{"id":"1627724","latitude":"20.23333300","longitude":"-89.61666700","name":"Lapak"},{"id":"1628218","latitude":"21.35000000","longitude":"-89.11666700","name":"La Providencia"},{"id":"1628339","latitude":"21.16666700","longitude":"-89.98333300","name":"La Quinta"},{"id":"1628931","latitude":"21.60000000","longitude":"-87.98333300","name":"Las Coloradas"},{"id":"1629755","latitude":"21.35833300","longitude":"-87.81250000","name":"Las Palmas"},{"id":"1630074","latitude":"21.11666700","longitude":"-88.98333300","name":"Las Torres de Pe\ufffdn"},{"id":"1630076","latitude":"21.11666700","longitude":"-88.98333300","name":"Las Torres"},{"id":"1630767","latitude":"20.04583300","longitude":"-89.07916700","name":"L\ufffdzaro C\ufffdrdenas"},{"id":"1630855","latitude":"20.70000000","longitude":"-89.50000000","name":"Lep\ufffdn"},{"id":"1630916","latitude":"20.70000000","longitude":"-88.81666700","name":"Libre Uni\ufffdn"},{"id":"1631208","latitude":"21.35000000","longitude":"-88.15000000","name":"Loch\ufffd"},{"id":"1633342","latitude":"20.45000000","longitude":"-88.40000000","name":"Luch"},{"id":"1633392","latitude":"21.18750000","longitude":"-87.63333300","name":"Luis Rosado"},{"id":"1633396","latitude":"20.43333300","longitude":"-89.50000000","name":"Lum\ufffd"},{"id":"1633405","latitude":"20.43333300","longitude":"-89.50000000","name":"Luna"},{"id":"1633491","latitude":"21.28333300","longitude":"-87.95000000","name":"Macucam"},{"id":"1633656","latitude":"20.21666700","longitude":"-88.58333300","name":"Mahas"},{"id":"1633657","latitude":"20.43333300","longitude":"-88.28333300","name":"Mahas Nahyaxche"},{"id":"1633658","latitude":"21.00416700","longitude":"-88.40833300","name":"Mahaycab"},{"id":"1633659","latitude":"20.53333300","longitude":"-89.45000000","name":"Mahsucil"},{"id":"1633663","latitude":"20.53333300","longitude":"-89.45000000","name":"Mahzucil"},{"id":"1633804","latitude":"20.48333300","longitude":"-89.36666700","name":"Mam\ufffd"},{"id":"1633919","latitude":"20.38333300","longitude":"-89.40000000","name":"Man\ufffd"},{"id":"1633955","latitude":"21.23333300","longitude":"-87.65833300","name":"Manuel Cepeda Peraza"},{"id":"1634273","latitude":"20.83333300","longitude":"-89.81666700","name":"Masul"},{"id":"1634483","latitude":"20.58333300","longitude":"-89.98333300","name":"Maxcan\ufffd"},{"id":"1634502","latitude":"20.46666700","longitude":"-89.18333300","name":"Mayap\ufffdn"},{"id":"1634754","latitude":"20.96666700","longitude":"-89.61666700","name":"M\ufffdrida"},{"id":"1634946","latitude":"21.06666700","longitude":"-89.20000000","name":"Mesatunich"},{"id":"1635307","latitude":"20.97500000","longitude":"-89.38333300","name":"Millet"},{"id":"1635382","latitude":"21.36666700","longitude":"-88.98333300","name":"Mina de Oro"},{"id":"1635531","latitude":"21.33333300","longitude":"-89.28333300","name":"Miramar"},{"id":"1635589","latitude":"21.15000000","longitude":"-89.58333300","name":"Misnebal\ufffdn"},{"id":"1635590","latitude":"21.30000000","longitude":"-87.80000000","name":"Misne Bal\ufffdn"},{"id":"1635652","latitude":"21.10000000","longitude":"-89.45000000","name":"Mococha"},{"id":"1635665","latitude":"21.35000000","longitude":"-87.21666700","name":"Moctezuma"},{"id":"1635732","latitude":"20.80000000","longitude":"-89.63333300","name":"Molas"},{"id":"1635889","latitude":"21.36666700","longitude":"-88.20833300","name":"Monte Cristo"},{"id":"1636025","latitude":"20.54583300","longitude":"-88.85833300","name":"Mopila"},{"id":"1636210","latitude":"21.10000000","longitude":"-89.28333300","name":"Motul de Carrillo Puerto"},{"id":"1636211","latitude":"21.10000000","longitude":"-89.28333300","name":"Motul de Felipe Carrillo Puerto"},{"id":"1636212","latitude":"21.10000000","longitude":"-89.28333300","name":"Motul"},{"id":"1636217","latitude":"21.03333300","longitude":"-89.33333300","name":"Moxupip"},{"id":"1636243","latitude":"20.89166700","longitude":"-87.82916700","name":"Mucel"},{"id":"1636248","latitude":"20.46666700","longitude":"-88.45000000","name":"Muchucuxab"},{"id":"1636249","latitude":"20.46666700","longitude":"-88.45000000","name":"Muchucuxcah"},{"id":"1636250","latitude":"20.63333300","longitude":"-88.45000000","name":"Muchucux"},{"id":"1636252","latitude":"20.98333300","longitude":"-89.16666700","name":"Mucuich\ufffd"},{"id":"1636253","latitude":"20.98333300","longitude":"-89.16666700","name":"Mucuyche"},{"id":"1636255","latitude":"21.56666700","longitude":"-87.86666700","name":"Muelle San Fernando"},{"id":"1636270","latitude":"20.55833300","longitude":"-89.78333300","name":"Mukuiche"},{"id":"1636271","latitude":"20.61666700","longitude":"-89.61666700","name":"Mukuych\ufffd"},{"id":"1636282","latitude":"20.91666700","longitude":"-89.58333300","name":"Mulchech\ufffdn"},{"id":"1636289","latitude":"20.57916700","longitude":"-89.86666700","name":"Mulsai"},{"id":"1636290","latitude":"20.91666700","longitude":"-89.71666700","name":"Mulsay"},{"id":"1636294","latitude":"20.48333300","longitude":"-89.71666700","name":"Muna"},{"id":"1636345","latitude":"21.03333300","longitude":"-89.33333300","name":"Muxupib"},{"id":"1636346","latitude":"21.03333300","longitude":"-89.33333300","name":"Muxupip"},{"id":"1636347","latitude":"20.98333300","longitude":"-89.16666700","name":"Muycuych\ufffd"},{"id":"1636355","latitude":"20.88333300","longitude":"-88.01666700","name":"Nabalam"},{"id":"1636356","latitude":"20.88333300","longitude":"-88.01666700","name":"Nabal\ufffdn"},{"id":"1636357","latitude":"21.01666700","longitude":"-89.90000000","name":"Nabanch\ufffd"},{"id":"1636360","latitude":"20.66666700","longitude":"-89.75000000","name":"Nabul\ufffd"},{"id":"1636375","latitude":"20.70000000","longitude":"-88.76666700","name":"Nachi Cocom"},{"id":"1636401","latitude":"20.92083300","longitude":"-88.30000000","name":"Nacuche"},{"id":"1636409","latitude":"19.88333300","longitude":"-89.18333300","name":"Nahhalal"},{"id":"1636496","latitude":"20.95833300","longitude":"-87.93333300","name":"Naranjal"},{"id":"1636596","latitude":"20.88333300","longitude":"-88.01666700","name":"Navalam"},{"id":"1636643","latitude":"21.20000000","longitude":"-88.46666700","name":"N.C.P.E. San Francisco"},{"id":"1636679","latitude":"20.33333300","longitude":"-89.03333300","name":"Nenel\ufffd"},{"id":"1636722","latitude":"20.75000000","longitude":"-89.96666700","name":"Nicanch\ufffd"},{"id":"1636766","latitude":"20.60000000","longitude":"-88.58333300","name":"Nict\ufffd H\ufffd"},{"id":"1636817","latitude":"21.06666700","longitude":"-89.73333300","name":"Noc Ac"},{"id":"1636818","latitude":"21.15000000","longitude":"-89.40000000","name":"Nocac"},{"id":"1636833","latitude":"20.91666700","longitude":"-89.66666700","name":"Noco"},{"id":"1636873","latitude":"19.80000000","longitude":"-89.32916700","name":"Nohalal"},{"id":"1636877","latitude":"21.13333300","longitude":"-88.46666700","name":"Noha"},{"id":"1636883","latitude":"20.03333300","longitude":"-89.37916700","name":"Nohcacab"},{"id":"1636884","latitude":"21.06666700","longitude":"-89.73333300","name":"Nohcac"},{"id":"1636886","latitude":"20.75000000","longitude":"-89.36666700","name":"Nohchacan"},{"id":"1636887","latitude":"20.73333300","longitude":"-89.33333300","name":"Nohchakain"},{"id":"1636888","latitude":"20.75000000","longitude":"-89.36666700","name":"Nohchak\ufffdn"},{"id":"1636889","latitude":"20.91666700","longitude":"-89.36666700","name":"Nohch\ufffdn"},{"id":"1636891","latitude":"19.88333300","longitude":"-89.18333300","name":"Nohhalal"},{"id":"1636892","latitude":"21.13333300","longitude":"-88.46666700","name":"Noh-ha"},{"id":"1636893","latitude":"21.06666700","longitude":"-89.05000000","name":"Nohox"},{"id":"1636896","latitude":"20.96666700","longitude":"-89.96666700","name":"Nohuay\ufffdn"},{"id":"1636901","latitude":"21.01666700","longitude":"-89.41666700","name":"Nolo"},{"id":"1636960","latitude":"20.98333300","longitude":"-88.96666700","name":"Noptunch\ufffdn"},{"id":"1637253","latitude":"21.06666700","longitude":"-87.98333300","name":"Nueva York"},{"id":"1637337","latitude":"21.26666700","longitude":"-87.61666700","name":"Nuevo Le\ufffdn"},{"id":"1637452","latitude":"21.30833300","longitude":"-87.56250000","name":"Nuevo Tesoco"},{"id":"1637468","latitude":"20.45000000","longitude":"-88.26666700","name":"Nuevo X-Javin"},{"id":"1637486","latitude":"20.98333300","longitude":"-88.96666700","name":"Nuptunch\ufffdn"},{"id":"1637521","latitude":"20.20000000","longitude":"-89.28333300","name":"Obregon"},{"id":"1637545","latitude":"21.28333300","longitude":"-87.96666700","name":"Ochachich"},{"id":"1637547","latitude":"20.63333300","longitude":"-89.33333300","name":"Ochil"},{"id":"1637683","latitude":"21.21666700","longitude":"-87.38333300","name":"Odzceh"},{"id":"1637684","latitude":"21.21666700","longitude":"-87.38333300","name":"Odzeeh"},{"id":"1637994","latitude":"20.96666700","longitude":"-89.48333300","name":"Oncan"},{"id":"1637997","latitude":"20.82500000","longitude":"-88.84166700","name":"Onich\ufffdn"},{"id":"1638007","latitude":"21.10000000","longitude":"-88.68333300","name":"Opch\ufffdn"},{"id":"1638009","latitude":"20.55000000","longitude":"-89.85000000","name":"Opich\ufffdn"},{"id":"1638010","latitude":"21.06666700","longitude":"-89.06666700","name":"Opil"},{"id":"1638185","latitude":"20.56666700","longitude":"-88.43333300","name":"Otial"},{"id":"1638238","latitude":"20.86666700","longitude":"-89.81666700","name":"Oxbolom"},{"id":"1638241","latitude":"20.93333300","longitude":"-89.76666700","name":"Oxcum"},{"id":"1638242","latitude":"20.86666700","longitude":"-89.81666700","name":"Oxholom"},{"id":"1638243","latitude":"20.86666700","longitude":"-89.81666700","name":"Oxholon"},{"id":"1638244","latitude":"21.05000000","longitude":"-88.76666700","name":"Ox-Huadz"},{"id":"1638247","latitude":"20.30000000","longitude":"-89.41666700","name":"Oxkutzcab"},{"id":"1638254","latitude":"20.76666700","longitude":"-89.50000000","name":"Oxtapacab"},{"id":"1638314","latitude":"20.98333300","longitude":"-89.56666700","name":"Pacabtim"},{"id":"1638315","latitude":"20.98333300","longitude":"-89.56666700","name":"Pacabt\ufffdn"},{"id":"1638451","latitude":"20.73333300","longitude":"-87.81666700","name":"Palbalam"},{"id":"1638915","latitude":"21.28333300","longitude":"-88.26666700","name":"Panaba"},{"id":"1638916","latitude":"20.53333300","longitude":"-89.36666700","name":"Panabch\ufffdn"},{"id":"1639014","latitude":"20.16666700","longitude":"-88.83333300","name":"Papacal"},{"id":"1639106","latitude":"20.68333300","longitude":"-90.11666700","name":"Para\ufffdso"},{"id":"1639601","latitude":"20.98333300","longitude":"-89.60000000","name":"Patkanche"},{"id":"1639668","latitude":"20.71666700","longitude":"-89.68333300","name":"Peb\ufffd"},{"id":"1639669","latitude":"20.65000000","longitude":"-88.25000000","name":"Pebtun"},{"id":"1639785","latitude":"20.76666700","longitude":"-89.43333300","name":"Pel\ufffd"},{"id":"1639887","latitude":"20.28333300","longitude":"-89.30000000","name":"Pencuyul"},{"id":"1639888","latitude":"20.28333300","longitude":"-89.30000000","name":"Pencuyut"},{"id":"1639922","latitude":"20.28333300","longitude":"-89.30000000","name":"Penkuyul"},{"id":"1639923","latitude":"20.28333300","longitude":"-89.30000000","name":"Penkuyut"},{"id":"1639951","latitude":"20.53333300","longitude":"-89.81666700","name":"Penxixim"},{"id":"1639976","latitude":"20.95000000","longitude":"-88.11666700","name":"Pereboch"},{"id":"1640078","latitude":"20.76666700","longitude":"-89.65000000","name":"Petac"},{"id":"1640091","latitude":"20.81666700","longitude":"-89.68333300","name":"Petechaltun"},{"id":"1640092","latitude":"20.83333300","longitude":"-89.46666700","name":"Petectunich"},{"id":"1640094","latitude":"20.86666700","longitude":"-89.16666700","name":"Petenchi"},{"id":"1640098","latitude":"20.98333300","longitude":"-89.60000000","name":"Petkanch\ufffd"},{"id":"1640105","latitude":"20.13333300","longitude":"-88.91666700","name":"Peto"},{"id":"1640111","latitude":"20.08333300","longitude":"-88.73333300","name":"Petuillo"},{"id":"1640112","latitude":"20.10000000","longitude":"-88.86666700","name":"Petulchacan"},{"id":"1640131","latitude":"20.95000000","longitude":"-88.68333300","name":"Pibtuch"},{"id":"1640132","latitude":"20.95000000","longitude":"-88.68333300","name":"Pibtuc"},{"id":"1640416","latitude":"21.46666700","longitude":"-88.25000000","name":"Pilar"},{"id":"1640434","latitude":"19.91666700","longitude":"-89.16666700","name":"Pilat"},{"id":"1640435","latitude":"20.95000000","longitude":"-88.68333300","name":"Pilbuch"},{"id":"1640576","latitude":"20.66666700","longitude":"-88.87500000","name":"Pipaa"},{"id":"1640583","latitude":"21.01666700","longitude":"-88.58333300","name":"Pip"},{"id":"1640596","latitude":"20.70000000","longitude":"-88.58333300","name":"Pist\ufffd"},{"id":"1640649","latitude":"20.70000000","longitude":"-88.28333300","name":"Pixon"},{"id":"1640651","latitude":"20.70000000","longitude":"-88.28333300","name":"Pixoy"},{"id":"1640652","latitude":"20.65000000","longitude":"-89.41666700","name":"Pixyah"},{"id":"1640686","latitude":"20.31666700","longitude":"-89.31666700","name":"Plan Chac"},{"id":"1640963","latitude":"20.45833300","longitude":"-88.48333300","name":"Pocbichen Xuxcao"},{"id":"1640965","latitude":"20.65000000","longitude":"-89.45000000","name":"Pocchein\ufffd"},{"id":"1640968","latitude":"19.75000000","longitude":"-89.43333300","name":"Pocheil"},{"id":"1641014","latitude":"20.95000000","longitude":"-88.11666700","name":"Pocoboch"},{"id":"1641016","latitude":"20.00000000","longitude":"-88.86666700","name":"Pocol"},{"id":"1641027","latitude":"20.00000000","longitude":"-88.86666700","name":"Pokil"},{"id":"1641028","latitude":"20.00000000","longitude":"-88.86666700","name":"Pokit"},{"id":"1641029","latitude":"20.73333300","longitude":"-89.21666700","name":"Polab\ufffdn"},{"id":"1641030","latitude":"20.73333300","longitude":"-89.21666700","name":"Polaba"},{"id":"1641031","latitude":"20.60000000","longitude":"-89.83333300","name":"Polac"},{"id":"1641047","latitude":"20.53333300","longitude":"-89.48333300","name":"Polol"},{"id":"1641069","latitude":"19.93750000","longitude":"-89.20000000","name":"Pol-Yuc"},{"id":"1641070","latitude":"20.88333300","longitude":"-90.38333300","name":"Polzim\ufffdn"},{"id":"1641088","latitude":"21.05000000","longitude":"-88.43333300","name":"Pom"},{"id":"1641089","latitude":"20.51666700","longitude":"-89.70000000","name":"Pomposit"},{"id":"1641104","latitude":"20.32083300","longitude":"-88.39583300","name":"Poop"},{"id":"1641106","latitude":"19.90416700","longitude":"-89.31666700","name":"Popobosh"},{"id":"1641108","latitude":"20.60000000","longitude":"-88.65000000","name":"Popol\ufffd"},{"id":"1641110","latitude":"20.99583300","longitude":"-87.56250000","name":"Popolnah"},{"id":"1641112","latitude":"20.51666700","longitude":"-89.70000000","name":"Poposit"},{"id":"1641118","latitude":"21.03333300","longitude":"-88.80000000","name":"Pop"},{"id":"1641126","latitude":"20.95000000","longitude":"-88.11666700","name":"Poroboch"},{"id":"1641204","latitude":"20.35000000","longitude":"-89.50000000","name":"Postunich"},{"id":"1641406","latitude":"20.65000000","longitude":"-89.45000000","name":"Poxcheina"},{"id":"1641407","latitude":"20.80000000","longitude":"-89.80000000","name":"Poxil\ufffd"},{"id":"1641545","latitude":"20.15000000","longitude":"-88.80000000","name":"Pozo"},{"id":"1641582","latitude":"20.70000000","longitude":"-88.58333300","name":"Ppiste"},{"id":"1641781","latitude":"21.28333300","longitude":"-89.66666700","name":"Progreso"},{"id":"1641821","latitude":"21.35000000","longitude":"-89.11666700","name":"Providencia"},{"id":"1641831","latitude":"20.93333300","longitude":"-89.21666700","name":"Pua"},{"id":"1641868","latitude":"21.13333300","longitude":"-89.51666700","name":"Pueblo Chicxulub"},{"id":"1642185","latitude":"21.30000000","longitude":"-89.60000000","name":"Puerto Chicxulub"},{"id":"1642563","latitude":"20.35000000","longitude":"-89.50000000","name":"Pustunich"},{"id":"1642722","latitude":"20.46666700","longitude":"-88.14166700","name":"Quintana"},{"id":"1642726","latitude":"20.86666700","longitude":"-88.63333300","name":"Quintana Roo"},{"id":"1642841","latitude":"20.75833300","longitude":"-87.80000000","name":"Ramonal"},{"id":"1646087","latitude":"24.36666700","longitude":"-103.03333300","name":"Ranch Para\ufffdso"},{"id":"1646105","latitude":"20.90000000","longitude":"-89.38333300","name":"Ratanchel"},{"id":"1646764","latitude":"21.60000000","longitude":"-88.16666700","name":"R\ufffdo Lagartos"},{"id":"1647130","latitude":"20.65000000","longitude":"-89.37500000","name":"Sabacch\ufffdn"},{"id":"1647131","latitude":"20.21666700","longitude":"-89.58333300","name":"Sabacch\ufffd"},{"id":"1647132","latitude":"20.65000000","longitude":"-89.36666700","name":"Sabacehe"},{"id":"1647133","latitude":"20.21666700","longitude":"-89.58333300","name":"Sabache"},{"id":"1647134","latitude":"21.05000000","longitude":"-89.81666700","name":"Sabakhalal"},{"id":"1647177","latitude":"20.28333300","longitude":"-88.73333300","name":"Sabcabch\ufffdn"},{"id":"1647231","latitude":"20.56250000","longitude":"-88.90416700","name":"Sacaba"},{"id":"1647237","latitude":"20.38333300","longitude":"-89.65000000","name":"Sac-Akal"},{"id":"1647238","latitude":"20.98333300","longitude":"-89.06666700","name":"Sacal\ufffd"},{"id":"1647239","latitude":"20.48333300","longitude":"-89.58333300","name":"Sacalom"},{"id":"1647240","latitude":"20.48333300","longitude":"-89.58333300","name":"Sacalum"},{"id":"1647245","latitude":"21.15000000","longitude":"-89.36666700","name":"Sacapuc"},{"id":"1647248","latitude":"20.51666700","longitude":"-89.40000000","name":"Sac\ufffd"},{"id":"1647250","latitude":"19.91666700","longitude":"-89.04166700","name":"Sac-Becan"},{"id":"1647251","latitude":"21.08333300","longitude":"-88.10000000","name":"Saccab\ufffd"},{"id":"1647253","latitude":"20.81666700","longitude":"-89.45000000","name":"Sacchich"},{"id":"1647254","latitude":"20.81666700","longitude":"-89.45000000","name":"Sacchic"},{"id":"1647257","latitude":"20.96666700","longitude":"-88.98333300","name":"Sacnict\ufffd"},{"id":"1647258","latitude":"20.96666700","longitude":"-88.98333300","name":"Sacnit\ufffd"},{"id":"1647259","latitude":"20.90000000","longitude":"-89.81666700","name":"Sacntcte"},{"id":"1647260","latitude":"20.90000000","longitude":"-89.81666700","name":"Sacntet\ufffd"},{"id":"1647261","latitude":"21.10000000","longitude":"-89.31666700","name":"Sacola"},{"id":"1647262","latitude":"20.60000000","longitude":"-89.30000000","name":"Sacpokana"},{"id":"1647263","latitude":"20.60000000","longitude":"-89.30000000","name":"Sacpokon\ufffd"},{"id":"1647264","latitude":"19.90000000","longitude":"-89.15000000","name":"Sacpukenha"},{"id":"1647293","latitude":"20.43333300","longitude":"-88.28333300","name":"Sahacaba"},{"id":"1647295","latitude":"20.78333300","longitude":"-89.20000000","name":"Sahcabac"},{"id":"1647296","latitude":"20.66666700","longitude":"-88.38333300","name":"Sahcab\ufffd de Medina"},{"id":"1647297","latitude":"20.39166700","longitude":"-88.85000000","name":"Sahcab\ufffd Nuevo"},{"id":"1647299","latitude":"20.43333300","longitude":"-88.28333300","name":"Sahcab\ufffd"},{"id":"1647302","latitude":"20.28333300","longitude":"-88.73333300","name":"Sahcabch\ufffdn"},{"id":"1647306","latitude":"20.79583300","longitude":"-89.38333300","name":"Sahcatz\ufffdn"},{"id":"1647307","latitude":"20.91666700","longitude":"-89.46666700","name":"Sah\ufffd"},{"id":"1647335","latitude":"20.85000000","longitude":"-88.93333300","name":"Sait\ufffdn"},{"id":"1647342","latitude":"20.08333300","longitude":"-88.96666700","name":"Sak Akal"},{"id":"1647343","latitude":"20.48333300","longitude":"-89.58333300","name":"Sakalun"},{"id":"1647380","latitude":"21.03333300","longitude":"-89.15000000","name":"Salat\ufffdn"},{"id":"1647507","latitude":"20.25000000","longitude":"-88.98333300","name":"Sal"},{"id":"1647583","latitude":"19.98333300","longitude":"-89.49166700","name":"Salvador Alvarado"},{"id":"1647605","latitude":"20.88333300","longitude":"-89.88333300","name":"Samahil"},{"id":"1647609","latitude":"21.26666700","longitude":"-87.75000000","name":"Samaria"},{"id":"1647612","latitude":"20.70000000","longitude":"-89.80000000","name":"Sambul\ufffd"},{"id":"1647697","latitude":"20.75000000","longitude":"-89.21666700","name":"Sanahat"},{"id":"1647698","latitude":"20.75000000","longitude":"-89.21666700","name":"Sanahcat"},{"id":"1647699","latitude":"20.21666700","longitude":"-89.71666700","name":"Sanakt\ufffd"},{"id":"1647719","latitude":"20.88333300","longitude":"-89.46666700","name":"San Amado"},{"id":"1647800","latitude":"20.51666700","longitude":"-89.61666700","name":"San Andr\ufffds"},{"id":"1647837","latitude":"20.26666700","longitude":"-89.40000000","name":"San Anselmo"},{"id":"1647854","latitude":"21.08333300","longitude":"-88.86666700","name":"San Antonio Baas"},{"id":"1647866","latitude":"21.16250000","longitude":"-88.86666700","name":"San Antonio C\ufffdmara"},{"id":"1647872","latitude":"21.11666700","longitude":"-88.86666700","name":"San Antonio Castellanos"},{"id":"1647877","latitude":"21.00000000","longitude":"-89.81250000","name":"San Antonio Chel"},{"id":"1647883","latitude":"20.86666700","longitude":"-89.86666700","name":"San Antonio Chun"},{"id":"1648033","latitude":"20.93333300","longitude":"-89.65000000","name":"San Antonio Dziskal"},{"id":"1648050","latitude":"21.08333300","longitude":"-88.86666700","name":"San Antonio Haas"},{"id":"1648051","latitude":"21.08333300","longitude":"-88.86666700","name":"San Antonio Haez"},{"id":"1648069","latitude":"20.88333300","longitude":"-89.63333300","name":"San Antonio Luch"},{"id":"1648070","latitude":"21.36250000","longitude":"-88.12500000","name":"San Antonio Macan"},{"id":"1648075","latitude":"20.70000000","longitude":"-89.79166700","name":"San Antonio Mulix"},{"id":"1648109","latitude":"20.90000000","longitude":"-89.81666700","name":"San Antonio Sacnict\ufffd"},{"id":"1648110","latitude":"20.90000000","longitude":"-89.81666700","name":"San Antonio Sacnit\ufffd"},{"id":"1648139","latitude":"20.08333300","longitude":"-89.16666700","name":"San Antonio"},{"id":"1648141","latitude":"20.48333300","longitude":"-90.16666700","name":"San Antonio Sih\ufffd"},{"id":"1648144","latitude":"20.53333300","longitude":"-89.61666700","name":"San Antonio Sodzil"},{"id":"1648151","latitude":"20.90000000","longitude":"-89.52916700","name":"San Antonio Tehuitz"},{"id":"1648154","latitude":"20.81250000","longitude":"-88.75000000","name":"San Antonio Tepek\ufffdn"},{"id":"1648167","latitude":"21.13333300","longitude":"-89.16250000","name":"San Antonio Xiat"},{"id":"1648168","latitude":"20.91666700","longitude":"-89.50000000","name":"San Antonio Xiel"},{"id":"1648169","latitude":"20.91666700","longitude":"-89.50000000","name":"San Antonio Xiol"},{"id":"1648171","latitude":"20.88333300","longitude":"-89.63333300","name":"San Antonio Xluch"},{"id":"1648174","latitude":"20.11666700","longitude":"-89.73333300","name":"San Antonio Yaxche"},{"id":"1648182","latitude":"20.55000000","longitude":"-89.60833300","name":"San Antonio Zodil"},{"id":"1648193","latitude":"20.56666700","longitude":"-90.13333300","name":"San Arcadio"},{"id":"1648197","latitude":"21.27083300","longitude":"-87.54166700","name":"San Arturo"},{"id":"1648315","latitude":"21.31666700","longitude":"-89.41666700","name":"San Benito"},{"id":"1648323","latitude":"20.18750000","longitude":"-88.77083300","name":"San Bernab\ufffd"},{"id":"1648333","latitude":"20.88333300","longitude":"-89.40000000","name":"San Bernardino"},{"id":"1648346","latitude":"20.23333300","longitude":"-89.35000000","name":"San Bernardo"},{"id":"1648370","latitude":"21.31666700","longitude":"-89.40000000","name":"San Bruno"},{"id":"1648417","latitude":"20.83333300","longitude":"-89.30000000","name":"San Carlos"},{"id":"1648443","latitude":"20.85000000","longitude":"-88.26666700","name":"Sanc\ufffdn"},{"id":"1648463","latitude":"20.40000000","longitude":"-98.30000000","name":"San Cornelio"},{"id":"1648471","latitude":"21.33333300","longitude":"-89.16666700","name":"San Crisanto"},{"id":"1648513","latitude":"20.45000000","longitude":"-89.48333300","name":"San Crist\ufffdbal"},{"id":"1648598","latitude":"19.85833300","longitude":"-89.28333300","name":"San Diego"},{"id":"1648604","latitude":"21.15833300","longitude":"-89.61666700","name":"San Diego Texan"},{"id":"1648616","latitude":"21.10000000","longitude":"-88.93333300","name":"San Dimas"},{"id":"1648626","latitude":"20.05833300","longitude":"-88.77083300","name":"San Dionisio"},{"id":"1648639","latitude":"21.03333300","longitude":"-89.88333300","name":"San Eduardo"},{"id":"1648658","latitude":"19.95000000","longitude":"-89.22916700","name":"San Enrique"},{"id":"1648723","latitude":"19.81250000","longitude":"-89.48333300","name":"San Felipe II"},{"id":"1648757","latitude":"20.21666700","longitude":"-88.85000000","name":"San Felipe"},{"id":"1648814","latitude":"20.65000000","longitude":"-90.06666700","name":"San Fernando"},{"id":"1648819","latitude":"19.98333300","longitude":"-89.14166700","name":"San Francisco Acub"},{"id":"1648984","latitude":"20.21666700","longitude":"-88.80000000","name":"San Francisco"},{"id":"1649015","latitude":"20.98333300","longitude":"-89.15000000","name":"San Francisco Tzon"},{"id":"1649070","latitude":"19.95000000","longitude":"-89.15000000","name":"San Gaspar"},{"id":"1649136","latitude":"21.16666700","longitude":"-88.78333300","name":"San Gregorio"},{"id":"1649156","latitude":"21.18333300","longitude":"-87.65833300","name":"San Hipilio"},{"id":"1649164","latitude":"21.03333300","longitude":"-89.15000000","name":"Saniahtah"},{"id":"1649203","latitude":"20.23333300","longitude":"-88.85000000","name":"San Ignacio"},{"id":"1649206","latitude":"20.84166700","longitude":"-89.61666700","name":"San Ignacio Tesio"},{"id":"1649210","latitude":"20.40000000","longitude":"-89.51666700","name":"San Ignacio Xtuc"},{"id":"1649284","latitude":"19.83333300","longitude":"-89.40833300","name":"San Isidro Maqui\ufffdn"},{"id":"1649286","latitude":"20.91666700","longitude":"-90.38333300","name":"San Isidro Miramar"},{"id":"1649288","latitude":"20.65000000","longitude":"-89.33333300","name":"San Isidro Ochil"},{"id":"1649318","latitude":"20.33333300","longitude":"-89.78750000","name":"San Isidro"},{"id":"1649328","latitude":"19.88333300","longitude":"-89.43750000","name":"San Isidro Yaxch\ufffd"},{"id":"1649344","latitude":"21.20000000","longitude":"-89.11666700","name":"San Jacinto"},{"id":"1649411","latitude":"20.53333300","longitude":"-89.05000000","name":"San Jer\ufffdnimo"},{"id":"1649430","latitude":"20.88333300","longitude":"-89.16666700","name":"San Jes\ufffds"},{"id":"1649459","latitude":"20.40000000","longitude":"-89.55000000","name":"San Joaqu\ufffdn"},{"id":"1649482","latitude":"19.72500000","longitude":"-89.46666700","name":"San Jorge"},{"id":"1649521","latitude":"21.33333300","longitude":"-88.75000000","name":"San Jos\ufffd Campos"},{"id":"1649535","latitude":"21.21666700","longitude":"-89.45000000","name":"San Jos\ufffd Ceballos"},{"id":"1649566","latitude":"20.13333300","longitude":"-89.40000000","name":"San Jos\ufffd de Alonso"},{"id":"1649983","latitude":"21.06250000","longitude":"-87.68750000","name":"San Jos\ufffd Montecristo"},{"id":"1649990","latitude":"20.74583300","longitude":"-89.95833300","name":"San Jos\ufffd Nicanche"},{"id":"1650003","latitude":"21.30000000","longitude":"-88.43333300","name":"San Jos\ufffd Paz"},{"id":"1650008","latitude":"20.95000000","longitude":"-88.67500000","name":"San Jos\ufffd Pitbuch"},{"id":"1650049","latitude":"20.13333300","longitude":"-89.40000000","name":"San Jos\ufffd"},{"id":"1650080","latitude":"20.50000000","longitude":"-89.35000000","name":"San Jos\ufffd Xk\ufffdmak"},{"id":"1650094","latitude":"20.76666700","longitude":"-89.98333300","name":"San Juan Act\ufffdn"},{"id":"1650152","latitude":"20.92500000","longitude":"-87.73750000","name":"San Juan Chen"},{"id":"1650299","latitude":"21.45000000","longitude":"-88.15555600","name":"San Juan del R\ufffdo"},{"id":"1650334","latitude":"21.03333300","longitude":"-89.36666700","name":"San Juan Hau"},{"id":"1650389","latitude":"21.02916700","longitude":"-89.38750000","name":"San Juan Koop"},{"id":"1650472","latitude":"20.21666700","longitude":"-88.81666700","name":"San Juan"},{"id":"1650492","latitude":"19.70000000","longitude":"-89.45416700","name":"San Juan Tekax"},{"id":"1650569","latitude":"21.40000000","longitude":"-88.38333300","name":"San Laureano"},{"id":"1650591","latitude":"21.01250000","longitude":"-87.90416700","name":"San Lorenzo Chiquili\ufffd"},{"id":"1650638","latitude":"20.68333300","longitude":"-88.41666700","name":"San Lorenzo"},{"id":"1650788","latitude":"20.95000000","longitude":"-89.91666700","name":"San Luis"},{"id":"1650803","latitude":"21.14583300","longitude":"-87.85833300","name":"San Luis Tzuc-Tuk"},{"id":"1650825","latitude":"20.05000000","longitude":"-89.47500000","name":"San Manuel"},{"id":"1650871","latitude":"20.27500000","longitude":"-88.87500000","name":"San Marcos"},{"id":"1650961","latitude":"19.90000000","longitude":"-89.52083300","name":"San Mart\ufffdn"},{"id":"1651034","latitude":"19.86666700","longitude":"-89.14166700","name":"San Mateo"},{"id":"1651065","latitude":"20.71666700","longitude":"-90.01666700","name":"San Mat\ufffdas"},{"id":"1651101","latitude":"20.81666700","longitude":"-89.35000000","name":"San Miguel Bacalar"},{"id":"1651288","latitude":"20.46666700","longitude":"-89.71666700","name":"San Miguel"},{"id":"1651435","latitude":"20.23333300","longitude":"-88.83333300","name":"San Nicol\ufffds"},{"id":"1651526","latitude":"20.23333300","longitude":"-88.80000000","name":"San Pablo"},{"id":"1651590","latitude":"21.30000000","longitude":"-87.65833300","name":"San Pedro Bacab"},{"id":"1651596","latitude":"21.62500000","longitude":"-89.22083300","name":"San Pedro C\ufffdmara"},{"id":"1651599","latitude":"20.66666700","longitude":"-89.56666700","name":"San Pedro Cay\ufffd"},{"id":"1651601","latitude":"21.13333300","longitude":"-89.18750000","name":"San Pedro Chakabal"},{"id":"1651605","latitude":"21.96250000","longitude":"-87.79583300","name":"San Pedro Chemax"},{"id":"1651607","latitude":"20.86666700","longitude":"-88.31250000","name":"San Pedro Chenchela"},{"id":"1651612","latitude":"20.86666700","longitude":"-89.56666700","name":"San Pedro Chima"},{"id":"1651703","latitude":"21.16250000","longitude":"-87.85000000","name":"San Pedro Ju\ufffdez"},{"id":"1651802","latitude":"19.91666700","longitude":"-89.52500000","name":"San Pedro"},{"id":"1651854","latitude":"20.53333300","longitude":"-88.83333300","name":"San Pedro Yaxcaba"},{"id":"1651882","latitude":"21.00000000","longitude":"-89.93333300","name":"San Rafael Abal"},{"id":"1651916","latitude":"21.00000000","longitude":"-89.93333300","name":"San Rafael Hbal"},{"id":"1651951","latitude":"20.63333300","longitude":"-88.48333300","name":"San Rafael"},{"id":"1651979","latitude":"21.30000000","longitude":"-88.91666700","name":"San Ram\ufffdn"},{"id":"1651995","latitude":"20.83333300","longitude":"-88.85000000","name":"San Rom\ufffdn Kolamch\ufffdn"},{"id":"1652005","latitude":"19.90416700","longitude":"-89.25416700","name":"San Rom\ufffdn"},{"id":"1652016","latitude":"21.25000000","longitude":"-89.25000000","name":"San Roque"},{"id":"1652047","latitude":"19.85833300","longitude":"-89.40000000","name":"San Salvador"},{"id":"1652140","latitude":"20.22500000","longitude":"-89.80000000","name":"San Sim\ufffdn"},{"id":"1652232","latitude":"20.28333300","longitude":"-89.61666700","name":"Santa Ana"},{"id":"1652302","latitude":"20.70000000","longitude":"-88.21666700","name":"Santa B\ufffdrbara"},{"id":"1652373","latitude":"20.31666700","longitude":"-89.45000000","name":"Santa Catarina"},{"id":"1652439","latitude":"20.77500000","longitude":"-87.88333300","name":"Santa Clara"},{"id":"1652523","latitude":"19.33333300","longitude":"-89.32500000","name":"Santa Cruz Nueva"},{"id":"1652558","latitude":"20.56666700","longitude":"-89.13333300","name":"Santa Cruz"},{"id":"1652574","latitude":"20.93333300","longitude":"-90.36666700","name":"Santa Cruz Xixin"},{"id":"1652592","latitude":"21.14166700","longitude":"-88.66666700","name":"Santa Domingo"},{"id":"1652597","latitude":"20.53333300","longitude":"-90.03333300","name":"Santa Eduwiges"},{"id":"1652598","latitude":"20.53333300","longitude":"-90.03333300","name":"Santa Eduwigis"},{"id":"1652631","latitude":"20.33333300","longitude":"-89.65000000","name":"Santa Elena"},{"id":"1652633","latitude":"20.68333300","longitude":"-88.31250000","name":"Santa  Eleuteria"},{"id":"1652722","latitude":"20.60000000","longitude":"-89.96666700","name":"Santa G\ufffddula"},{"id":"1652750","latitude":"20.83333300","longitude":"-88.60000000","name":"Santa In\ufffds"},{"id":"1652792","latitude":"20.98333300","longitude":"-89.03333300","name":"Santa Isabel"},{"id":"1652812","latitude":"20.46666700","longitude":"-89.96666700","name":"Santa Julia"},{"id":"1652879","latitude":"20.55000000","longitude":"-90.16666700","name":"Santa Mar\ufffda Ac\ufffd"},{"id":"1652912","latitude":"21.03333300","longitude":"-89.46666700","name":"Santa Mar\ufffda Chi"},{"id":"1652983","latitude":"20.81666700","longitude":"-88.31666700","name":"Santa Mar\ufffda Grande"},{"id":"1653087","latitude":"20.16666700","longitude":"-89.26666700","name":"Santa Mar\ufffda"},{"id":"1653242","latitude":"21.13333300","longitude":"-88.55000000","name":"Santa Pilar"},{"id":"1653285","latitude":"20.07916700","longitude":"-89.56666700","name":"Santa Rita"},{"id":"1653290","latitude":"21.15000000","longitude":"-87.66666700","name":"Santa Rosa Concepci\ufffdn"},{"id":"1653368","latitude":"19.91666700","longitude":"-89.60000000","name":"Santa Rosa"},{"id":"1653414","latitude":"21.15000000","longitude":"-89.22500000","name":"Santa Teresa"},{"id":"1653427","latitude":"20.02500000","longitude":"-88.92500000","name":"Santa Ursula"},{"id":"1653737","latitude":"20.60000000","longitude":"-90.11666700","name":"Santo Domingo"},{"id":"1653826","latitude":"21.00000000","longitude":"-89.88333300","name":"Santo Toribio"},{"id":"1653893","latitude":"20.98333300","longitude":"-88.31666700","name":"San Vicente"},{"id":"1653920","latitude":"20.60000000","longitude":"-89.30000000","name":"Sapokoma"},{"id":"1654116","latitude":"20.23333300","longitude":"-89.65000000","name":"Sayil"},{"id":"1654254","latitude":"20.83333300","longitude":"-89.36666700","name":"Seve"},{"id":"1654260","latitude":"20.83333300","longitude":"-89.36666700","name":"Sey\ufffd"},{"id":"1654261","latitude":"20.66666700","longitude":"-88.38333300","name":"Shacaba"},{"id":"1654280","latitude":"20.80000000","longitude":"-89.48333300","name":"Sibceb"},{"id":"1654284","latitude":"20.78333300","longitude":"-87.83333300","name":"Sibischen"},{"id":"1654311","latitude":"21.13333300","longitude":"-89.73333300","name":"Sierra Papacal"},{"id":"1654317","latitude":"21.13333300","longitude":"-89.73333300","name":"Sierra"},{"id":"1654341","latitude":"20.48333300","longitude":"-90.16666700","name":"Sihe"},{"id":"1654345","latitude":"20.83333300","longitude":"-89.53333300","name":"Sihonal"},{"id":"1654347","latitude":"20.48333300","longitude":"-90.16666700","name":"Siho"},{"id":"1654348","latitude":"20.78333300","longitude":"-89.90000000","name":"Sihuachen"},{"id":"1654354","latitude":"20.69166700","longitude":"-89.68750000","name":"Sihunch\ufffdn"},{"id":"1654363","latitude":"20.58333300","longitude":"-89.31666700","name":"Silil"},{"id":"1654409","latitude":"21.21666700","longitude":"-89.18333300","name":"Sinamanch\ufffd"},{"id":"1654410","latitude":"21.21666700","longitude":"-89.18333300","name":"Sinanch\ufffd"},{"id":"1654419","latitude":"20.78333300","longitude":"-89.90000000","name":"Sinhunch\ufffdn"},{"id":"1654424","latitude":"20.76666700","longitude":"-90.20000000","name":"Sinkchuel"},{"id":"1654425","latitude":"20.76666700","longitude":"-90.20000000","name":"Sinkehuel"},{"id":"1654443","latitude":"21.16666700","longitude":"-90.03333300","name":"Sisal"},{"id":"1654444","latitude":"20.78333300","longitude":"-87.83333300","name":"Sisbicch\ufffdn"},{"id":"1654445","latitude":"20.80000000","longitude":"-87.90000000","name":"Sisbichen"},{"id":"1654446","latitude":"20.30833300","longitude":"-89.05833300","name":"Sisbic"},{"id":"1654451","latitude":"20.93333300","longitude":"-88.96666700","name":"Sitilpech"},{"id":"1654471","latitude":"21.01666700","longitude":"-89.51666700","name":"Sitpach"},{"id":"1654483","latitude":"20.46666700","longitude":"-88.33333300","name":"Soail"},{"id":"1654511","latitude":"20.46666700","longitude":"-88.33333300","name":"Sodzil"},{"id":"1654597","latitude":"22.93333300","longitude":"-103.15000000","name":"Sol\ufffds"},{"id":"1654678","latitude":"20.98333300","longitude":"-89.70000000","name":"Sosola"},{"id":"1654711","latitude":"20.73333300","longitude":"-89.58333300","name":"Sotula"},{"id":"1654712","latitude":"20.73333300","longitude":"-89.58333300","name":"Sotuta de Pe\ufffdn"},{"id":"1654713","latitude":"20.60000000","longitude":"-89.01666700","name":"Sotuta"},{"id":"1654714","latitude":"20.46666700","longitude":"-88.33333300","name":"Sotzit"},{"id":"1654756","latitude":"21.09583300","longitude":"-89.73333300","name":"Soytunch\ufffdn"},{"id":"1654775","latitude":"21.20000000","longitude":"-89.00000000","name":"Subincancab"},{"id":"1654776","latitude":"20.85000000","longitude":"-89.53333300","name":"Subinkancab"},{"id":"1654777","latitude":"20.85000000","longitude":"-89.53333300","name":"Subinkankab"},{"id":"1654801","latitude":"21.15000000","longitude":"-88.31250000","name":"Sucil\ufffd"},{"id":"1654802","latitude":"20.56666700","longitude":"-88.28333300","name":"Sucil"},{"id":"1654803","latitude":"21.15000000","longitude":"-88.06666700","name":"Sucopo"},{"id":"1654805","latitude":"21.12500000","longitude":"-88.77500000","name":"Sucuna"},{"id":"1654806","latitude":"20.86666700","longitude":"-88.98333300","name":"Sudzal"},{"id":"1654812","latitude":"20.85000000","longitude":"-88.93333300","name":"Suit\ufffdn"},{"id":"1654814","latitude":"20.53333300","longitude":"-89.13333300","name":"Sulch\ufffd"},{"id":"1654817","latitude":"20.05000000","longitude":"-89.36666700","name":"Sulpacal"},{"id":"1654826","latitude":"21.08333300","longitude":"-89.15000000","name":"Suma"},{"id":"1654846","latitude":"20.98333300","longitude":"-89.70000000","name":"Susul\ufffd"},{"id":"1654850","latitude":"20.86666700","longitude":"-88.98333300","name":"Sutzal"},{"id":"1654852","latitude":"20.68333300","longitude":"-89.75000000","name":"Suytunch\ufffdn"},{"id":"1654853","latitude":"21.26666700","longitude":"-88.95000000","name":"Suyt\ufffdn"},{"id":"1654894","latitude":"20.25000000","longitude":"-89.58333300","name":"Tab\ufffd"},{"id":"1654938","latitude":"20.43333300","longitude":"-88.83333300","name":"Tacchibichen"},{"id":"1654940","latitude":"20.43333300","longitude":"-88.83333300","name":"Tachebilchen"},{"id":"1654982","latitude":"21.08333300","longitude":"-89.88333300","name":"Tacubaya"},{"id":"1654999","latitude":"18.00000000","longitude":"-94.91666700","name":"Tagamasichi"},{"id":"1655004","latitude":"21.05000000","longitude":"-88.06666700","name":"Tahcabo"},{"id":"1655005","latitude":"20.43333300","longitude":"-88.83333300","name":"Tahdzibich\ufffdn"},{"id":"1655006","latitude":"20.20000000","longitude":"-88.95000000","name":"Tahdzi\ufffd"},{"id":"1655008","latitude":"20.88333300","longitude":"-89.26666700","name":"Tahmec"},{"id":"1655009","latitude":"20.88333300","longitude":"-89.26666700","name":"Tahmek"},{"id":"1655010","latitude":"20.76250000","longitude":"-88.14166700","name":"Tahmuy"},{"id":"1655020","latitude":"20.20000000","longitude":"-88.95000000","name":"Tahtzi\ufffd"},{"id":"1655127","latitude":"20.56666700","longitude":"-90.06666700","name":"Tamay"},{"id":"1655154","latitude":"20.86666700","longitude":"-89.93333300","name":"Tamch\ufffdn"},{"id":"1655243","latitude":"20.45000000","longitude":"-89.98333300","name":"Tanchi"},{"id":"1655269","latitude":"20.20000000","longitude":"-88.95000000","name":"Tandziu"},{"id":"1655293","latitude":"20.89166700","longitude":"-89.71666700","name":"Tanil"},{"id":"1655312","latitude":"20.75000000","longitude":"-89.70000000","name":"Tanmul"},{"id":"1655652","latitude":"20.40000000","longitude":"-89.28333300","name":"Teabo"},{"id":"1655653","latitude":"20.51666700","longitude":"-89.36666700","name":"Teab"},{"id":"1655670","latitude":"21.20000000","longitude":"-87.54583300","name":"Teapa"},{"id":"1655676","latitude":"20.83333300","longitude":"-89.70000000","name":"Tebec"},{"id":"1655682","latitude":"20.95000000","longitude":"-88.23333300","name":"Tebon"},{"id":"1655737","latitude":"20.96666700","longitude":"-89.53333300","name":"Techoho"},{"id":"1655738","latitude":"20.28333300","longitude":"-89.40000000","name":"Techoh"},{"id":"1655754","latitude":"20.75000000","longitude":"-89.46666700","name":"Tecoh"},{"id":"1655928","latitude":"20.83333300","longitude":"-89.96666700","name":"Tedzidz"},{"id":"1655932","latitude":"20.20000000","longitude":"-88.95000000","name":"Tehdziu"},{"id":"1655991","latitude":"21.41666700","longitude":"-87.83333300","name":"Tejas"},{"id":"1656025","latitude":"21.01666700","longitude":"-88.95000000","name":"Tekal de Venegas"},{"id":"1656026","latitude":"21.01666700","longitude":"-88.95000000","name":"Tekal"},{"id":"1656027","latitude":"21.01666700","longitude":"-89.10000000","name":"Tekanto"},{"id":"1656028","latitude":"21.10000000","longitude":"-89.46666700","name":"Tekat"},{"id":"1656029","latitude":"20.20000000","longitude":"-89.28333300","name":"Tekax de \ufffdlvaro Obreg\ufffdn"},{"id":"1656030","latitude":"20.20000000","longitude":"-89.28333300","name":"Tekax"},{"id":"1656031","latitude":"20.78333300","longitude":"-89.63333300","name":"Tekikteil"},{"id":"1656032","latitude":"20.78333300","longitude":"-89.45000000","name":"Tekik"},{"id":"1656033","latitude":"20.81250000","longitude":"-89.56250000","name":"Tekil de Regil"},{"id":"1656034","latitude":"20.53333300","longitude":"-89.33333300","name":"Tekit"},{"id":"1656035","latitude":"20.13333300","longitude":"-88.88333300","name":"Tekom"},{"id":"1656041","latitude":"20.36666700","longitude":"-88.56666700","name":"Tela"},{"id":"1656044","latitude":"21.35000000","longitude":"-89.26666700","name":"Telchac Puerto"},{"id":"1656045","latitude":"21.20000000","longitude":"-89.26666700","name":"Telchac"},{"id":"1656046","latitude":"20.63333300","longitude":"-89.46666700","name":"Telchaquillo"},{"id":"1656078","latitude":"21.13333300","longitude":"-89.63333300","name":"Temanche"},{"id":"1656101","latitude":"21.31666700","longitude":"-87.96666700","name":"Temaxax"},{"id":"1656112","latitude":"21.15000000","longitude":"-88.93333300","name":"Temax"},{"id":"1656117","latitude":"20.66666700","longitude":"-89.65000000","name":"Temazon"},{"id":"1656155","latitude":"20.66666700","longitude":"-89.65000000","name":"Temos\ufffdn"},{"id":"1656160","latitude":"20.66666700","longitude":"-89.65000000","name":"Temozon Sur"},{"id":"1656161","latitude":"20.80000000","longitude":"-88.21666700","name":"Temoz\ufffdn"},{"id":"1656307","latitude":"21.06666700","longitude":"-89.60000000","name":"Tenozon"},{"id":"1656397","latitude":"20.50000000","longitude":"-89.66666700","name":"Tepacan"},{"id":"1656410","latitude":"21.05000000","longitude":"-89.05000000","name":"Tepak\ufffdn"},{"id":"1656525","latitude":"21.05000000","longitude":"-89.05000000","name":"Tepekan"},{"id":"1656651","latitude":"21.56666700","longitude":"-88.40000000","name":"Tepichbalan"},{"id":"1656653","latitude":"20.86666700","longitude":"-89.15000000","name":"Tepich"},{"id":"1656867","latitude":"20.83333300","longitude":"-89.61666700","name":"Tesip"},{"id":"1656870","latitude":"20.70000000","longitude":"-88.08333300","name":"Tesoco"},{"id":"1656879","latitude":"20.51666700","longitude":"-89.63333300","name":"Teso"},{"id":"1656954","latitude":"20.96666700","longitude":"-89.93333300","name":"Tetiz"},{"id":"1656992","latitude":"20.88333300","longitude":"-89.51666700","name":"Teuitz"},{"id":"1657008","latitude":"20.93750000","longitude":"-89.83333300","name":"Texan de Palomeque"},{"id":"1657009","latitude":"20.78333300","longitude":"-89.66666700","name":"Texan"},{"id":"1657076","latitude":"20.56666700","longitude":"-89.85000000","name":"Teya"},{"id":"1657124","latitude":"20.88333300","longitude":"-89.60000000","name":"Thadzibichen"},{"id":"1657127","latitude":"21.03333300","longitude":"-88.93333300","name":"Thohokuh"},{"id":"1657128","latitude":"21.03333300","longitude":"-88.93333300","name":"Thohok\ufffd"},{"id":"1657129","latitude":"21.03333300","longitude":"-88.93333300","name":"Thoholuh"},{"id":"1657130","latitude":"21.13333300","longitude":"-89.45000000","name":"Thoo"},{"id":"1657131","latitude":"20.06666700","longitude":"-89.11666700","name":"Thul"},{"id":"1657151","latitude":"20.63333300","longitude":"-88.85000000","name":"Tibol\ufffdn"},{"id":"1657159","latitude":"20.86666700","longitude":"-89.70000000","name":"Tichcax"},{"id":"1657160","latitude":"20.58333300","longitude":"-88.55000000","name":"Ticimul"},{"id":"1657161","latitude":"20.40000000","longitude":"-89.35000000","name":"Ticipal"},{"id":"1657163","latitude":"20.88333300","longitude":"-89.45000000","name":"Ticop\ufffd"},{"id":"1657167","latitude":"20.68333300","longitude":"-88.11666700","name":"Ticuch"},{"id":"1657170","latitude":"20.40000000","longitude":"-89.53333300","name":"Ticul"},{"id":"1657172","latitude":"20.15000000","longitude":"-89.21666700","name":"Ticum"},{"id":"1657173","latitude":"21.30000000","longitude":"-88.96666700","name":"Ticupo"},{"id":"1657304","latitude":"20.33333300","longitude":"-88.70000000","name":"Tiholop"},{"id":"1657319","latitude":"20.68333300","longitude":"-88.11666700","name":"Tikuch"},{"id":"1657354","latitude":"20.81666700","longitude":"-89.51666700","name":"Timucay"},{"id":"1657355","latitude":"20.81666700","longitude":"-89.51666700","name":"Timucuy"},{"id":"1657356","latitude":"21.18333300","longitude":"-89.40000000","name":"Timul"},{"id":"1657429","latitude":"21.18333300","longitude":"-89.40000000","name":"Tinmul"},{"id":"1657435","latitude":"20.26666700","longitude":"-88.66666700","name":"Tinum"},{"id":"1657436","latitude":"20.27083300","longitude":"-88.68750000","name":"Tinuncah"},{"id":"1657438","latitude":"20.26666700","longitude":"-88.66666700","name":"Tin\ufffdn"},{"id":"1657451","latitude":"20.40000000","longitude":"-89.35000000","name":"Tipical"},{"id":"1657452","latitude":"20.40000000","longitude":"-89.35000000","name":"Tipikal"},{"id":"1657477","latitude":"21.15000000","longitude":"-88.15000000","name":"Titzimin"},{"id":"1657480","latitude":"21.08333300","longitude":"-88.51666700","name":"Tixbaca"},{"id":"1657481","latitude":"21.08333300","longitude":"-88.51666700","name":"Tixbakab"},{"id":"1657482","latitude":"20.53333300","longitude":"-88.26666700","name":"Tixcacalcupul"},{"id":"1657484","latitude":"20.64166700","longitude":"-89.12500000","name":"Tixcacal  Quintero"},{"id":"1657486","latitude":"20.75000000","longitude":"-89.18333300","name":"Tixcacal"},{"id":"1657487","latitude":"20.48333300","longitude":"-88.91666700","name":"Tixcacaltuy\ufffd"},{"id":"1657488","latitude":"21.03333300","longitude":"-87.85000000","name":"Tixcancab"},{"id":"1657489","latitude":"21.03333300","longitude":"-87.85000000","name":"Tixcancal"},{"id":"1657490","latitude":"20.18333300","longitude":"-89.20000000","name":"Tixcuitum"},{"id":"1657491","latitude":"20.18333300","longitude":"-89.20000000","name":"Tixcuitun"},{"id":"1657492","latitude":"21.06666700","longitude":"-89.40000000","name":"Tixcuncheil"},{"id":"1657493","latitude":"20.18333300","longitude":"-89.20000000","name":"Tixcuyt\ufffdn"},{"id":"1657495","latitude":"20.11666700","longitude":"-88.11666700","name":"Tixhualahtun"},{"id":"1657496","latitude":"20.18333300","longitude":"-88.88333300","name":"Tixhualatun"},{"id":"1657497","latitude":"20.16666700","longitude":"-89.11666700","name":"Tiximeuac"},{"id":"1657499","latitude":"21.01666700","longitude":"-89.07916700","name":"Tixkochoh"},{"id":"1657500","latitude":"21.00000000","longitude":"-89.40000000","name":"Tixkokob"},{"id":"1657501","latitude":"21.06666700","longitude":"-89.40000000","name":"Tixkuncheil"},{"id":"1657502","latitude":"20.76666700","longitude":"-89.95000000","name":"Tixmac"},{"id":"1657505","latitude":"20.16666700","longitude":"-89.11666700","name":"Tixmenac"},{"id":"1657506","latitude":"20.16666700","longitude":"-89.11666700","name":"Tixmeuac"},{"id":"1657508","latitude":"20.81666700","longitude":"-89.51666700","name":"Tixmucuy"},{"id":"1657510","latitude":"20.81666700","longitude":"-89.93333300","name":"Tixnuc"},{"id":"1657511","latitude":"20.98333300","longitude":"-89.51666700","name":"Tixpehual"},{"id":"1657512","latitude":"20.98333300","longitude":"-89.51666700","name":"Tixp\ufffdual"},{"id":"1657513","latitude":"20.98333300","longitude":"-89.51666700","name":"Tixpheual"},{"id":"1657519","latitude":"20.18333300","longitude":"-88.88333300","name":"Tixualahtun"},{"id":"1657520","latitude":"20.18333300","longitude":"-88.88333300","name":"Tixualatun"},{"id":"1657538","latitude":"21.15000000","longitude":"-88.15000000","name":"Tizim\ufffdn"},{"id":"1657974","latitude":"20.81666700","longitude":"-89.88333300","name":"Tocilch\ufffdn"},{"id":"1657996","latitude":"20.65000000","longitude":"-88.46666700","name":"Tohopk\ufffd"},{"id":"1658081","latitude":"20.56666700","longitude":"-90.06666700","name":"Tomay"},{"id":"1658143","latitude":"21.14166700","longitude":"-89.45000000","name":"Too"},{"id":"1658266","latitude":"21.11666700","longitude":"-88.98333300","name":"Torres"},{"id":"1658397","latitude":"20.91666700","longitude":"-89.53333300","name":"Toya"},{"id":"1658431","latitude":"21.01666700","longitude":"-87.75416700","name":"Trascorral"},{"id":"1658517","latitude":"21.20000000","longitude":"-87.65972200","name":"Tres Mar\ufffdas"},{"id":"1658678","latitude":"20.81666700","longitude":"-89.88333300","name":"Tucilchen"},{"id":"1658679","latitude":"21.03333300","longitude":"-88.56666700","name":"Tucina"},{"id":"1658680","latitude":"21.03333300","longitude":"-88.56666700","name":"Tucino"},{"id":"1658806","latitude":"20.90000000","longitude":"-88.75000000","name":"Tunk\ufffds"},{"id":"1658854","latitude":"21.03333300","longitude":"-88.56250000","name":"Tuxin\ufffd"},{"id":"1658905","latitude":"20.75000000","longitude":"-89.65000000","name":"Tzacata"},{"id":"1658913","latitude":"20.80000000","longitude":"-88.88333300","name":"Tzalam"},{"id":"1658914","latitude":"20.80000000","longitude":"-88.88333300","name":"Tzalm"},{"id":"1658915","latitude":"20.86666700","longitude":"-88.23333300","name":"Tzam\ufffd"},{"id":"1658918","latitude":"20.65000000","longitude":"-89.30000000","name":"Tzecuzama"},{"id":"1658919","latitude":"21.20000000","longitude":"-89.30000000","name":"Tzemul"},{"id":"1658927","latitude":"21.40000000","longitude":"-88.88333300","name":"Tzilam de Bravo"},{"id":"1658928","latitude":"21.28333300","longitude":"-88.93333300","name":"Tzilam Gonz\ufffdlez"},{"id":"1658942","latitude":"21.16666700","longitude":"-88.40000000","name":"Tzise"},{"id":"1658943","latitude":"20.85000000","longitude":"-88.51666700","name":"Tzitas"},{"id":"1658945","latitude":"21.25000000","longitude":"-89.05000000","name":"Tzitzant\ufffdn"},{"id":"1658946","latitude":"21.01666700","longitude":"-88.25000000","name":"Tzitzil\ufffd"},{"id":"1658947","latitude":"21.15000000","longitude":"-89.68333300","name":"Tzitzilch\ufffd"},{"id":"1658949","latitude":"21.30000000","longitude":"-88.33333300","name":"Tzitzya"},