[{"id":"1661917","latitude":"6.41666670","longitude":"99.83333330","name":"Air Hangat"},{"id":"1661919","latitude":"6.23333330","longitude":"100.25000000","name":"Air Hitam"},{"id":"1661934","latitude":"6.08333330","longitude":"100.43333330","name":"Aloi Lubok"},{"id":"1661935","latitude":"6.03333330","longitude":"100.46666670","name":"Alor Bungga Sena"},{"id":"1661938","latitude":"6.16666670","longitude":"100.30000000","name":"Alor Janggus"},{"id":"1661943","latitude":"6.08333330","longitude":"100.43333330","name":"Alor Lubok"},{"id":"1661944","latitude":"6.15000000","longitude":"100.36666670","name":"Alor Merah"},{"id":"1661946","latitude":"6.08333330","longitude":"100.46666670","name":"Alor Pak Ngah"},{"id":"1661948","latitude":"6.28333330","longitude":"100.20000000","name":"Alor Pulai"},{"id":"1661950","latitude":"6.11666670","longitude":"100.36666670","name":"Alor Setar"},{"id":"1661951","latitude":"6.11666670","longitude":"100.36666670","name":"Alor Star"},{"id":"1661953","latitude":"6.11666670","longitude":"100.36666670","name":"Alostar"},{"id":"1661955","latitude":"6.15000000","longitude":"100.36666670","name":"Alur Merah"},{"id":"1661957","latitude":"6.11666670","longitude":"100.36666670","name":"Alur Setar"},{"id":"1662000","latitude":"6.33333330","longitude":"100.33333330","name":"Asun"},{"id":"1662013","latitude":"6.41666670","longitude":"99.83333330","name":"Ayer Hangat"},{"id":"1662015","latitude":"6.23333330","longitude":"100.25000000","name":"Ayer Hitam"},{"id":"1662023","latitude":"5.75000000","longitude":"100.38333330","name":"Ayer Keliling"},{"id":"1662024","latitude":"5.75000000","longitude":"100.38333330","name":"Ayer Kelining"},{"id":"1662034","latitude":"5.18333330","longitude":"100.60000000","name":"Ayer Puteh"},{"id":"1662049","latitude":"6.48333330","longitude":"100.56666670","name":"Badak"},{"id":"1662122","latitude":"5.66666670","longitude":"100.36666670","name":"Bakar Arang"},{"id":"1662136","latitude":"5.96666670","longitude":"100.38333330","name":"Bakong"},{"id":"1662156","latitude":"5.66666670","longitude":"100.91666670","name":"Baling"},{"id":"1662164","latitude":"5.13333330","longitude":"100.50000000","name":"Bandar Baharu"},{"id":"1662165","latitude":"5.13333330","longitude":"100.50000000","name":"Bandar Bahru"},{"id":"1662167","latitude":"5.13333330","longitude":"100.50000000","name":"Bandar Bharu"},{"id":"1662254","latitude":"5.60000000","longitude":"100.66666670","name":"Batu Dua"},{"id":"1662308","latitude":"5.58333330","longitude":"100.73333330","name":"Batu Tujoh"},{"id":"1662326","latitude":"5.73333330","longitude":"100.51666670","name":"Bedong"},{"id":"1662329","latitude":"5.73333330","longitude":"100.51666670","name":"Bedung"},{"id":"1662391","latitude":"5.83333330","longitude":"100.43333330","name":"Berguling"},{"id":"1662452","latitude":"5.70000000","longitude":"100.91666670","name":"Bongor"},{"id":"1662491","latitude":"5.90000000","longitude":"100.46666670","name":"Bukij Jenun"},{"id":"1662500","latitude":"5.61666670","longitude":"100.36666670","name":"Bukit Berangan"},{"id":"1662501","latitude":"5.95000000","longitude":"100.41666670","name":"Bukit Besar"},{"id":"1662509","latitude":"5.30000000","longitude":"100.63333330","name":"Bukit Gajah Lawan"},{"id":"1662517","latitude":"6.40000000","longitude":"100.53333330","name":"Bukit Kachi"},{"id":"1662518","latitude":"6.40000000","longitude":"100.53333330","name":"Bukit Kaci"},{"id":"1662520","latitude":"6.50000000","longitude":"100.41666670","name":"Bukit Kayu Hitam"},{"id":"1662540","latitude":"5.68333330","longitude":"100.63333330","name":"Bukit Selambau"},{"id":"1662541","latitude":"5.68333330","longitude":"100.63333330","name":"Bukit Selambu"},{"id":"1662595","latitude":"6.43333330","longitude":"100.43333330","name":"Canglun"},{"id":"1662624","latitude":"6.43333330","longitude":"100.43333330","name":"Changlun"},{"id":"1662640","latitude":"5.73333330","longitude":"100.36666670","name":"Cherok Tok Mat Ali"},{"id":"1662643","latitude":"5.73333330","longitude":"100.36666670","name":"Chetok Tok Mat Ali"},{"id":"1662706","latitude":"5.95000000","longitude":"100.53333330","name":"Dong Dang"},{"id":"1662728","latitude":"5.81666670","longitude":"100.48333330","name":"Dusun Dan"},{"id":"1662735","latitude":"5.78333330","longitude":"100.38333330","name":"Dusun Kapas"},{"id":"1662739","latitude":"5.85000000","longitude":"100.63333330","name":"Dusun Mambang"},{"id":"1662740","latitude":"5.85000000","longitude":"100.63333330","name":"Dusun Mambong"},{"id":"1662743","latitude":"5.91666670","longitude":"100.65000000","name":"Dusun Pengapit"},{"id":"1662891","latitude":"5.86666670","longitude":"100.46666670","name":"Guar Chempedak"},{"id":"1662894","latitude":"5.65000000","longitude":"100.70000000","name":"Gua Tinggi"},{"id":"1662912","latitude":"5.81666670","longitude":"100.48333330","name":"Gurun"},{"id":"1662927","latitude":"6.43333330","longitude":"99.80000000","name":"Huma"},{"id":"1663002","latitude":"5.81666670","longitude":"100.63333330","name":"Jeniang"},{"id":"1663005","latitude":"5.90000000","longitude":"100.46666670","name":"Jenun"},{"id":"1663022","latitude":"6.26666670","longitude":"100.41666670","name":"Jitra"},{"id":"1663042","latitude":"5.30000000","longitude":"100.53333330","name":"Junjong"},{"id":"1663043","latitude":"5.30000000","longitude":"100.53333330","name":"Junjung"},{"id":"1663045","latitude":"5.90000000","longitude":"100.46666670","name":"Junun"},{"id":"1663122","latitude":"6.25000000","longitude":"100.48333330","name":"Kampong Agun"},{"id":"1663130","latitude":"6.10000000","longitude":"100.35000000","name":"Kampong Akor Peluru"},{"id":"1663137","latitude":"6.03333330","longitude":"100.46666670","name":"Kampong Alor Ali"},{"id":"1663139","latitude":"6.08333330","longitude":"100.45000000","name":"Kampong Alor Asam Jawa"},{"id":"1663145","latitude":"6.13333330","longitude":"100.35000000","name":"Kampong Alor Bekong"},{"id":"1663146","latitude":"6.06666670","longitude":"100.40000000","name":"Kampong Alor Belat"},{"id":"1663147","latitude":"5.70000000","longitude":"100.43333330","name":"Kampong Alor Bemban"},{"id":"1663148","latitude":"5.98333330","longitude":"100.41666670","name":"Kampong Alor Besar"},{"id":"1663149","latitude":"6.21666670","longitude":"100.36666670","name":"Kampong Alor Biak"},{"id":"1663150","latitude":"6.05000000","longitude":"100.48333330","name":"Kampong Alor Biawak"},{"id":"1663151","latitude":"6.06666670","longitude":"100.45000000","name":"Kampong Alor Binjal"},{"id":"1663153","latitude":"6.08333330","longitude":"100.48333330","name":"Kampong Alor China"},{"id":"1663158","latitude":"6.20000000","longitude":"100.38333330","name":"Kampong Alor Ganu"},{"id":"1663160","latitude":"5.93333330","longitude":"100.40000000","name":"Kampong Alor Gelenggang"},{"id":"1663162","latitude":"6.18333330","longitude":"100.35000000","name":"Kampong Alor Gunchar"},{"id":"1663164","latitude":"6.06666670","longitude":"100.33333330","name":"Kampong Alor Ibus"},{"id":"1663165","latitude":"5.58333330","longitude":"100.38333330","name":"Kampong Alor Jawi"},{"id":"1663171","latitude":"6.13333330","longitude":"100.43333330","name":"Kampong Alor Keladi"},{"id":"1663174","latitude":"6.05000000","longitude":"100.45000000","name":"Kampong Alor Kemeling"},{"id":"1663180","latitude":"6.18333330","longitude":"100.36666670","name":"Kampong Alor Madi"},{"id":"1663181","latitude":"6.13333330","longitude":"100.36666670","name":"Kampong Alor Malai"},{"id":"1663184","latitude":"6.10000000","longitude":"100.41666670","name":"Kampong Alor Melintang"},{"id":"1663185","latitude":"6.11666670","longitude":"100.38333330","name":"Kampong Alor Melong"},{"id":"1663186","latitude":"6.05000000","longitude":"100.46666670","name":"Kampong Alor Mengkuang"},{"id":"1663187","latitude":"6.16666670","longitude":"100.38333330","name":"Kampong Alor Merah"},{"id":"1663188","latitude":"5.95000000","longitude":"100.45000000","name":"Kampong Alor Nan"},{"id":"1663189","latitude":"5.96666670","longitude":"100.36666670","name":"Kampong Alor Nibong"},{"id":"1663191","latitude":"5.98333330","longitude":"100.46666670","name":"Kampong Alor Parit"},{"id":"1663194","latitude":"6.08333330","longitude":"100.40000000","name":"Kampong Alor Penyengat"},{"id":"1663195","latitude":"6.03333330","longitude":"100.48333330","name":"Kampong Alor Pering"},{"id":"1663197","latitude":"5.96666670","longitude":"100.38333330","name":"Kampong Alor Pudak"},{"id":"1663198","latitude":"6.01666670","longitude":"100.33333330","name":"Kampong Alor Pulai"},{"id":"1663200","latitude":"6.13333330","longitude":"100.45000000","name":"Kampong Alor Rela"},{"id":"1663201","latitude":"6.16666670","longitude":"100.45000000","name":"Kampong Alor Saga"},{"id":"1663202","latitude":"6.13333330","longitude":"100.40000000","name":"Kampong Alor Segamat"},{"id":"1663204","latitude":"6.11666670","longitude":"100.41666670","name":"Kampong Alor Semala"},{"id":"1663207","latitude":"6.18333330","longitude":"100.38333330","name":"Kampong Alor Senjaya"},{"id":"1663208","latitude":"5.98333330","longitude":"100.38333330","name":"Kampong Alor Serdang"},{"id":"1663209","latitude":"6.16666670","longitude":"100.43333330","name":"Kampong Alor Setol"},{"id":"1663213","latitude":"5.96666670","longitude":"100.35000000","name":"Kampong Alor Tok Ha"},{"id":"1663216","latitude":"6.00000000","longitude":"100.41666670","name":"Kampong Alor Tok Ya"},{"id":"1663222","latitude":"5.65000000","longitude":"100.78333330","name":"Kampong Ambing"},{"id":"1663243","latitude":"6.18333330","longitude":"100.38333330","name":"Kampong Anak Bukit"},{"id":"1663245","latitude":"6.20000000","longitude":"100.25000000","name":"Kampong Anak Jerlun"},{"id":"1663248","latitude":"5.88333330","longitude":"100.75000000","name":"Kampong An Chiong"},{"id":"1663292","latitude":"5.98333330","longitude":"100.53333330","name":"Kampong Asam Jawa"},{"id":"1663294","latitude":"5.11666670","longitude":"100.51666670","name":"Kampong Asam Kumbang"},{"id":"1663297","latitude":"5.68333330","longitude":"100.81666670","name":"Kampong Assam Jawa"},{"id":"1663300","latitude":"6.31666670","longitude":"100.41666670","name":"Kampong Asun"},{"id":"1663338","latitude":"6.41666670","longitude":"99.83333330","name":"Kampong Ayer Hangat"},{"id":"1663349","latitude":"5.58333330","longitude":"100.38333330","name":"Kampong Ayer Jawi"},{"id":"1663371","latitude":"5.35000000","longitude":"100.53333330","name":"Kampong Ayer Merah"},{"id":"1663387","latitude":"5.18333330","longitude":"100.60000000","name":"Kampong Ayer Puteh"},{"id":"1663403","latitude":"5.65000000","longitude":"100.65000000","name":"Kampong Ayer Terjun"},{"id":"1663424","latitude":"5.83333330","longitude":"100.41666670","name":"Kampong Badak"},{"id":"1663430","latitude":"5.45000000","longitude":"100.73333330","name":"Kampong Badang"},{"id":"1663433","latitude":"5.73333330","longitude":"100.38333330","name":"Kampong Badong"},{"id":"1663439","latitude":"5.68333330","longitude":"100.36666670","name":"Kampong Bagan Asam"},{"id":"1663445","latitude":"5.26666670","longitude":"100.71666670","name":"Kampong Bagan Jermai"},{"id":"1663448","latitude":"6.26666670","longitude":"100.35000000","name":"Kampong Bagan"},{"id":"1663458","latitude":"5.08333330","longitude":"100.56666670","name":"Kampong Bagan Samak"},{"id":"1663459","latitude":"5.53333330","longitude":"100.68333330","name":"Kampong Bagan Sena"},{"id":"1663464","latitude":"5.66666670","longitude":"100.36666670","name":"Kampong Bagan Ulu"},{"id":"1663477","latitude":"6.41666670","longitude":"100.38333330","name":"Kampong Baharu Che Harun"},{"id":"1663485","latitude":"5.78333330","longitude":"100.90000000","name":"Kampong Baharu"},{"id":"1663509","latitude":"6.23333330","longitude":"100.58333330","name":"Kampong Baharu Pokok Machang"},{"id":"1663516","latitude":"6.30000000","longitude":"100.43333330","name":"Kampong Bahna"},{"id":"1663529","latitude":"5.53333330","longitude":"100.73333330","name":"Kampong Bakai"},{"id":"1663532","latitude":"6.25000000","longitude":"100.23333330","name":"Kampong Bakan"},{"id":"1663536","latitude":"5.66666670","longitude":"100.36666670","name":"Kampong Bakar Arang"},{"id":"1663538","latitude":"5.70000000","longitude":"100.91666670","name":"Kampong Bakar Bata"},{"id":"1663542","latitude":"5.36666670","longitude":"100.56666670","name":"Kampong Bakar Sampah Baharu"},{"id":"1663545","latitude":"6.25000000","longitude":"100.23333330","name":"Kampong Bakau"},{"id":"1663566","latitude":"5.18333330","longitude":"100.56666670","name":"Kampong Balai Lama"},{"id":"1663573","latitude":"6.06666670","longitude":"100.50000000","name":"Kampong Balek Bukit"},{"id":"1663576","latitude":"6.11666670","longitude":"100.40000000","name":"Kampong Balek Hutan"},{"id":"1663586","latitude":"5.90000000","longitude":"100.53333330","name":"Kampong Baloh"},{"id":"1663590","latitude":"5.85000000","longitude":"100.75000000","name":"Kampong Balong Ayam"},{"id":"1663601","latitude":"6.23333330","longitude":"100.45000000","name":"Kampong Banai"},{"id":"1663607","latitude":"5.76666670","longitude":"100.71666670","name":"Kampong Bandar"},{"id":"1663616","latitude":"5.90000000","longitude":"100.68333330","name":"Kampong Banggoi"},{"id":"1663620","latitude":"5.53333330","longitude":"100.70000000","name":"Kampong Banggol Berangan"},{"id":"1663621","latitude":"5.55000000","longitude":"100.55000000","name":"Kampong Banggol Besi"},{"id":"1663622","latitude":"5.31666670","longitude":"100.75000000","name":"Kampong Banggol Binjai"},{"id":"1663628","latitude":"6.00000000","longitude":"100.85000000","name":"Kampong Banggol Damar Batu"},{"id":"1663629","latitude":"5.61666670","longitude":"100.73333330","name":"Kampong Banggol Damar"},{"id":"1663631","latitude":"5.26666670","longitude":"100.73333330","name":"Kampong Banggol Durian"},{"id":"1663639","latitude":"5.70000000","longitude":"100.93333330","name":"Kampong Banggol"},{"id":"1663651","latitude":"5.85000000","longitude":"100.46666670","name":"Kampong Banggol Lalang"},{"id":"1663652","latitude":"5.71666670","longitude":"100.90000000","name":"Kampong Banggol Lebai"},{"id":"1663653","latitude":"5.71666670","longitude":"100.90000000","name":"Kampong Banggol Leban"},{"id":"1663667","latitude":"5.51666670","longitude":"100.71666670","name":"Kampong Banggol Onggok"},{"id":"1663677","latitude":"5.70000000","longitude":"100.95000000","name":"Kampong Banggol Pompong"},{"id":"1663678","latitude":"5.21666670","longitude":"100.68333330","name":"Kampong Banggol Rashid"},{"id":"1663680","latitude":"5.86666670","longitude":"100.48333330","name":"Kampong Banggol Sawa"},{"id":"1663682","latitude":"5.71666670","longitude":"100.91666670","name":"Kampong Banggol Sentol"},{"id":"1663683","latitude":"6.05000000","longitude":"100.55000000","name":"Kampong Banggol Sentul"},{"id":"1663684","latitude":"6.08333330","longitude":"100.48333330","name":"Kampong Banggol Senu"},{"id":"1663691","latitude":"5.81666670","longitude":"100.73333330","name":"Kampong Banggol Tambak"},{"id":"1663692","latitude":"6.05000000","longitude":"100.53333330","name":"Kampong Banggol Temak"},{"id":"1663695","latitude":"5.88333330","longitude":"100.50000000","name":"Kampong Banggol Tengah"},{"id":"1663696","latitude":"6.05000000","longitude":"100.46666670","name":"Kampong Banggol Terus"},{"id":"1663700","latitude":"5.78333330","longitude":"100.70000000","name":"Kampong Banggor To Dong"},{"id":"1663704","latitude":"5.31666670","longitude":"101.76666670","name":"Kampong Banggul Binjal"},{"id":"1663722","latitude":"5.41666670","longitude":"100.66666670","name":"Kampong Bangul Penyengat"},{"id":"1663759","latitude":"5.58333330","longitude":"100.38333330","name":"Kampong Baru"},{"id":"1663772","latitude":"6.28333330","longitude":"100.43333330","name":"Kampong Bata"},{"id":"1663802","latitude":"5.90000000","longitude":"100.65000000","name":"Kampong Batas Keling"},{"id":"1663803","latitude":"6.11666670","longitude":"100.33333330","name":"Kampong Batin"},{"id":"1663809","latitude":"5.35000000","longitude":"100.60000000","name":"Kampong Batu Ampac"},{"id":"1663813","latitude":"6.31666670","longitude":"100.26666670","name":"Kampong Batu Ampat Sanglang"},{"id":"1663819","latitude":"5.63333330","longitude":"100.65000000","name":"Kampong Batu Belachan"},{"id":"1663827","latitude":"5.73333330","longitude":"100.71666670","name":"Kampong Batu Besar"},{"id":"1663830","latitude":"5.70000000","longitude":"100.91666670","name":"Kampong Batu Bungor"},{"id":"1663836","latitude":"5.60000000","longitude":"100.70000000","name":"Kampong Batu Dua"},{"id":"1663869","latitude":"5.20000000","longitude":"100.58333330","name":"Kampong Batu Hampar"},{"id":"1663882","latitude":"5.81666670","longitude":"100.50000000","name":"Kampong Batu"},{"id":"1663918","latitude":"5.20000000","longitude":"100.65000000","name":"Kampong Batu Lintang"},{"id":"1663928","latitude":"5.98333330","longitude":"100.46666670","name":"Kampong Batu Menunggol"},{"id":"1663940","latitude":"5.45000000","longitude":"100.63333330","name":"Kampong Batu Puteh"},{"id":"1663956","latitude":"5.96666670","longitude":"100.80000000","name":"Kampong Batu Seketul"},{"id":"1663973","latitude":"5.58333330","longitude":"100.73333330","name":"Kampong Batu Tujoh"},{"id":"1663978","latitude":"6.05000000","longitude":"100.76666670","name":"Kampong Batu Tungku"},{"id":"1663982","latitude":"5.55000000","longitude":"100.88333330","name":"Kampong Baubak"},{"id":"1663987","latitude":"5.68333330","longitude":"100.91666670","name":"Kampong Bawah Gunong"},{"id":"1664011","latitude":"5.80000000","longitude":"100.75000000","name":"Kampong Bechah Pa' Baharu"},{"id":"1664018","latitude":"5.76666670","longitude":"100.91666670","name":"Kampong Bechah Tualang"},{"id":"1664023","latitude":"6.43333330","longitude":"100.41666670","name":"Kampong Bedang Baharu"},{"id":"1664033","latitude":"5.81666670","longitude":"100.65000000","name":"Kampong Begia"},{"id":"1664052","latitude":"5.16666670","longitude":"100.55000000","name":"Kampong Belakang Pekan"},{"id":"1664061","latitude":"5.71666670","longitude":"100.40000000","name":"Kampong Belau"},{"id":"1664072","latitude":"5.65000000","longitude":"100.66666670","name":"Kampong Belida"},{"id":"1664074","latitude":"5.83333330","longitude":"100.80000000","name":"Kampong Belimbing"},{"id":"1664090","latitude":"6.15000000","longitude":"100.58333330","name":"Kampong Belukar Jambu"},{"id":"1664093","latitude":"5.76666670","longitude":"100.70000000","name":"Kampong Belukar"},{"id":"1664097","latitude":"6.18333330","longitude":"100.70000000","name":"Kampong Belukar Luag"},{"id":"1664109","latitude":"6.33333330","longitude":"100.40000000","name":"Kampong Bemban"},{"id":"1664116","latitude":"5.80000000","longitude":"100.90000000","name":"Kampong Benchah Sawa"},{"id":"1664117","latitude":"5.76666670","longitude":"100.91666670","name":"Kampong Benchah Tualang"},{"id":"1664118","latitude":"5.76666670","longitude":"100.91666670","name":"Kampong Benchah Tulang"},{"id":"1664121","latitude":"5.70000000","longitude":"100.41666670","name":"Kampong Bendang Dalam"},{"id":"1664122","latitude":"6.46666670","longitude":"100.48333330","name":"Kampong Bendang Dan"},{"id":"1664123","latitude":"5.73333330","longitude":"100.90000000","name":"Kampong Bendang Darat"},{"id":"1664125","latitude":"6.13333330","longitude":"100.46666670","name":"Kampong Bendang Kabu"},{"id":"1664126","latitude":"6.16666670","longitude":"100.46666670","name":"Kampong Bendang"},{"id":"1664133","latitude":"5.85000000","longitude":"100.80000000","name":"Kampong Bendang Man"},{"id":"1664137","latitude":"5.58333330","longitude":"100.86666670","name":"Kampong Bendang Padang"},{"id":"1664139","latitude":"5.83333330","longitude":"100.76666670","name":"Kampong Bendang Penyengat"},{"id":"1664140","latitude":"6.16666670","longitude":"100.46666670","name":"Kampong Bendang Perang"},{"id":"1664141","latitude":"5.91666670","longitude":"100.58333330","name":"Kampong Bendang Pulai"},{"id":"1664143","latitude":"5.28333330","longitude":"100.63333330","name":"Kampong Bendang Sara"},{"id":"1664145","latitude":"6.43333330","longitude":"100.43333330","name":"Kampong Bendang Tok Leh"},{"id":"1664146","latitude":"6.15000000","longitude":"100.68333330","name":"Kampong Bendang Tok Teri"},{"id":"1664155","latitude":"5.61666670","longitude":"100.75000000","name":"Kampong Benjoi"},{"id":"1664165","latitude":"6.03333330","longitude":"100.38333330","name":"Kampong Benua"},{"id":"1664180","latitude":"5.78333330","longitude":"100.90000000","name":"Kampong Berangan"},{"id":"1664187","latitude":"5.58333330","longitude":"100.43333330","name":"Kampong Berapit"},{"id":"1664197","latitude":"5.95000000","longitude":"100.35000000","name":"Kampong Berhala Bangka"},{"id":"1664238","latitude":"5.83333330","longitude":"100.61666670","name":"Kampong Beruna"},{"id":"1664242","latitude":"5.61666670","longitude":"100.75000000","name":"Kampong Besah"},{"id":"1664243","latitude":"5.16666670","longitude":"100.55000000","name":"Kampong Besar"},{"id":"1664244","latitude":"6.21666670","longitude":"100.30000000","name":"Kampong Besar"},{"id":"1664261","latitude":"5.95000000","longitude":"100.68333330","name":"Kampong Betong"},{"id":"1664276","latitude":"6.28333330","longitude":"100.43333330","name":"Kampong Biak"},{"id":"1664285","latitude":"5.48333330","longitude":"100.70000000","name":"Kampong Bikan"},{"id":"1664305","latitude":"5.30000000","longitude":"100.55000000","name":"Kampong Binjal"},{"id":"1664307","latitude":"5.58333330","longitude":"100.73333330","name":"Kampong Binjoi"},{"id":"1664308","latitude":"5.58333330","longitude":"100.73333330","name":"Kampong Binjoi Luar"},{"id":"1664343","latitude":"6.15000000","longitude":"100.58333330","name":"Kampong Blukar Jambu"},{"id":"1664346","latitude":"5.76666670","longitude":"100.70000000","name":"Kampong Blukar"},{"id":"1664348","latitude":"6.18333330","longitude":"100.70000000","name":"Kampong Blukar Luag"},{"id":"1664356","latitude":"6.21666670","longitude":"100.38333330","name":"Kampong Bohor"},{"id":"1664358","latitude":"6.21666670","longitude":"100.28333330","name":"Kampong Bohor Karang"},{"id":"1664361","latitude":"5.55000000","longitude":"100.88333330","name":"Kampong Bok Bak"},{"id":"1664362","latitude":"6.05000000","longitude":"100.43333330","name":"Kampong Bokbok"},{"id":"1664372","latitude":"5.80000000","longitude":"100.51666670","name":"Kampong Bongkok"},{"id":"1664379","latitude":"5.70000000","longitude":"100.91666670","name":"Kampong Bongor Tiga"},{"id":"1664396","latitude":"5.78333330","longitude":"100.90000000","name":"Kampong Brangan"},{"id":"1664425","latitude":"5.96666670","longitude":"100.53333330","name":"Kampong Budi"},{"id":"1664436","latitude":"5.68333330","longitude":"100.43333330","name":"Kampong Bujang"},{"id":"1664439","latitude":"5.83333330","longitude":"100.78333330","name":"Kampong Bukik"},{"id":"1664445","latitude":"5.13333330","longitude":"100.60000000","name":"Kampong Bukit Aping"},{"id":"1664449","latitude":"5.36666670","longitude":"100.55000000","name":"Kampong Bukit Awi"},{"id":"1664474","latitude":"5.61666670","longitude":"100.36666670","name":"Kampong Bukit Berangan"},{"id":"1664479","latitude":"5.31666670","longitude":"100.75000000","name":"Kampong Bukit Bertam"},{"id":"1664481","latitude":"6.11666670","longitude":"100.58333330","name":"Kampong Bukit Bertikam"},{"id":"1664485","latitude":"6.33333330","longitude":"100.45000000","name":"Kampong Bukit Beruas"},{"id":"1664492","latitude":"6.33333330","longitude":"100.45000000","name":"Kampong Bukit Bruas"},{"id":"1664493","latitude":"6.03333330","longitude":"100.51666670","name":"Kampong Bukit Bubus"},{"id":"1664494","latitude":"5.60000000","longitude":"100.75000000","name":"Kampong Bukit Buloh"},{"id":"1664498","latitude":"5.88333330","longitude":"100.63333330","name":"Kampong Bukit Cham"},{"id":"1664507","latitude":"5.51666670","longitude":"100.70000000","name":"Kampong Bukit Chempedak"},{"id":"1664509","latitude":"5.95000000","longitude":"100.45000000","name":"Kampong Bukit Chepat"},{"id":"1664513","latitude":"6.16666670","longitude":"100.45000000","name":"Kampong Bukit Cheriak"},{"id":"1664518","latitude":"5.96666670","longitude":"100.41666670","name":"Kampong Bukit Choras"},{"id":"1664544","latitude":"5.88333330","longitude":"100.70000000","name":"Kampong Bukit Hangus"},{"id":"1664546","latitude":"6.20000000","longitude":"100.48333330","name":"Kampong Bukit Hijau"},{"id":"1664548","latitude":"5.65000000","longitude":"100.80000000","name":"Kampong Bukit Hitam"},{"id":"1664549","latitude":"5.56666670","longitude":"100.86666670","name":"Kampong Bukit Iboi"},{"id":"1664552","latitude":"5.95000000","longitude":"100.46666670","name":"Kampong Bukit Jambul"},{"id":"1664561","latitude":"5.33333330","longitude":"100.76666670","name":"Kampong Bukit Kabu"},{"id":"1664564","latitude":"5.65000000","longitude":"100.65000000","name":"Kampong Bukit"},{"id":"1664574","latitude":"5.73333330","longitude":"100.46666670","name":"Kampong Bukit Karong"},{"id":"1664578","latitude":"5.63333330","longitude":"100.35000000","name":"Kampong Bukit Kechik"},{"id":"1664596","latitude":"5.83333330","longitude":"100.90000000","name":"Kampong Bukit Ketip"},{"id":"1664603","latitude":"5.31666670","longitude":"100.76666670","name":"Kampong Bukit Kubor"},{"id":"1664615","latitude":"6.03333330","longitude":"100.53333330","name":"Kampong Bukit Lanjut"},{"id":"1664632","latitude":"5.63333330","longitude":"100.36666670","name":"Kampong Bukit Meriam"},{"id":"1664634","latitude":"5.81666670","longitude":"100.63333330","name":"Kampong Bukit Minyak"},{"id":"1664636","latitude":"5.20000000","longitude":"100.60000000","name":"Kampong Bukit Mirah"},{"id":"1664645","latitude":"5.63333330","longitude":"100.70000000","name":"Kampong Bukit Pak Kuning"},{"id":"1664653","latitude":"6.03333330","longitude":"100.55000000","name":"Kampong Bukit Patong"},{"id":"1664655","latitude":"5.73333330","longitude":"100.90000000","name":"Kampong Bukit Payong"},{"id":"1664661","latitude":"5.66666670","longitude":"100.36666670","name":"Kampong Bukit Penjara"},{"id":"1664674","latitude":"5.93333330","longitude":"100.45000000","name":"Kampong Bukit Pinang"},{"id":"1664682","latitude":"6.01666670","longitude":"100.45000000","name":"Kampong Bukit Raya"},{"id":"1664690","latitude":"6.08333330","longitude":"100.50000000","name":"Kampong Bukit Sekech"},{"id":"1664693","latitude":"5.98333330","longitude":"100.56666670","name":"Kampong Bukit Semeliang"},{"id":"1664697","latitude":"6.00000000","longitude":"100.45000000","name":"Kampong Bukit Seni"},{"id":"1664716","latitude":"5.93333330","longitude":"100.58333330","name":"Kampong Bukit Tegor"},{"id":"1664720","latitude":"6.21666670","longitude":"100.55000000","name":"Kampong Bukit Tembaga"},{"id":"1664726","latitude":"5.63333330","longitude":"100.65000000","name":"Kampong Bukit Terabak"},{"id":"1664727","latitude":"6.20000000","longitude":"100.43333330","name":"Kampong Bukit Tinggi"},{"id":"1664735","latitude":"5.80000000","longitude":"100.40000000","name":"Kampong Bukit Tumboh"},{"id":"1664757","latitude":"5.40000000","longitude":"100.75000000","name":"Kampong Buloh"},{"id":"1664762","latitude":"5.98333330","longitude":"100.40000000","name":"Kampong Buloh Lima"},{"id":"1664793","latitude":"5.83333330","longitude":"100.80000000","name":"Kampong Bunga"},{"id":"1664800","latitude":"5.31666670","longitude":"100.75000000","name":"Kampong Bunggul Brangan"},{"id":"1664806","latitude":"5.70000000","longitude":"100.91666670","name":"Kampong Bungor Tiga"},{"id":"1664811","latitude":"6.38333330","longitude":"100.45000000","name":"Kampong Buntoh"},{"id":"1664867","latitude":"6.43333330","longitude":"100.45000000","name":"Kampong Changhai"},{"id":"1664869","latitude":"6.31666670","longitude":"100.35000000","name":"Kampong Changkat Bacti"},{"id":"1664871","latitude":"6.31666670","longitude":"100.36666670","name":"Kampong Changkat Bakti"},{"id":"1664872","latitude":"6.25000000","longitude":"100.38333330","name":"Kampong Changkat Baya"},{"id":"1664881","latitude":"6.25000000","longitude":"100.38333330","name":"Kampong Changkat"},{"id":"1664894","latitude":"5.98333330","longitude":"100.51666670","name":"Kampong Changkat Nering"},{"id":"1664897","latitude":"6.31666670","longitude":"100.35000000","name":"Kampong Changkat Pak Ubin"},{"id":"1664906","latitude":"6.43333330","longitude":"100.46666670","name":"Kampong Changkat Sentul"},{"id":"1664921","latitude":"5.65000000","longitude":"100.85000000","name":"Kampong Charok Bemban"},{"id":"1664922","latitude":"6.01666670","longitude":"100.53333330","name":"Kampong Charok Bindu"},{"id":"1664923","latitude":"5.78333330","longitude":"100.88333330","name":"Kampong Charok Bunting"},{"id":"1664925","latitude":"5.85000000","longitude":"100.88333330","name":"Kampong Charok Durian"},{"id":"1664926","latitude":"5.71666670","longitude":"100.80000000","name":"Kampong Charok Gorok"},{"id":"1664927","latitude":"5.85000000","longitude":"100.81666670","name":"Kampong Charok Gunong"},{"id":"1664928","latitude":"5.60000000","longitude":"100.88333330","name":"Kampong Charok Kangkar"},{"id":"1664929","latitude":"5.58333330","longitude":"100.85000000","name":"Kampong Charok Kapas"},{"id":"1664930","latitude":"5.98333330","longitude":"100.53333330","name":"Kampong Charok Keladi"},{"id":"1664931","latitude":"5.70000000","longitude":"100.83333330","name":"Kampong Charok Kelian"},{"id":"1664932","latitude":"5.80000000","longitude":"100.73333330","name":"Kampong Charok Kemuning"},{"id":"1664933","latitude":"5.63333330","longitude":"100.80000000","name":"Kampong Charok Kepas"},{"id":"1664934","latitude":"5.83333330","longitude":"100.75000000","name":"Kampong Charok Kit"},{"id":"1664935","latitude":"5.70000000","longitude":"100.83333330","name":"Kampong Charok Klian"},{"id":"1664936","latitude":"5.61666670","longitude":"100.46666670","name":"Kampong Charok Klubi"},{"id":"1664937","latitude":"5.83333330","longitude":"100.75000000","name":"Kampong Charok Kudang"},{"id":"1664938","latitude":"5.61666670","longitude":"100.76666670","name":"Kampong Charok Kudong"},{"id":"1664939","latitude":"5.81666670","longitude":"100.71666670","name":"Kampong Charok Padang"},{"id":"1664940","latitude":"5.75000000","longitude":"100.73333330","name":"Kampong Charok Pasir"},{"id":"1664941","latitude":"5.80000000","longitude":"100.70000000","name":"Kampong Charok Peladok"},{"id":"1664942","latitude":"5.80000000","longitude":"100.70000000","name":"Kampong Charok Pelandok"},{"id":"1664943","latitude":"5.55000000","longitude":"100.91666670","name":"Kampong Charok Pendiat"},{"id":"1664944","latitude":"5.58333330","longitude":"100.90000000","name":"Kampong Charok Petai"},{"id":"1664945","latitude":"5.58333330","longitude":"100.90000000","name":"Kampong Charok Petata"},{"id":"1664946","latitude":"6.03333330","longitude":"100.55000000","name":"Kampong Charok Pinang"},{"id":"1664947","latitude":"5.60000000","longitude":"100.86666670","name":"Kampong Charok Rambai"},{"id":"1664948","latitude":"5.70000000","longitude":"100.76666670","name":"Kampong Charok Saladang"},{"id":"1664949","latitude":"5.70000000","longitude":"100.76666670","name":"Kampong Charok Salang"},{"id":"1664950","latitude":"5.83333330","longitude":"100.88333330","name":"Kampong Charok Semerliang"},{"id":"1664951","latitude":"5.70000000","longitude":"100.81666670","name":"Kampong Charok Sik"},{"id":"1664952","latitude":"5.85000000","longitude":"100.80000000","name":"Kampong Charok Sireh"},{"id":"1664953","latitude":"5.96666670","longitude":"100.80000000","name":"Kampong Charok Tembus"},{"id":"1664968","latitude":"6.25000000","longitude":"100.40000000","name":"Kampong Chegar"},{"id":"1664985","latitude":"5.15000000","longitude":"100.60000000","name":"Kampong Chelong"},{"id":"1664999","latitude":"5.50000000","longitude":"100.70000000","name":"Kampong Chempedak"},{"id":"1665020","latitude":"5.63333330","longitude":"100.83333330","name":"Kampong Chenerai"},{"id":"1665044","latitude":"5.83333330","longitude":"100.78333330","name":"Kampong Chepir"},{"id":"1665045","latitude":"6.11666670","longitude":"100.38333330","name":"Kampong Chepoh"},{"id":"1665076","latitude":"6.36666670","longitude":"100.40000000","name":"Kampong Cherok Makan"},{"id":"1665096","latitude":"6.06666670","longitude":"100.51666670","name":"Kampong Chikong"},{"id":"1665116","latitude":"5.88333330","longitude":"100.75000000","name":"Kampong Chong"},{"id":"1665152","latitude":"6.18333330","longitude":"100.41666670","name":"Kampong Dalam Kota"},{"id":"1665155","latitude":"5.68333330","longitude":"100.90000000","name":"Kampong Dalam Wang"},{"id":"1665184","latitude":"6.13333330","longitude":"100.33333330","name":"Kampong Darat"},{"id":"1665192","latitude":"6.01666670","longitude":"100.35000000","name":"Kampong Darat Sungai Nonang"},{"id":"1665202","latitude":"5.66666670","longitude":"100.88333330","name":"Kampong Datok Haron"},{"id":"1665204","latitude":"5.66666670","longitude":"100.88333330","name":"Kampong Datok"},{"id":"1665208","latitude":"5.68333330","longitude":"100.36666670","name":"Kampong Dawai"},{"id":"1665214","latitude":"5.51666670","longitude":"100.55000000","name":"Kampong Dekeh"},{"id":"1665227","latitude":"6.21666670","longitude":"100.46666670","name":"Kampong Derang"},{"id":"1665229","latitude":"6.11666670","longitude":"100.38333330","name":"Kampong Derga"},{"id":"1665249","latitude":"6.01666670","longitude":"100.43333330","name":"Kampong Dua Puloh"},{"id":"1665250","latitude":"6.03333330","longitude":"100.41666670","name":"Kampong Dua Puloh Relong"},{"id":"1665253","latitude":"5.88333330","longitude":"100.48333330","name":"Kampong Duhit"},{"id":"1665256","latitude":"5.83333330","longitude":"100.38333330","name":"Kampong Dulang Besar"},{"id":"1665257","latitude":"5.85000000","longitude":"100.38333330","name":"Kampong Dulang Kechil"},{"id":"1665275","latitude":"5.18333330","longitude":"100.55000000","name":"Kampong Durian Burong"},{"id":"1665287","latitude":"6.01666670","longitude":"100.53333330","name":"Kampong Durian"},{"id":"1665310","latitude":"5.73333330","longitude":"100.71666670","name":"Kampong Durian Terong"},{"id":"1665318","latitude":"5.73333330","longitude":"100.90000000","name":"Kampong Dusun Gani"},{"id":"1665320","latitude":"5.83333330","longitude":"100.75000000","name":"Kampong Dusun"},{"id":"1665330","latitude":"5.80000000","longitude":"100.38333330","name":"Kampong Dusun Manggis"},{"id":"1665369","latitude":"6.21666670","longitude":"100.25000000","name":"Kampong Enam Kupang"},{"id":"1665388","latitude":"5.65000000","longitude":"100.90000000","name":"Kampong Gabus"},{"id":"1665410","latitude":"5.98333330","longitude":"100.51666670","name":"Kampong Gajah Mati"},{"id":"1665416","latitude":"5.90000000","longitude":"100.63333330","name":"Kampong Gajah Puteh"},{"id":"1665418","latitude":"6.06666670","longitude":"100.56666670","name":"Kampong Ga"},{"id":"1665438","latitude":"6.23333330","longitude":"100.25000000","name":"Kampong Gandai"},{"id":"1665439","latitude":"5.23333330","longitude":"101.21666670","name":"Kampong Gandal Tepi Laut"},{"id":"1665441","latitude":"6.10000000","longitude":"100.38333330","name":"Kampong Ganding"},{"id":"1665480","latitude":"6.21666670","longitude":"100.25000000","name":"Kampong Gedabu"},{"id":"1665493","latitude":"6.11666670","longitude":"100.43333330","name":"Kampong Gelam"},{"id":"1665500","latitude":"6.11666670","longitude":"100.43333330","name":"Kampong Gelam Segompong"},{"id":"1665501","latitude":"6.11666670","longitude":"100.43333330","name":"Kampong Gelam Segumpong"},{"id":"1665518","latitude":"6.05000000","longitude":"100.53333330","name":"Kampong Gelong Gajah"},{"id":"1665521","latitude":"6.30000000","longitude":"100.40000000","name":"Kampong Gelong"},{"id":"1665524","latitude":"6.28333330","longitude":"100.35000000","name":"Kampong Gelong Rambai"},{"id":"1665525","latitude":"5.43333330","longitude":"100.71666670","name":"Kampong Gelugor"},{"id":"1665559","latitude":"6.10000000","longitude":"100.40000000","name":"Kampong Gerigis"},{"id":"1665569","latitude":"5.73333330","longitude":"100.38333330","name":"Kampong Gerting"},{"id":"1665601","latitude":"6.05000000","longitude":"100.53333330","name":"Kampong Glong Gajah"},{"id":"1665612","latitude":"6.30000000","longitude":"100.26666670","name":"Kampong Golok Puting"},{"id":"1665715","latitude":"6.25000000","longitude":"100.31666670","name":"Kampong Gorindam"},{"id":"1665755","latitude":"5.65000000","longitude":"100.85000000","name":"Kampong Gua Raban"},{"id":"1665756","latitude":"5.85000000","longitude":"100.45000000","name":"Kampong Guar Chempedak"},{"id":"1665758","latitude":"5.83333330","longitude":"100.48333330","name":"Kampong Guar Jumaat"},{"id":"1665759","latitude":"6.13333330","longitude":"100.45000000","name":"Kampong Guar"},{"id":"1665760","latitude":"6.01666670","longitude":"100.51666670","name":"Kampong Guar Kepayang"},{"id":"1665762","latitude":"5.53333330","longitude":"100.53333330","name":"Kampong Guar Lobak"},{"id":"1665763","latitude":"5.83333330","longitude":"100.46666670","name":"Kampong Guar Nanas"},{"id":"1665765","latitude":"5.65000000","longitude":"100.70000000","name":"Kampong Gua Tinggi"},{"id":"1665771","latitude":"6.01666670","longitude":"100.81666670","name":"Kampong Gula"},{"id":"1665783","latitude":"6.18333330","longitude":"100.33333330","name":"Kampong Gunong Hilir"},{"id":"1665796","latitude":"6.18333330","longitude":"100.33333330","name":"Kampong Gunong Ulu"},{"id":"1665813","latitude":"6.40000000","longitude":"100.78333330","name":"Kampong Haat Nyei"},{"id":"1665815","latitude":"5.68333330","longitude":"100.91666670","name":"Kampong Haji Abas"},{"id":"1665833","latitude":"5.66666670","longitude":"100.80000000","name":"Kampong Haji Yunus"},{"id":"1665840","latitude":"5.60000000","longitude":"100.85000000","name":"Kampong Hangus"},{"id":"1665844","latitude":"5.71666670","longitude":"100.40000000","name":"Kampong Hilir"},{"id":"1665853","latitude":"6.08333330","longitude":"100.35000000","name":"Kampong Hujong Alor"},{"id":"1665856","latitude":"5.68333330","longitude":"100.36666670","name":"Kampong Huma"},{"id":"1665860","latitude":"6.15000000","longitude":"100.38333330","name":"Kampong Hutam Keriang"},{"id":"1665867","latitude":"5.95000000","longitude":"100.40000000","name":"Kampong Hutan Gelain"},{"id":"1665868","latitude":"5.95000000","longitude":"100.40000000","name":"Kampong Hutan Gelam"},{"id":"1665871","latitude":"6.16666670","longitude":"100.40000000","name":"Kampong Hutan"},{"id":"1665873","latitude":"6.30000000","longitude":"100.40000000","name":"Kampong Hutan Kering"},{"id":"1665880","latitude":"6.08333330","longitude":"100.33333330","name":"Kampong Hutan Putus"},{"id":"1665881","latitude":"6.31666670","longitude":"100.36666670","name":"Kampong Hutan Stali"},{"id":"1665889","latitude":"6.40000000","longitude":"100.31666670","name":"Kampong Ibus"},{"id":"1665897","latitude":"6.33333330","longitude":"100.36666670","name":"Kampong Imam"},{"id":"1665926","latitude":"6.15000000","longitude":"100.46666670","name":"Kampong Jabi"},{"id":"1665939","latitude":"6.26666670","longitude":"100.78333330","name":"Kampong Jahit"},{"id":"1665955","latitude":"5.63333330","longitude":"100.50000000","name":"Kampong Jalan Kerbau"},{"id":"1665973","latitude":"6.31666670","longitude":"100.33333330","name":"Kampong Jambu Ayer"},{"id":"1665989","latitude":"5.43333330","longitude":"100.65000000","name":"Kampong Jangkang"},{"id":"1666013","latitude":"5.56666670","longitude":"100.46666670","name":"Kampong Jawa"},{"id":"1666027","latitude":"6.30000000","longitude":"100.23333330","name":"Kampong Jawi Keluang"},{"id":"1666028","latitude":"5.11666670","longitude":"100.58333330","name":"Kampong Jawi Sempit"},{"id":"1666049","latitude":"6.03333330","longitude":"100.45000000","name":"Kampong Jelai"},{"id":"1666076","latitude":"5.85000000","longitude":"100.78333330","name":"Kampong Jelutong"},{"id":"1666088","latitude":"5.96666670","longitude":"100.35000000","name":"Kampong Jemerlang"},{"id":"1666094","latitude":"6.41666670","longitude":"100.41666670","name":"Kampong Jenalik"},{"id":"1666109","latitude":"5.88333330","longitude":"100.65000000","name":"Kampong Jeneri"},{"id":"1666112","latitude":"5.81666670","longitude":"100.63333330","name":"Kampong Jeniang"},{"id":"1666117","latitude":"6.11666670","longitude":"100.33333330","name":"Kampong Jeragan"},{"id":"1666119","latitude":"5.60000000","longitude":"100.85000000","name":"Kampong Jerai"},{"id":"1666121","latitude":"5.70000000","longitude":"100.91666670","name":"Kampong Jeral"},{"id":"1666125","latitude":"5.93333330","longitude":"100.68333330","name":"Kampong Jeram Buaya"},{"id":"1666129","latitude":"6.28333330","longitude":"100.36666670","name":"Kampong Jeram"},{"id":"1666141","latitude":"5.95000000","longitude":"100.38333330","name":"Kampong Jerang Belanga"},{"id":"1666153","latitude":"5.85000000","longitude":"100.78333330","name":"Kampong Jering"},{"id":"1666160","latitude":"6.21666670","longitude":"100.26666670","name":"Kampong Jerlun"},{"id":"1666167","latitude":"5.60000000","longitude":"100.58333330","name":"Kampong Jerong"},{"id":"1666173","latitude":"6.18333330","longitude":"100.26666670","name":"Kampong Jeruju"},{"id":"1666174","latitude":"6.18333330","longitude":"100.26666670","name":"Kampong Jerulu"},{"id":"1666187","latitude":"5.76666670","longitude":"100.70000000","name":"Kampong Joget"},{"id":"1666204","latitude":"6.15000000","longitude":"100.51666670","name":"Kampong Joo"},{"id":"1666211","latitude":"5.51666670","longitude":"100.68333330","name":"Kampong Jubai"},{"id":"1666242","latitude":"5.90000000","longitude":"100.38333330","name":"Kampong Kabu Sepuloh"},{"id":"1666267","latitude":"5.70000000","longitude":"100.96666670","name":"Kampong Kaki Bukit"},{"id":"1666271","latitude":"5.83333330","longitude":"100.61666670","name":"Kampong Kalai"},{"id":"1666275","latitude":"5.83333330","longitude":"100.61666670","name":"Kampong Kalar"},{"id":"1666279","latitude":"5.76666670","longitude":"100.86666670","name":"Kampong Kalian Dalam"},{"id":"1666310","latitude":"6.38333330","longitude":"100.31666670","name":"Kampong Kandis"},{"id":"1666317","latitude":"5.55000000","longitude":"100.90000000","name":"Kampong Kangar"},{"id":"1666357","latitude":"5.30000000","longitude":"100.70000000","name":"Kampong Kasal"},{"id":"1666398","latitude":"5.43333330","longitude":"100.60000000","name":"Kampong Kebon Tembakau"},{"id":"1666402","latitude":"6.05000000","longitude":"100.36666670","name":"Kampong Kebun Pinang"},{"id":"1666406","latitude":"5.73333330","longitude":"100.36666670","name":"Kampong Kechik"},{"id":"1666409","latitude":"6.10000000","longitude":"100.30000000","name":"Kampong Kedah"},{"id":"1666416","latitude":"5.73333330","longitude":"100.38333330","name":"Kampong Kedai Keling"},{"id":"1666427","latitude":"6.20000000","longitude":"100.50000000","name":"Kampong Kedondong"},{"id":"1666430","latitude":"5.53333330","longitude":"100.70000000","name":"Kampong Kejai"},{"id":"1666441","latitude":"5.38333330","longitude":"100.53333330","name":"Kampong Keladi"},{"id":"1666445","latitude":"5.96666670","longitude":"100.40000000","name":"Kampong Kelang Baharu"},{"id":"1666446","latitude":"5.23333330","longitude":"100.55000000","name":"Kampong Kelang Batu"},{"id":"1666448","latitude":"5.38333330","longitude":"100.56666670","name":"Kampong Kelang Lama"},{"id":"1666449","latitude":"5.36666670","longitude":"100.55000000","name":"Kampong Kelang Sagu"},{"id":"1666450","latitude":"5.83333330","longitude":"100.38333330","name":"Kampong Kelantan"},{"id":"1666465","latitude":"5.61666670","longitude":"100.78333330","name":"Kampong Keledang"},{"id":"1666473","latitude":"5.76666670","longitude":"100.36666670","name":"Kampong Kelewang Jatoh"},{"id":"1666475","latitude":"5.76666670","longitude":"100.86666670","name":"Kampong Kelian Dalam"},{"id":"1666493","latitude":"6.08333330","longitude":"100.41666670","name":"Kampong Kelompang"},{"id":"1666497","latitude":"6.06666670","longitude":"100.46666670","name":"Kampong Kelopak Jantan"},{"id":"1666500","latitude":"5.76666670","longitude":"100.36666670","name":"Kampong Keluang Jatoh"},{"id":"1666503","latitude":"6.25000000","longitude":"100.45000000","name":"Kampong Kelubi"},{"id":"1666518","latitude":"5.56666670","longitude":"100.91666670","name":"Kampong Kemangi"},{"id":"1666536","latitude":"5.55000000","longitude":"100.58333330","name":"Kampong Kemumbong"},{"id":"1666558","latitude":"6.16666670","longitude":"100.63333330","name":"Kampong Kenjeng"},{"id":"1666562","latitude":"6.01666670","longitude":"100.51666670","name":"Kampong Kepala Bendang"},{"id":"1666564","latitude":"6.01666670","longitude":"100.36666670","name":"Kampong Kepala Buaya"},{"id":"1666565","latitude":"5.58333330","longitude":"100.45000000","name":"Kampong Kepala Bukit"},{"id":"1666566","latitude":"6.21666670","longitude":"100.28333330","name":"Kampong Kepala Dua Puloh"},{"id":"1666569","latitude":"5.58333330","longitude":"100.35000000","name":"Kampong Kepala Jalan"},{"id":"1666571","latitude":"6.41666670","longitude":"100.40000000","name":"Kampong Kepala Kerbau"},{"id":"1666572","latitude":"6.03333330","longitude":"100.38333330","name":"Kampong Kepala Parit"},{"id":"1666573","latitude":"6.25000000","longitude":"100.33333330","name":"Kampong Kepala Sapuloh"},{"id":"1666574","latitude":"6.25000000","longitude":"100.33333330","name":"Kampong Kepala Sepulah"},{"id":"1666576","latitude":"6.01666670","longitude":"100.61666670","name":"Kampong Kepala Tido"},{"id":"1666604","latitude":"5.76666670","longitude":"100.71666670","name":"Kampong Kerawai"},{"id":"1666608","latitude":"6.28333330","longitude":"100.20000000","name":"Kampong Kerbau Belaga"},{"id":"1666609","latitude":"5.65000000","longitude":"100.70000000","name":"Kampong Kerchut"},{"id":"1666612","latitude":"6.20000000","longitude":"100.36666670","name":"Kampong Kerengga"},{"id":"1666614","latitude":"6.18333330","longitude":"100.36666670","name":"Kampong Kereta Api"},{"id":"1666616","latitude":"6.13333330","longitude":"100.48333330","name":"Kampong Keriang Manora"},{"id":"1666617","latitude":"6.08333330","longitude":"100.36666670","name":"Kampong Keriang Pulau"},{"id":"1666622","latitude":"6.08333330","longitude":"100.36666670","name":"Kampong Keri Pulau"},{"id":"1666626","latitude":"6.03333330","longitude":"100.51666670","name":"Kampong Kerkau"},{"id":"1666652","latitude":"6.11666670","longitude":"100.33333330","name":"Kampong Ketayap"},{"id":"1666659","latitude":"6.30000000","longitude":"100.35000000","name":"Kampong Ketol"},{"id":"1666660","latitude":"5.61666670","longitude":"100.78333330","name":"Kampong Ketumbar"},{"id":"1666661","latitude":"5.63333330","longitude":"100.80000000","name":"Kampong Ketumbar Masjid"},{"id":"1666682","latitude":"5.65000000","longitude":"100.76666670","name":"Kampong Kijang Chenak"},{"id":"1666683","latitude":"5.65000000","longitude":"100.76666670","name":"Kampong Kijang"},{"id":"1666729","latitude":"5.61666670","longitude":"100.78333330","name":"Kampong Kledang"},{"id":"1666733","latitude":"5.76666670","longitude":"100.86666670","name":"Kampong Klian Dalam"},{"id":"1666741","latitude":"6.10000000","longitude":"100.33333330","name":"Kampong Klong Hoi"},{"id":"1666745","latitude":"5.41666670","longitude":"100.65000000","name":"Kampong Kob"},{"id":"1666748","latitude":"6.38333330","longitude":"100.33333330","name":"Kampong Kodiang"},{"id":"1666749","latitude":"6.38333330","longitude":"100.33333330","name":"Kampong Kodiang Lama"},{"id":"1666776","latitude":"5.91666670","longitude":"100.66666670","name":"Kampong Kolam"},{"id":"1666787","latitude":"5.61666670","longitude":"100.40000000","name":"Kampong Komol"},{"id":"1666802","latitude":"5.58333330","longitude":"100.38333330","name":"Kampong Kota Aur"},{"id":"1666803","latitude":"5.88333330","longitude":"100.63333330","name":"Kampong Kota Bakit"},{"id":"1666804","latitude":"5.88333330","longitude":"100.63333330","name":"Kampong Kota Bukit"},{"id":"1666807","latitude":"5.75000000","longitude":"100.90000000","name":"Kampong Kota"},{"id":"1666817","latitude":"6.13333330","longitude":"100.43333330","name":"Kampong Kota Limbong"},{"id":"1666818","latitude":"6.25000000","longitude":"100.46666670","name":"Kampong Kota Mengkuang"},{"id":"1666823","latitude":"6.21666670","longitude":"100.35000000","name":"Kampong Kota Rentang"},{"id":"1666844","latitude":"6.35000000","longitude":"100.75000000","name":"Kampong Kuak"},{"id":"1666858","latitude":"5.63333330","longitude":"100.66666670","name":"Kampong Kuala Badak"},{"id":"1666868","latitude":"5.98333330","longitude":"100.73333330","name":"Kampong Kuala Beris"},{"id":"1666870","latitude":"5.90000000","longitude":"100.63333330","name":"Kampong Kuala Berok"},{"id":"1666872","latitude":"5.48333330","longitude":"100.70000000","name":"Kampong Kuala Bikan"},{"id":"1666873","latitude":"6.00000000","longitude":"100.73333330","name":"Kampong Kuala Cha"},{"id":"1666880","latitude":"5.25000000","longitude":"100.68333330","name":"Kampong Kuala Dingin"},{"id":"1666892","latitude":"6.28333330","longitude":"100.60000000","name":"Kampong Kuala Janing"},{"id":"1666903","latitude":"6.21666670","longitude":"100.25000000","name":"Kampong Kuala Jerlun"},{"id":"1666904","latitude":"5.56666670","longitude":"100.53333330","name":"Kampong Kuala Jerong"},{"id":"1666911","latitude":"5.81666670","longitude":"100.73333330","name":"Kampong Kuala"},{"id":"1666914","latitude":"6.00000000","longitude":"100.35000000","name":"Kampong Kuala Kangkong"},{"id":"1666923","latitude":"6.10000000","longitude":"100.28333330","name":"Kampong Kuala Kedah"},{"id":"1666929","latitude":"5.66666670","longitude":"100.71666670","name":"Kampong Kuala Kembar"},{"id":"1666941","latitude":"6.25000000","longitude":"100.21666670","name":"Kampong Kuala Kerpan Kechil"},{"id":"1666948","latitude":"5.56666670","longitude":"100.90000000","name":"Kampong Kuala Kuang"},{"id":"1666949","latitude":"5.56666670","longitude":"100.65000000","name":"Kampong Kuala Kuli"},{"id":"1666954","latitude":"5.68333330","longitude":"100.66666670","name":"Kampong Kuala Lesong"},{"id":"1666967","latitude":"5.48333330","longitude":"100.71666670","name":"Kampong Kuala Mempelam"},{"id":"1666972","latitude":"5.60000000","longitude":"100.70000000","name":"Kampong Kuala Merah"},{"id":"1667005","latitude":"5.86666670","longitude":"100.63333330","name":"Kampong Kuala Reman"},{"id":"1667011","latitude":"5.95000000","longitude":"100.51666670","name":"Kampong Kuala Rimau"},{"id":"1667019","latitude":"5.86666670","longitude":"100.38333330","name":"Kampong Kuala Sedaka"},{"id":"1667020","latitude":"5.55000000","longitude":"100.60000000","name":"Kampong Kuala Sedim"},{"id":"1667021","latitude":"5.23333330","longitude":"100.68333330","name":"Kampong Kuala Selama"},{"id":"1667036","latitude":"5.91666670","longitude":"100.36666670","name":"Kampong Kuala Sungai Duan"},{"id":"1667037","latitude":"6.15000000","longitude":"100.31666670","name":"Kampong Kuala Sungai"},{"id":"1667039","latitude":"5.93333330","longitude":"100.68333330","name":"Kampong Kuala Sungai Kerik"},{"id":"1667040","latitude":"5.90000000","longitude":"100.36666670","name":"Kampong Kuala Sungai Limau"},{"id":"1667045","latitude":"5.46666670","longitude":"100.70000000","name":"Kampong Kuala Taib"},{"id":"1667053","latitude":"5.60000000","longitude":"100.76666670","name":"Kampong Kuala Tawar"},{"id":"1667057","latitude":"5.80000000","longitude":"100.68333330","name":"Kampong Kuala Teloi"},{"id":"1667058","latitude":"5.80000000","longitude":"100.68333330","name":"Kampong Kuala Telui"},{"id":"1667060","latitude":"5.90000000","longitude":"100.65000000","name":"Kampong Kuala Temin"},{"id":"1667073","latitude":"5.80000000","longitude":"100.36666670","name":"Kampong Kuala Yan"},{"id":"1667074","latitude":"5.80000000","longitude":"100.36666670","name":"Kampong Kuala Yen"},{"id":"1667078","latitude":"6.11666670","longitude":"100.51666670","name":"Kampong Kuan Buang"},{"id":"1667089","latitude":"6.16666670","longitude":"100.30000000","name":"Kampong Kuar Jawa"},{"id":"1667090","latitude":"6.05000000","longitude":"100.45000000","name":"Kampong Kuar"},{"id":"1667092","latitude":"6.20000000","longitude":"100.28333330","name":"Kampong Kuar Lama"},{"id":"1667098","latitude":"5.98333330","longitude":"100.43333330","name":"Kampong Kubang Anak Gajah"},{"id":"1667106","latitude":"6.20000000","longitude":"100.66666670","name":"Kampong Kubang Bemban"},{"id":"1667113","latitude":"6.26666670","longitude":"100.63333330","name":"Kampong Kubang Besar"},{"id":"1667114","latitude":"6.16666670","longitude":"100.30000000","name":"Kampong Kubang Bongor"},{"id":"1667120","latitude":"5.65000000","longitude":"100.66666670","name":"Kampong Kubang Buk"},{"id":"1667123","latitude":"5.95000000","longitude":"100.36666670","name":"Kampong Kubang Busok"},{"id":"1667125","latitude":"5.96666670","longitude":"100.56666670","name":"Kampong Kubang Chenok"},{"id":"1667127","latitude":"5.83333330","longitude":"100.90000000","name":"Kampong Kubang China"},{"id":"1667130","latitude":"5.98333330","longitude":"100.50000000","name":"Kampong Kubang Deranan"},{"id":"1667132","latitude":"6.45000000","longitude":"100.40000000","name":"Kampong Kubang Eriang"},{"id":"1667139","latitude":"5.61666670","longitude":"100.65000000","name":"Kampong Kubang Hong"},{"id":"1667142","latitude":"5.60000000","longitude":"100.38333330","name":"Kampong Kubang Jambu"},{"id":"1667143","latitude":"6.16666670","longitude":"100.28333330","name":"Kampong Kubang Jawi"},{"id":"1667146","latitude":"5.83333330","longitude":"100.80000000","name":"Kampong Kubang"},{"id":"1667156","latitude":"5.95000000","longitude":"100.46666670","name":"Kampong Kubang Kuar"},{"id":"1667158","latitude":"6.18333330","longitude":"100.43333330","name":"Kampong Kubang Lintah"},{"id":"1667161","latitude":"6.36666670","longitude":"100.35000000","name":"Kampong Kubang Menerong"},{"id":"1667162","latitude":"6.13333330","longitude":"100.28333330","name":"Kampong Kubang Musang"},{"id":"1667163","latitude":"6.20000000","longitude":"100.26666670","name":"Kampong Kubang Nipah"},{"id":"1667169","latitude":"6.13333330","longitude":"100.31666670","name":"Kampong Kubang Panggas"},{"id":"1667170","latitude":"5.65000000","longitude":"100.85000000","name":"Kampong Kubang Panjang"},{"id":"1667174","latitude":"5.91666670","longitude":"100.41666670","name":"Kampong Kubang Pasu"},{"id":"1667176","latitude":"6.13333330","longitude":"100.55000000","name":"Kampong Kubang Paya"},{"id":"1667178","latitude":"6.08333330","longitude":"100.55000000","name":"Kampong Kubang Pisang"},{"id":"1667183","latitude":"6.21666670","longitude":"100.31666670","name":"Kampong Kubang Raja"},{"id":"1667188","latitude":"6.13333330","longitude":"100.30000000","name":"Kampong Kubang Rotan"},{"id":"1667189","latitude":"5.55000000","longitude":"100.55000000","name":"Kampong Kubang Sapi"},{"id":"1667193","latitude":"6.23333330","longitude":"100.28333330","name":"Kampong Kubang Sepat"},{"id":"1667201","latitude":"6.01666670","longitude":"100.51666670","name":"Kampong Kubang Teridih"},{"id":"1667215","latitude":"6.08333330","longitude":"100.55000000","name":"Kampong Kubor Panjang"},{"id":"1667219","latitude":"6.31666670","longitude":"100.81666670","name":"Kampong Kubu Durian"},{"id":"1667223","latitude":"6.26666670","longitude":"100.53333330","name":"Kampong Kubu"},{"id":"1667231","latitude":"5.68333330","longitude":"100.93333330","name":"Kampong Kubu Tanah"},{"id":"1667289","latitude":"6.31666670","longitude":"100.58333330","name":"Kampong Labi"},{"id":"1667301","latitude":"5.50000000","longitude":"100.68333330","name":"Kampong Labu Besar"},{"id":"1667324","latitude":"5.96666670","longitude":"100.50000000","name":"Kampong Lahar Batu"},{"id":"1667325","latitude":"6.05000000","longitude":"100.35000000","name":"Kampong Lahar Buaya"},{"id":"1667326","latitude":"6.05000000","longitude":"100.41666670","name":"Kampong Lahar Budi"},{"id":"1667327","latitude":"6.03333330","longitude":"100.35000000","name":"Kampong Lahar Buloh"},{"id":"1667329","latitude":"6.05000000","longitude":"100.35000000","name":"Kampong Lahar Kabu"},{"id":"1667330","latitude":"5.71666670","longitude":"100.91666670","name":"Kampong Lahar"},{"id":"1667332","latitude":"6.00000000","longitude":"100.38333330","name":"Kampong Lahar Kelambu"},{"id":"1667333","latitude":"6.33333330","longitude":"100.31666670","name":"Kampong Lahar Kemeling"},{"id":"1667336","latitude":"5.61666670","longitude":"100.71666670","name":"Kampong Lahar Parang"},{"id":"1667337","latitude":"6.06666670","longitude":"100.33333330","name":"Kampong Lahar Pumpong"},{"id":"1667351","latitude":"5.80000000","longitude":"100.90000000","name":"Kampong Lalang"},{"id":"1667360","latitude":"6.40000000","longitude":"100.31666670","name":"Kampong Lama"},{"id":"1667372","latitude":"6.43333330","longitude":"100.76666670","name":"Kampong Lam Geh"},{"id":"1667373","latitude":"6.38333330","longitude":"100.78333330","name":"Kampong Lam Hong"},{"id":"1667376","latitude":"6.11666670","longitude":"100.61666670","name":"Kampong Lampan"},{"id":"1667379","latitude":"6.13333330","longitude":"100.31666670","name":"Kampong Lampuyan"},{"id":"1667380","latitude":"6.43333330","longitude":"100.78333330","name":"Kampong Lam Tek Chan"},{"id":"1667381","latitude":"6.28333330","longitude":"100.26666670","name":"Kampong Lana Bulu"},{"id":"1667382","latitude":"5.68333330","longitude":"100.75000000","name":"Kampong Lanai"},{"id":"1667389","latitude":"5.98333330","longitude":"100.86666670","name":"Kampong Landai"},{"id":"1667391","latitude":"5.63333330","longitude":"100.83333330","name":"Kampong Landak"},{"id":"1667399","latitude":"5.68333330","longitude":"100.43333330","name":"Kampong Langgar"},{"id":"1667405","latitude":"5.88333330","longitude":"100.63333330","name":"Kampong Langgol"},{"id":"1667413","latitude":"6.00000000","longitude":"100.43333330","name":"Kampong Lang Merah"},{"id":"1667415","latitude":"6.45000000","longitude":"100.38333330","name":"Kampong Langsat"},{"id":"1667422","latitude":"6.16666670","longitude":"100.48333330","name":"Kampong Lanjut"},{"id":"1667426","latitude":"6.15000000","longitude":"100.48333330","name":"Kampong Lanjut Malau"},{"id":"1667439","latitude":"6.20000000","longitude":"100.55000000","name":"Kampong Larit"},{"id":"1667450","latitude":"5.93333330","longitude":"100.38333330","name":"Kampong Lat Anam"},{"id":"1667451","latitude":"5.61666670","longitude":"100.90000000","name":"Kampong Lata Palong"},{"id":"1667472","latitude":"5.75000000","longitude":"100.51666670","name":"Kampong Lebai Ali"},{"id":"1667473","latitude":"5.73333330","longitude":"100.51666670","name":"Kampong Lebai Ngah"},{"id":"1667474","latitude":"6.18333330","longitude":"100.70000000","name":"Kampong Lebai Saman"},{"id":"1667486","latitude":"5.80000000","longitude":"100.93333330","name":"Kampong Legong"},{"id":"1667492","latitude":"5.63333330","longitude":"100.83333330","name":"Kampong Lela"},{"id":"1667497","latitude":"6.35000000","longitude":"100.43333330","name":"Kampong Lembah"},{"id":"1667518","latitude":"6.20000000","longitude":"100.45000000","name":"Kampong Lengkuas"},{"id":"1667535","latitude":"5.21666670","longitude":"100.60000000","name":"Kampong Leret"},{"id":"1667537","latitude":"5.53333330","longitude":"100.58333330","name":"Kampong Lesong Tujoh"},{"id":"1667555","latitude":"6.01666670","longitude":"100.43333330","name":"Kampong Limabelas Relong"},{"id":"1667579","latitude":"6.13333330","longitude":"100.41666670","name":"Kampong Limbong"},{"id":"1667617","latitude":"5.31666670","longitude":"100.73333330","name":"Kampong Lobak"},{"id":"1667625","latitude":"6.25000000","longitude":"100.28333330","name":"Kampong Lobok Mengkuang"},{"id":"1667646","latitude":"6.10000000","longitude":"100.30000000","name":"Kampong Lorong"},{"id":"1667653","latitude":"5.78333330","longitude":"100.90000000","name":"Kampong Luar"},{"id":"1667660","latitude":"5.76666670","longitude":"100.75000000","name":"Kampong Luboh Besar"},{"id":"1667661","latitude":"5.81666670","longitude":"100.75000000","name":"Kampong Luboh Bidai"},{"id":"1667665","latitude":"6.46666670","longitude":"100.48333330","name":"Kampong Lubok Ara"},{"id":"1667666","latitude":"6.25000000","longitude":"100.26666670","name":"Kampong Lubok Ayer"},{"id":"1667667","latitude":"5.83333330","longitude":"100.88333330","name":"Kampong Lubok Badak"},{"id":"1667674","latitude":"5.66666670","longitude":"100.86666670","name":"Kampong Lubok Batu"},{"id":"1667679","latitude":"5.83333330","longitude":"100.88333330","name":"Kampong Lubok Bayu"},{"id":"1667680","latitude":"5.81666670","longitude":"100.75000000","name":"Kampong Lubok Bedil"},{"id":"1667682","latitude":"5.76666670","longitude":"100.75000000","name":"Kampong Lubok Besar"},{"id":"1667684","latitude":"5.80000000","longitude":"100.36666670","name":"Kampong Lubok Boy"},{"id":"1667697","latitude":"5.81666670","longitude":"100.61666670","name":"Kampong Lubok Gading"},{"id":"1667699","latitude":"5.31666670","longitude":"100.73333330","name":"Kampong Lubok Gajah"},{"id":"1667700","latitude":"6.01666670","longitude":"100.55000000","name":"Kampong Lubok Getah"},{"id":"1667701","latitude":"6.30000000","longitude":"100.21666670","name":"Kampong Lubok Gokgek"},{"id":"1667704","latitude":"6.28333330","longitude":"100.43333330","name":"Kampong Lubok Ipoh"},{"id":"1667708","latitude":"5.63333330","longitude":"100.81666670","name":"Kampong Lubok Kabu"},{"id":"1667710","latitude":"6.30000000","longitude":"100.36666670","name":"Kampong Lubok"},{"id":"1667715","latitude":"5.80000000","longitude":"100.38333330","name":"Kampong Lubok Kasai"},{"id":"1667718","latitude":"6.23333330","longitude":"100.40000000","name":"Kampong Lubok Kawah"},{"id":"1667729","latitude":"5.55000000","longitude":"100.60000000","name":"Kampong Lubok Kiab"},{"id":"1667730","latitude":"5.55000000","longitude":"100.60000000","name":"Kampong Lubok Kiap"},{"id":"1667740","latitude":"6.08333330","longitude":"100.45000000","name":"Kampong Lubok Lunas"},{"id":"1667741","latitude":"5.56666670","longitude":"100.66666670","name":"Kampong Lubok Machang"},{"id":"1667746","latitude":"6.25000000","longitude":"100.28333330","name":"Kampong Lubok Mengkuang"},{"id":"1667747","latitude":"6.23333330","longitude":"100.66666670","name":"Kampong Lubok Merbau"},{"id":"1667764","latitude":"6.13333330","longitude":"100.36666670","name":"Kampong Lubok Peringgi"},{"id":"1667767","latitude":"6.25000000","longitude":"100.23333330","name":"Kampong Lubok Pinang"},{"id":"1667771","latitude":"6.10000000","longitude":"100.40000000","name":"Kampong Lubok Pupok"},{"id":"1667773","latitude":"5.86666670","longitude":"100.55000000","name":"Kampong Lubok Reba"},{"id":"1667775","latitude":"5.55000000","longitude":"100.55000000","name":"Kampong Lubok Saga"},{"id":"1667796","latitude":"6.05000000","longitude":"100.86666670","name":"Kampong Lubok Tok Lebai"},{"id":"1667827","latitude":"5.53333330","longitude":"100.71666670","name":"Kampong Machang Bubok"},{"id":"1667834","latitude":"5.73333330","longitude":"100.51666670","name":"Kampong Machang"},{"id":"1667893","latitude":"6.28333330","longitude":"100.45000000","name":"Kampong Malau"},{"id":"1667895","latitude":"6.35000000","longitude":"100.35000000","name":"Kampong Malele"},{"id":"1667906","latitude":"6.30000000","longitude":"100.40000000","name":"Kampong Mambang"},{"id":"1667937","latitude":"6.28333330","longitude":"100.40000000","name":"Kampong Manggoi"},{"id":"1667938","latitude":"6.01666670","longitude":"100.50000000","name":"Kampong Manggol Besi"},{"id":"1667939","latitude":"6.31666670","longitude":"100.30000000","name":"Kampong Manggol Bongor"},{"id":"1667940","latitude":"5.98333330","longitude":"100.48333330","name":"Kampong Manggol Kambing"},{"id":"1667941","latitude":"5.55000000","longitude":"100.58333330","name":"Kampong Manggol"},{"id":"1667942","latitude":"5.98333330","longitude":"100.48333330","name":"Kampong Manggol Pauh"},{"id":"1667943","latitude":"5.98333330","longitude":"100.46666670","name":"Kampong Manggol Petai"},{"id":"1667944","latitude":"6.31666670","longitude":"100.66666670","name":"Kampong Manggol Setia"},{"id":"1667945","latitude":"5.93333330","longitude":"100.50000000","name":"Kampong Manggol Tambak"},{"id":"1667946","latitude":"5.86666670","longitude":"100.50000000","name":"Kampong Manggol Tok Bidan"},{"id":"1667957","latitude":"6.00000000","longitude":"100.50000000","name":"Kampong Manjapahit"},{"id":"1668007","latitude":"6.41666670","longitude":"100.43333330","name":"Kampong Masiid"},{"id":"1668010","latitude":"5.90000000","longitude":"100.75000000","name":"Kampong Masira"},{"id":"1668015","latitude":"5.86666670","longitude":"100.38333330","name":"Kampong Masjid Jawa"},{"id":"1668017","latitude":"5.18333330","longitude":"100.55000000","name":"Kampong Masjid"},{"id":"1668023","latitude":"6.11666670","longitude":"100.46666670","name":"Kampong Masjid Lama"},{"id":"1668030","latitude":"6.01666670","longitude":"100.40000000","name":"Kampong Masjid Tokai"},{"id":"1668033","latitude":"5.68333330","longitude":"100.91666670","name":"Kampong Mata Ayer"},{"id":"1668041","latitude":"5.58333330","longitude":"100.48333330","name":"Kampong Matang Berangah"},{"id":"1668042","latitude":"5.55000000","longitude":"100.61666670","name":"Kampong Matang Durian"},{"id":"1668047","latitude":"5.11666670","longitude":"100.56666670","name":"Kampong Matang"},{"id":"1668051","latitude":"5.56666670","longitude":"100.48333330","name":"Kampong Matang Kedundong"},{"id":"1668053","latitude":"6.10000000","longitude":"100.50000000","name":"Kampong Matang Limau"},{"id":"1668055","latitude":"5.56666670","longitude":"100.41666670","name":"Kampong Matang Pasir"},{"id":"1668057","latitude":"5.13333330","longitude":"100.58333330","name":"Kampong Matang Simpur"},{"id":"1668058","latitude":"5.60000000","longitude":"100.48333330","name":"Kampong Matang Tok Gedong"},{"id":"1668079","latitude":"5.23333330","longitude":"100.68333330","name":"Kampong Medan"},{"id":"1668080","latitude":"6.33333330","longitude":"100.35000000","name":"Kampong Megat Dewa"},{"id":"1668081","latitude":"6.21666670","longitude":"100.30000000","name":"Kampong Megat Diwa"},{"id":"1668085","latitude":"6.15000000","longitude":"100.46666670","name":"Kampong Mekkee"},{"id":"1668090","latitude":"6.00000000","longitude":"100.83333330","name":"Kampong Melaka"},{"id":"1668121","latitude":"6.18333330","longitude":"100.36666670","name":"Kampong Melintang"},{"id":"1668127","latitude":"5.81666670","longitude":"100.90000000","name":"Kampong Memali"},{"id":"1668132","latitude":"6.13333330","longitude":"100.35000000","name":"Kampong Mempelam"},{"id":"1668164","latitude":"5.65000000","longitude":"100.78333330","name":"Kampong Mengkuang"},{"id":"1668176","latitude":"6.23333330","longitude":"100.48333330","name":"Kampong Menorong"},{"id":"1668227","latitude":"5.78333330","longitude":"100.70000000","name":"Kampong Merbau Kudong"},{"id":"1668234","latitude":"5.71666670","longitude":"100.41666670","name":"Kampong Merbok"},{"id":"1668244","latitude":"6.13333330","longitude":"100.33333330","name":"Kampong Mergong"},{"id":"1668247","latitude":"6.38333330","longitude":"100.33333330","name":"Kampong Meribut"},{"id":"1668297","latitude":"5.36666670","longitude":"100.55000000","name":"Kampong Misjid"},{"id":"1668298","latitude":"6.16666670","longitude":"100.43333330","name":"Kampong Misjid Lama"},{"id":"1668303","latitude":"5.93333330","longitude":"100.55000000","name":"Kampong Mo Kelak"},{"id":"1668357","latitude":"5.90000000","longitude":"100.65000000","name":"Kampong Mus"},{"id":"1668363","latitude":"6.36666670","longitude":"100.43333330","name":"Kampong Nachik"},{"id":"1668365","latitude":"6.21666670","longitude":"100.40000000","name":"Kampong Naga"},{"id":"1668371","latitude":"6.05000000","longitude":"100.55000000","name":"Kampong Naka"},{"id":"1668381","latitude":"6.21666670","longitude":"100.61666670","name":"Kampong Nambuah"},{"id":"1668382","latitude":"5.83333330","longitude":"100.76666670","name":"Kampong Namek"},{"id":"1668383","latitude":"5.95000000","longitude":"100.56666670","name":"Kampong Nam Hok"},{"id":"1668391","latitude":"5.56666670","longitude":"100.41666670","name":"Kampong Nangka"},{"id":"1668401","latitude":"6.36666670","longitude":"100.43333330","name":"Kampong Napoh"},{"id":"1668402","latitude":"6.36666670","longitude":"100.41666670","name":"Kampong Napoh Ulu"},{"id":"1668421","latitude":"6.35000000","longitude":"100.43333330","name":"Kampong Natoi"},{"id":"1668424","latitude":"5.48333330","longitude":"100.55000000","name":"Kampong Nega Lilit"},{"id":"1668435","latitude":"5.70000000","longitude":"100.91666670","name":"Kampong Nering"},{"id":"1668437","latitude":"6.13333330","longitude":"100.51666670","name":"Kampong Nerong"},{"id":"1668464","latitude":"6.35000000","longitude":"100.43333330","name":"Kampong Nongka"},{"id":"1668466","latitude":"6.43333330","longitude":"100.43333330","name":"Kampong Nong Mee"},{"id":"1668525","latitude":"5.50000000","longitude":"100.70000000","name":"Kampong Padang Ah Taw"},{"id":"1668526","latitude":"5.61666670","longitude":"100.73333330","name":"Kampong Padang Badang"},{"id":"1668527","latitude":"6.28333330","longitude":"100.55000000","name":"Kampong Padang Balai"},{"id":"1668531","latitude":"5.93333330","longitude":"100.43333330","name":"Kampong Padang Besar"},{"id":"1668539","latitude":"5.55000000","longitude":"100.55000000","name":"Kampong Padang Buloh"},{"id":"1668541","latitude":"5.81666670","longitude":"100.51666670","name":"Kampong Padang Bungor"},{"id":"1668543","latitude":"5.68333330","longitude":"100.88333330","name":"Kampong Padang Che Mas"},{"id":"1668545","latitude":"5.93333330","longitude":"100.68333330","name":"Kampong Padang Chichak"},{"id":"1668546","latitude":"5.43333330","longitude":"100.58333330","name":"Kampong Padang China"},{"id":"1668547","latitude":"5.56666670","longitude":"100.88333330","name":"Kampong Padang Dan"},{"id":"1668549","latitude":"5.70000000","longitude":"100.65000000","name":"Kampong Padang Dato"},{"id":"1668550","latitude":"6.50000000","longitude":"100.45000000","name":"Kampong Padang Doman"},{"id":"1668553","latitude":"6.21666670","longitude":"100.40000000","name":"Kampong Padang Gelam"},{"id":"1668554","latitude":"6.28333330","longitude":"100.66666670","name":"Kampong Padang Gelangang"},{"id":"1668555","latitude":"6.28333330","longitude":"100.20000000","name":"Kampong Padang Gelanggang"},{"id":"1668556","latitude":"5.61666670","longitude":"100.68333330","name":"Kampong Padang Gesh"},{"id":"1668557","latitude":"6.41666670","longitude":"100.43333330","name":"Kampong Padang Halban"},{"id":"1668558","latitude":"6.21666670","longitude":"100.30000000","name":"Kampong Padang Hang"},{"id":"1668562","latitude":"6.00000000","longitude":"100.36666670","name":"Kampong Padang Jambu"},{"id":"1668564","latitude":"5.30000000","longitude":"100.55000000","name":"Kampong Padang Janggus"},{"id":"1668571","latitude":"5.18333330","longitude":"100.55000000","name":"Kampong Padang"},{"id":"1668582","latitude":"6.50000000","longitude":"100.45000000","name":"Kampong Padang Kaya Liah"},{"id":"1668585","latitude":"6.38333330","longitude":"100.28333330","name":"Kampong Padang Kelang"},{"id":"1668589","latitude":"6.00000000","longitude":"100.58333330","name":"Kampong Padang Kerbau"},{"id":"1668593","latitude":"6.45000000","longitude":"100.40000000","name":"Kampong Padang Keriang"},{"id":"1668598","latitude":"5.38333330","longitude":"100.56666670","name":"Kampong Padang Kulim"},{"id":"1668599","latitude":"6.18333330","longitude":"100.45000000","name":"Kampong Padang Kunyik"},{"id":"1668601","latitude":"6.45000000","longitude":"100.41666670","name":"Kampong Padang Labi"},{"id":"1668603","latitude":"6.16666670","longitude":"100.31666670","name":"Kampong Padang Lalang"},{"id":"1668610","latitude":"6.26666670","longitude":"100.60000000","name":"Kampong Padang Lanjut"},{"id":"1668618","latitude":"5.58333330","longitude":"100.41666670","name":"Kampong Padang Limau"},{"id":"1668620","latitude":"5.91666670","longitude":"100.43333330","name":"Kampong Padang Lumat"},{"id":"1668623","latitude":"5.50000000","longitude":"100.61666670","name":"Kampong Padang Meha"},{"id":"1668624","latitude":"5.55000000","longitude":"100.56666670","name":"Kampong Padang Meligai"},{"id":"1668629","latitude":"6.36666670","longitude":"100.45000000","name":"Kampong Padang Nangka"},{"id":"1668631","latitude":"6.30000000","longitude":"100.35000000","name":"Kampong Padang Nyior"},{"id":"1668635","latitude":"6.30000000","longitude":"100.48333330","name":"Kampong Padang Panjang Hulu"},{"id":"1668636","latitude":"5.93333330","longitude":"100.53333330","name":"Kampong Padang Panjang"},{"id":"1668638","latitude":"6.11666670","longitude":"100.43333330","name":"Kampong Padang Patani"},{"id":"1668640","latitude":"5.48333330","longitude":"100.70000000","name":"Kampong Padang Patong"},{"id":"1668642","latitude":"6.23333330","longitude":"100.40000000","name":"Kampong Padang Pekan"},{"id":"1668643","latitude":"5.31666670","longitude":"100.55000000","name":"Kampong Padang Penyangga"},{"id":"1668644","latitude":"6.13333330","longitude":"100.35000000","name":"Kampong Padang Perak"},{"id":"1668646","latitude":"5.61666670","longitude":"100.70000000","name":"Kampong Padang Pulai"},{"id":"1668647","latitude":"5.91666670","longitude":"100.68333330","name":"Kampong Padang Pulut"},{"id":"1668650","latitude":"6.08333330","longitude":"100.33333330","name":"Kampong Padang Raja"},{"id":"1668656","latitude":"6.33333330","longitude":"100.68333330","name":"Kampong Padang Sanai"},{"id":"1668665","latitude":"5.61666670","longitude":"100.65000000","name":"Kampong Padang Setul"},{"id":"1668668","latitude":"6.35000000","longitude":"100.33333330","name":"Kampong Padang Sira"},{"id":"1668672","latitude":"6.26666670","longitude":"100.61666670","name":"Kampong Padang Taboran"},{"id":"1668675","latitude":"5.36666670","longitude":"100.56666670","name":"Kampong Padang Tembak"},{"id":"1668679","latitude":"5.60000000","longitude":"100.46666670","name":"Kampong Padang Temensu"},{"id":"1668680","latitude":"5.70000000","longitude":"100.91666670","name":"Kampong Padang Temu"},{"id":"1668681","latitude":"6.06666670","longitude":"100.35000000","name":"Kampong Padang Tengah"},{"id":"1668688","latitude":"6.10000000","longitude":"100.43333330","name":"Kampong Padang Terus"},{"id":"1668689","latitude":"5.60000000","longitude":"100.41666670","name":"Kampong Padang Tok Chik"},{"id":"1668690","latitude":"5.71666670","longitude":"100.40000000","name":"Kampong Padang Tok Sura"},{"id":"1668691","latitude":"6.23333330","longitude":"100.25000000","name":"Kampong Padang Tui"},{"id":"1668692","latitude":"5.48333330","longitude":"100.70000000","name":"Kampong Padang Ubi"},{"id":"1668693","latitude":"6.16666670","longitude":"100.43333330","name":"Kampong Padang Wat"},{"id":"1668700","latitude":"6.11666670","longitude":"100.41666670","name":"Kampong Pagar Ayer"},{"id":"1668702","latitude":"5.46666670","longitude":"100.63333330","name":"Kampong Pagar Museh"},{"id":"1668713","latitude":"6.30000000","longitude":"100.43333330","name":"Kampong Pahna"},{"id":"1668718","latitude":"6.23333330","longitude":"100.70000000","name":"Kampong Pajak Emah"},{"id":"1668729","latitude":"5.60000000","longitude":"100.86666670","name":"Kampong Pak Bong"},{"id":"1668731","latitude":"6.36666670","longitude":"100.35000000","name":"Kampong Pak Chik"},{"id":"1668736","latitude":"5.98333330","longitude":"100.38333330","name":"Kampong Pak Jalil"},{"id":"1668769","latitude":"6.05000000","longitude":"100.51666670","name":"Kampong Palas"},{"id":"1668809","latitude":"6.21666670","longitude":"100.51666670","name":"Kampong Panchor"},{"id":"1668815","latitude":"5.71666670","longitude":"100.90000000","name":"Kampong Pandai Saad"},{"id":"1668825","latitude":"5.38333330","longitude":"100.53333330","name":"Kampong Pandok Labu"},{"id":"1668888","latitude":"5.60000000","longitude":"100.61666670","name":"Kampong Pantai Chichak"},{"id":"1668893","latitude":"6.25000000","longitude":"100.43333330","name":"Kampong Pantai Halban"},{"id":"1668894","latitude":"5.53333330","longitude":"100.56666670","name":"Kampong Pantai Idau"},{"id":"1668895","latitude":"6.16666670","longitude":"100.36666670","name":"Kampong Pantai Johor"},{"id":"1668896","latitude":"5.68333330","longitude":"100.91666670","name":"Kampong Pantai"},{"id":"1668901","latitude":"5.68333330","longitude":"100.66666670","name":"Kampong Pantai Kandang"},{"id":"1668950","latitude":"5.90000000","longitude":"100.66666670","name":"Kampong Parit"},{"id":"1668964","latitude":"6.25000000","longitude":"100.40000000","name":"Kampong Parit Lateh"},{"id":"1668965","latitude":"6.25000000","longitude":"100.40000000","name":"Kampong Parit Letah"},{"id":"1668973","latitude":"5.70000000","longitude":"100.73333330","name":"Kampong Parit Panjang"},{"id":"1669037","latitude":"5.11666670","longitude":"100.53333330","name":"Kampong Pasir Hantu"},{"id":"1669045","latitude":"5.71666670","longitude":"100.40000000","name":"Kampong Pasir"},{"id":"1669108","latitude":"5.35000000","longitude":"100.55000000","name":"Kampong Pas Tumpang"},{"id":"1669119","latitude":"5.66666670","longitude":"100.88333330","name":"Kampong Pauh Besar"},{"id":"1669123","latitude":"5.80000000","longitude":"100.38333330","name":"Kampong Pauh"},{"id":"1669134","latitude":"5.90000000","longitude":"100.53333330","name":"Kampong Paya Baloh"},{"id":"1669137","latitude":"5.61666670","longitude":"100.71666670","name":"Kampong Paya Besar"},{"id":"1669145","latitude":"5.25000000","longitude":"100.68333330","name":"Kampong Paya Deras"},{"id":"1669152","latitude":"5.61666670","longitude":"100.35000000","name":"Kampong Paya"},{"id":"1669162","latitude":"6.23333330","longitude":"100.53333330","name":"Kampong Paya Kelubi"},{"id":"1669165","latitude":"5.93333330","longitude":"100.50000000","name":"Kampong Paya Kerchut"},{"id":"1669180","latitude":"6.01666670","longitude":"100.55000000","name":"Kampong Paya Lipai"},{"id":"1669183","latitude":"5.91666670","longitude":"100.53333330","name":"Kampong Paya Mak Isun"},{"id":"1669185","latitude":"5.86666670","longitude":"100.55000000","name":"Kampong Paya Mengkuang"},{"id":"1669194","latitude":"5.96666670","longitude":"100.50000000","name":"Kampong Paya Nidam"},{"id":"1669196","latitude":"5.91666670","longitude":"100.51666670","name":"Kampong Paya Palas"},{"id":"1669206","latitude":"6.03333330","longitude":"100.55000000","name":"Kampong Paya Rawa"},{"id":"1669211","latitude":"5.96666670","longitude":"100.46666670","name":"Kampong Paya Saga"},{"id":"1669214","latitude":"6.00000000","longitude":"100.55000000","name":"Kampong Paya Seleman"},{"id":"1669215","latitude":"5.23333330","longitude":"100.56666670","name":"Kampong Paya Semambu"},{"id":"1669216","latitude":"5.95000000","longitude":"100.46666670","name":"Kampong Paya Sena"},{"id":"1669218","latitude":"5.13333330","longitude":"100.56666670","name":"Kampong Paya Takong"},{"id":"1669220","latitude":"5.70000000","longitude":"100.81666670","name":"Kampong Paya Terendam"},{"id":"1669226","latitude":"5.21666670","longitude":"100.63333330","name":"Kampong Pechah Batu"},{"id":"1669239","latitude":"6.23333330","longitude":"100.71666670","name":"Kampong Pedu"},{"id":"1669240","latitude":"6.10000000","longitude":"100.36666670","name":"Kampong Pegawai"},{"id":"1669273","latitude":"6.15000000","longitude":"100.53333330","name":"Kampong Pelandok"},{"id":"1669288","latitude":"6.11666670","longitude":"100.41666670","name":"Kampong Pelilit"},{"id":"1669294","latitude":"6.21666670","longitude":"100.45000000","name":"Kampong Pelubang"},{"id":"1669315","latitude":"5.98333330","longitude":"100.48333330","name":"Kampong Pendang"},{"id":"1669327","latitude":"6.00000000","longitude":"100.85000000","name":"Kampong Peng Batu"},{"id":"1669328","latitude":"6.25000000","longitude":"100.63333330","name":"Kampong Peng Besar"},{"id":"1669345","latitude":"5.63333330","longitude":"100.40000000","name":"Kampong Pengkalan Batu Lintang"},{"id":"1669350","latitude":"5.68333330","longitude":"100.43333330","name":"Kampong Pengkalan Bujang"},{"id":"1669352","latitude":"5.63333330","longitude":"100.41666670","name":"Kampong Pengkalan Bukit Kechik"},{"id":"1669360","latitude":"6.20000000","longitude":"100.38333330","name":"Kampong Pengkalan Gelong"},{"id":"1669363","latitude":"5.70000000","longitude":"100.40000000","name":"Kampong Pengkalan Kakap"},{"id":"1669371","latitude":"6.08333330","longitude":"100.36666670","name":"Kampong Pengkalan Kundor"},{"id":"1669393","latitude":"6.10000000","longitude":"100.38333330","name":"Kampong Pengkalan Putat"},{"id":"1669395","latitude":"5.90000000","longitude":"100.66666670","name":"Kampong Pengkalan Raja"},{"id":"1669410","latitude":"6.31666670","longitude":"100.60000000","name":"Kampong Pengkalan Tok Puteh"},{"id":"1669416","latitude":"6.28333330","longitude":"100.45000000","name":"Kampong Penia"},{"id":"1669417","latitude":"6.36666670","longitude":"100.80000000","name":"Kampong Peniat"},{"id":"1669457","latitude":"5.96666670","longitude":"100.80000000","name":"Kampong Perangan"},{"id":"1669458","latitude":"5.96666670","longitude":"100.80000000","name":"Kampong Perangin"},{"id":"1669460","latitude":"6.03333330","longitude":"100.80000000","name":"Kampong Perangkap"},{"id":"1669468","latitude":"6.08333330","longitude":"100.38333330","name":"Kampong Perendam Raja"},{"id":"1669472","latitude":"6.06666670","longitude":"100.33333330","name":"Kampong Pergam"},{"id":"1669484","latitude":"5.81666670","longitude":"100.41666670","name":"Kampong Perigi"},{"id":"1669489","latitude":"6.36666670","longitude":"100.33333330","name":"Kampong Perin"},{"id":"1669493","latitude":"5.61666670","longitude":"100.41666670","name":"Kampong Perlis Bukit Kechik"},{"id":"1669494","latitude":"6.03333330","longitude":"100.35000000","name":"Kampong Perlis"},{"id":"1669508","latitude":"5.61666670","longitude":"100.40000000","name":"Kampong Permatang Batu Lintang"},{"id":"1669512","latitude":"5.68333330","longitude":"100.41666670","name":"Kampong Permatang Binjai"},{"id":"1669514","latitude":"6.13333330","longitude":"100.28333330","name":"Kampong Permatang Bogak"},{"id":"1669517","latitude":"6.25000000","longitude":"100.28333330","name":"Kampong Permatang Bonglai Besar"},{"id":"1669518","latitude":"6.25000000","longitude":"100.28333330","name":"Kampong Permatang Bonglai"},{"id":"1669519","latitude":"6.25000000","longitude":"100.26666670","name":"Kampong Permatang Bonglai Kechil"},{"id":"1669520","latitude":"5.98333330","longitude":"100.35000000","name":"Kampong Permatang Bongor"},{"id":"1669522","latitude":"5.63333330","longitude":"100.36666670","name":"Kampong Permatang Bukit Meriam"},{"id":"1669524","latitude":"5.95000000","longitude":"100.36666670","name":"Kampong Permatang Buloh"},{"id":"1669527","latitude":"5.48333330","longitude":"100.55000000","name":"Kampong Permatang Durian"},{"id":"1669532","latitude":"6.25000000","longitude":"100.21666670","name":"Kampong Permatang Haji Man"},{"id":"1669533","latitude":"6.25000000","longitude":"100.25000000","name":"Kampong Permatang Haji Samat"},{"id":"1669534","latitude":"6.01666670","longitude":"100.35000000","name":"Kampong Permatang Ibus"},{"id":"1669537","latitude":"6.16666670","longitude":"100.28333330","name":"Kampong Permatang Kabu"},{"id":"1669539","latitude":"6.18333330","longitude":"100.31666670","name":"Kampong Permatang"},{"id":"1669544","latitude":"5.98333330","longitude":"100.35000000","name":"Kampong Permatang Kangkong"},{"id":"1669546","latitude":"5.58333330","longitude":"100.35000000","name":"Kampong Permatang Katong"},{"id":"1669547","latitude":"5.60000000","longitude":"100.36666670","name":"Kampong Permatang Kechik"},{"id":"1669548","latitude":"5.95000000","longitude":"100.36666670","name":"Kampong Permatang Keling"},{"id":"1669550","latitude":"6.26666670","longitude":"100.23333330","name":"Kampong Permatang Kenaga"},{"id":"1669551","latitude":"6.26666670","longitude":"100.23333330","name":"Kampong Permatang Kenanga"},{"id":"1669553","latitude":"6.28333330","longitude":"100.23333330","name":"Kampong Permatang Kerengga"},{"id":"1669554","latitude":"6.26666670","longitude":"100.31666670","name":"Kampong Permatang Keriang"},{"id":"1669555","latitude":"6.23333330","longitude":"100.31666670","name":"Kampong Permatang Kong"},{"id":"1669558","latitude":"5.60000000","longitude":"100.40000000","name":"Kampong Permatang Langsat"},{"id":"1669559","latitude":"6.21666670","longitude":"100.28333330","name":"Kampong Permatang Lengkinang"},{"id":"1669560","latitude":"6.26666670","longitude":"100.25000000","name":"Kampong Permatang Mahang"},{"id":"1669567","latitude":"6.26666670","longitude":"100.26666670","name":"Kampong Permatang Paku"},{"id":"1669569","latitude":"5.13333330","longitude":"100.51666670","name":"Kampong Permatang Pasir"},{"id":"1669577","latitude":"5.68333330","longitude":"100.41666670","name":"Kampong Permatang Perlis"},{"id":"1669579","latitude":"6.21666670","longitude":"100.33333330","name":"Kampong Permatang Pukang"},{"id":"1669585","latitude":"5.61666670","longitude":"100.36666670","name":"Kampong Permatang Rengan"},{"id":"1669586","latitude":"5.61666670","longitude":"100.36666670","name":"Kampong Permatang Ringan"},{"id":"1669589","latitude":"5.81666670","longitude":"100.38333330","name":"Kampong Permatang Serentang"},{"id":"1669595","latitude":"5.63333330","longitude":"100.36666670","name":"Kampong Permatang Tengah"},{"id":"1669598","latitude":"5.81666670","longitude":"100.40000000","name":"Kampong Permatang Timbul"},{"id":"1669601","latitude":"5.28333330","longitude":"100.53333330","name":"Kampong Permatang Tiong"},{"id":"1669602","latitude":"5.48333330","longitude":"100.55000000","name":"Kampong Permatang Tokdik"},{"id":"1669625","latitude":"5.83333330","longitude":"100.41666670","name":"Kampong Perupok"},{"id":"1669665","latitude":"6.30000000","longitude":"100.45000000","name":"Kampong Pina"},{"id":"1669669","latitude":"5.70000000","longitude":"100.50000000","name":"Kampong Pinang"},{"id":"1669700","latitude":"5.60000000","longitude":"100.85000000","name":"Kampong Pisang"},{"id":"1669721","latitude":"6.30000000","longitude":"100.66666670","name":"Kampong Poga"},{"id":"1669730","latitude":"5.58333330","longitude":"100.46666670","name":"Kampong Pokok Asam"},{"id":"1669731","latitude":"6.05000000","longitude":"100.58333330","name":"Kampong Pokok Assam"},{"id":"1669732","latitude":"5.86666670","longitude":"100.50000000","name":"Kampong Pokok Binjal"},{"id":"1669733","latitude":"5.83333330","longitude":"100.41666670","name":"Kampong Pokok Ipoh"},{"id":"1669735","latitude":"6.08333330","longitude":"100.36666670","name":"Kampong Pokok Lepai"},{"id":"1669736","latitude":"5.66666670","longitude":"100.65000000","name":"Kampong Pokok Machang"},{"id":"1669737","latitude":"6.46666670","longitude":"100.41666670","name":"Kampong Pokok Petai"},{"id":"1669738","latitude":"5.66666670","longitude":"100.91666670","name":"Kampong Pokok Sena"},{"id":"1669739","latitude":"5.88333330","longitude":"100.50000000","name":"Kampong Pokok Tai"},{"id":"1669747","latitude":"5.80000000","longitude":"100.63333330","name":"Kampong Pondok Chemara"},{"id":"1669748","latitude":"5.70000000","longitude":"100.41666670","name":"Kampong Pondok"},{"id":"1669755","latitude":"6.18333330","longitude":"100.61666670","name":"Kampong Pong Manis"},{"id":"1669756","latitude":"6.21666670","longitude":"100.61666670","name":"Kampong Pong Utara"},{"id":"1669771","latitude":"6.08333330","longitude":"100.55000000","name":"Kampong Prok Pom"},{"id":"1669773","latitude":"6.10000000","longitude":"100.58333330","name":"Kampong Prupok"},{"id":"1669778","latitude":"6.35000000","longitude":"100.36666670","name":"Kampong Puchan"},{"id":"1669792","latitude":"5.65000000","longitude":"100.90000000","name":"Kampong Pulai"},{"id":"1669802","latitude":"6.05000000","longitude":"100.81666670","name":"Kampong Pulau Belantik"},{"id":"1669812","latitude":"5.81666670","longitude":"100.48333330","name":"Kampong Pulau Chengai"},{"id":"1669814","latitude":"6.26666670","longitude":"100.33333330","name":"Kampong Pulau Chondong"},{"id":"1669816","latitude":"6.25000000","longitude":"100.40000000","name":"Kampong Pulau Dudor"},{"id":"1669817","latitude":"5.93333330","longitude":"100.43333330","name":"Kampong Pulau Emas"},{"id":"1669823","latitude":"6.26666670","longitude":"100.38333330","name":"Kampong Pulau Kaim"},{"id":"1669826","latitude":"6.16666670","longitude":"100.45000000","name":"Kampong Pulau"},{"id":"1669832","latitude":"6.28333330","longitude":"100.38333330","name":"Kampong Pulau Kechil"},{"id":"1669833","latitude":"6.35000000","longitude":"100.33333330","name":"Kampong Pulau Kekabu"},{"id":"1669838","latitude":"6.10000000","longitude":"100.51666670","name":"Kampong Pulau Keramat"},{"id":"1669841","latitude":"6.28333330","longitude":"100.40000000","name":"Kampong Pulau Ketam"},{"id":"1669851","latitude":"5.96666670","longitude":"100.48333330","name":"Kampong Pulau Machang"},{"id":"1669853","latitude":"6.31666670","longitude":"100.35000000","name":"Kampong Pulau Maharaja Atas"},{"id":"1669856","latitude":"5.98333330","longitude":"100.41666670","name":"Kampong Pulau Man Awang"},{"id":"1669859","latitude":"5.93333330","longitude":"100.43333330","name":"Kampong Pulau Mas"},{"id":"1669867","latitude":"6.35000000","longitude":"100.35000000","name":"Kampong Pulau Nibong"},{"id":"1669868","latitude":"6.28333330","longitude":"100.38333330","name":"Kampong Pulau Nyior"},{"id":"1669871","latitude":"6.33333330","longitude":"100.36666670","name":"Kampong Pulau Pak Musa"},{"id":"1669879","latitude":"6.26666670","longitude":"100.38333330","name":"Kampong Pulau Pisang"},{"id":"1669893","latitude":"5.66666670","longitude":"100.33333330","name":"Kampong Pulau Sayak"},{"id":"1669897","latitude":"5.58333330","longitude":"100.45000000","name":"Kampong Pulau Sepom"},{"id":"1669906","latitude":"5.91666670","longitude":"100.40000000","name":"Kampong Pulau Tembun"},{"id":"1669908","latitude":"5.61666670","longitude":"100.65000000","name":"Kampong Pulau Tengah"},{"id":"1669914","latitude":"6.26666670","longitude":"100.36666670","name":"Kampong Pulau Timbul"},{"id":"1669918","latitude":"5.98333330","longitude":"100.41666670","name":"Kampong Pulau Wan Awang"},{"id":"1669922","latitude":"6.15000000","longitude":"100.36666670","name":"Kampong Pumpong"},{"id":"1669951","latitude":"6.33333330","longitude":"100.36666670","name":"Kampong Putat"},{"id":"1669967","latitude":"5.78333330","longitude":"100.38333330","name":"Kampong Raga"},{"id":"1669976","latitude":"5.08333330","longitude":"100.55000000","name":"Kampong Raja"},{"id":"1669990","latitude":"5.83333330","longitude":"100.78333330","name":"Kampong Rambai"},{"id":"1669997","latitude":"5.61666670","longitude":"100.88333330","name":"Kampong Rambong"},{"id":"1670000","latitude":"6.26666670","longitude":"100.58333330","name":"Kampong Rambutan"},{"id":"1670011","latitude":"6.38333330","longitude":"100.31666670","name":"Kampong Randis"},{"id":"1670031","latitude":"5.58333330","longitude":"100.40000000","name":"Kampong Rantau Panjang"},{"id":"1670057","latitude":"6.43333330","longitude":"100.45000000","name":"Kampong Rawa"},{"id":"1670080","latitude":"5.23333330","longitude":"100.55000000","name":"Kampong Relau"},{"id":"1670121","latitude":"6.26666670","longitude":"100.40000000","name":"Kampong Rimba"},{"id":"1670125","latitude":"5.28333330","longitude":"100.71666670","name":"Kampong Rimba Setali"},{"id":"1670145","latitude":"5.76666670","longitude":"100.36666670","name":"Kampong Ruat"},{"id":"1670157","latitude":"6.28333330","longitude":"100.38333330","name":"Kampong Rumput Minyak"},{"id":"1670178","latitude":"4.61666670","longitude":"100.85000000","name":"Kampong Sadik"},{"id":"1670198","latitude":"6.11666670","longitude":"100.40000000","name":"Kampong Sakan"},{"id":"1670201","latitude":"6.10000000","longitude":"100.45000000","name":"Kampong Salai Badak"},{"id":"1670203","latitude":"5.98333330","longitude":"100.35000000","name":"Kampong Sala Kechil"},{"id":"1670216","latitude":"6.31666670","longitude":"100.40000000","name":"Kampong Salit"},{"id":"1670257","latitude":"6.28333330","longitude":"100.21666670","name":"Kampong Sanglang"},{"id":"1670291","latitude":"6.11666670","longitude":"100.45000000","name":"Kampong Saudagar"},{"id":"1670310","latitude":"5.95000000","longitude":"100.53333330","name":"Kampong Sawa Luar"},{"id":"1670312","latitude":"5.63333330","longitude":"100.73333330","name":"Kampong Sayak"},{"id":"1670323","latitude":"5.56666670","longitude":"100.63333330","name":"Kampong Sebarang"},{"id":"1670332","latitude":"6.00000000","longitude":"100.50000000","name":"Kampong Seberang Alor"},{"id":"1670336","latitude":"6.18333330","longitude":"100.36666670","name":"Kampong Seberang Chegar"},{"id":"1670348","latitude":"5.96666670","longitude":"100.58333330","name":"Kampong Seberang Paya"},{"id":"1670351","latitude":"5.68333330","longitude":"100.91666670","name":"Kampong Seberang Pekan"},{"id":"1670352","latitude":"6.00000000","longitude":"100.48333330","name":"Kampong Seberang Pendang"},{"id":"1670354","latitude":"6.11666670","longitude":"100.35000000","name":"Kampong Seberang Perak"},{"id":"1670356","latitude":"6.15000000","longitude":"100.36666670","name":"Kampong Seberang Pumpong"},{"id":"1670358","latitude":"5.58333330","longitude":"100.38333330","name":"Kampong Seberang Terus"},{"id":"1670360","latitude":"5.56666670","longitude":"100.51666670","name":"Kampong Seberang Tok Soh"},{"id":"1670361","latitude":"5.68333330","longitude":"100.93333330","name":"Kampong Seberang Wat"},{"id":"1670375","latitude":"5.86666670","longitude":"100.38333330","name":"Kampong Sedaka"},{"id":"1670376","latitude":"5.86666670","longitude":"100.36666670","name":"Kampong Sedaka Kechil"},{"id":"1670377","latitude":"5.88333330","longitude":"100.41666670","name":"Kampong Sedaka Tengan"},{"id":"1670385","latitude":"5.40000000","longitude":"100.75000000","name":"Kampong Sedim Number One"},{"id":"1670386","latitude":"5.41666670","longitude":"100.71666670","name":"Kampong Sedim Number Two"},{"id":"1670397","latitude":"5.66666670","longitude":"100.41666670","name":"Kampong Segantang Garam"},{"id":"1670461","latitude":"6.06666670","longitude":"100.31666670","name":"Kampong Selarong Balak"},{"id":"1670462","latitude":"6.01666670","longitude":"100.38333330","name":"Kampong Selarong Batang"},{"id":"1670463","latitude":"5.48333330","longitude":"100.58333330","name":"Kampong Selarong"},{"id":"1670465","latitude":"6.01666670","longitude":"100.36666670","name":"Kampong Selarong Panjang"},{"id":"1670482","latitude":"5.88333330","longitude":"100.41666670","name":"Kampong Selingkoh"},{"id":"1670513","latitude":"6.10000000","longitude":"100.30000000","name":"Kampong Sematang"},{"id":"1670514","latitude":"5.91666670","longitude":"100.36666670","name":"Kampong Sematang Kechil"},{"id":"1670525","latitude":"6.26666670","longitude":"100.60000000","name":"Kampong Semeliang"},{"id":"1670565","latitude":"5.81666670","longitude":"100.73333330","name":"Kampong Sena"},{"id":"1670573","latitude":"6.06666670","longitude":"100.53333330","name":"Kampong Senara"},{"id":"1670593","latitude":"6.00000000","longitude":"100.38333330","name":"Kampong Senggora"},{"id":"1670604","latitude":"5.43333330","longitude":"100.65000000","name":"Kampong Sen Kob"},{"id":"1670614","latitude":"5.58333330","longitude":"100.40000000","name":"Kampong Sentul"},{"id":"1670635","latitude":"5.53333330","longitude":"100.76666670","name":"Kampong Seputeh"},{"id":"1670652","latitude":"6.41666670","longitude":"100.68333330","name":"Kampong Seraya"},{"id":"1670675","latitude":"5.25000000","longitude":"100.66666670","name":"Kampong Seribu Relong"},{"id":"1670706","latitude":"5.60000000","longitude":"100.51666670","name":"Kampong Serukam"},{"id":"1670725","latitude":"5.81666670","longitude":"100.41666670","name":"Kampong Setar"},{"id":"1670742","latitude":"6.23333330","longitude":"100.46666670","name":"Kampong Setol"},{"id":"1670750","latitude":"5.21666670","longitude":"100.60000000","name":"Kampong Setul"},{"id":"1670764","latitude":"5.48333330","longitude":"100.61666670","name":"Kampong Siam"},{"id":"1670777","latitude":"5.53333330","longitude":"100.56666670","name":"Kampong Sidam"},{"id":"1670778","latitude":"5.53333330","longitude":"100.56666670","name":"Kampong Sidam Kanan"},{"id":"1670781","latitude":"5.91666670","longitude":"100.66666670","name":"Kampong Sidu"},{"id":"1670799","latitude":"5.81666670","longitude":"100.75000000","name":"Kampong Sik"},{"id":"1670818","latitude":"5.68333330","longitude":"100.93333330","name":"Kampong Simpang Ampat"},{"id":"1670820","latitude":"5.85000000","longitude":"100.43333330","name":"Kampong Simpang Ampat Teroi"},{"id":"1670827","latitude":"6.18333330","longitude":"100.30000000","name":"Kampong Simpang Empat Kuar"},{"id":"1670830","latitude":"6.26666670","longitude":"100.21666670","name":"Kampong Simpang"},{"id":"1670843","latitude":"5.43333330","longitude":"100.66666670","name":"Kampong Simpang Tiga Jankang"},{"id":"1670847","latitude":"5.38333330","longitude":"100.55000000","name":"Kampong Simpang Tiga Keladi"},{"id":"1670853","latitude":"5.60000000","longitude":"100.41666670","name":"Kampong Simpor Besar"},{"id":"1670854","latitude":"5.58333330","longitude":"100.40000000","name":"Kampong Simpor Kechik"},{"id":"1670869","latitude":"5.73333330","longitude":"100.38333330","name":"Kampong Singkir Genting"},{"id":"1670879","latitude":"5.61666670","longitude":"100.36666670","name":"Kampong Sintok Bugis"},{"id":"1670886","latitude":"5.78333330","longitude":"100.90000000","name":"Kampong Siong"},{"id":"1670890","latitude":"5.28333330","longitude":"100.55000000","name":"Kampong Siputeh"},{"id":"1670891","latitude":"6.36666670","longitude":"100.33333330","name":"Kampong Siputih"},{"id":"1670892","latitude":"5.76666670","longitude":"100.88333330","name":"Kampong Siput"},{"id":"1670896","latitude":"5.28333330","longitude":"100.55000000","name":"Kampong Sira"},{"id":"1670899","latitude":"5.68333330","longitude":"100.85000000","name":"Kampong Sira Ko"},{"id":"1670902","latitude":"6.20000000","longitude":"100.66666670","name":"Kampong Sireh"},{"id":"1670939","latitude":"5.76666670","longitude":"101.73333330","name":"Kampong Sok"},{"id":"1670997","latitude":"5.81666670","longitude":"100.41666670","name":"Kampong Star"},{"id":"1671041","latitude":"6.16666670","longitude":"100.36666670","name":"Kampong Suka Menanti"},{"id":"1671047","latitude":"5.78333330","longitude":"100.38333330","name":"Kampong Sulup"},{"id":"1671061","latitude":"5.68333330","longitude":"100.65000000","name":"Kampong Sungai Anak Ikan"},{"id":"1671066","latitude":"6.45000000","longitude":"100.38333330","name":"Kampong Sungai Atun"},{"id":"1671070","latitude":"5.23333330","longitude":"100.68333330","name":"Kampong Sungai Ayer Hitam"},{"id":"1671074","latitude":"5.40000000","longitude":"100.56666670","name":"Kampong Sungai Badak"},{"id":"1671077","latitude":"6.16666670","longitude":"100.33333330","name":"Kampong Sungai Baharu Tengah"},{"id":"1671078","latitude":"5.80000000","longitude":"100.38333330","name":"Kampong Sungai Bakong"},{"id":"1671085","latitude":"5.68333330","longitude":"100.41666670","name":"Kampong Sungai Baru"},{"id":"1671088","latitude":"5.31666670","longitude":"100.70000000","name":"Kampong Sungai Batu"},{"id":"1671094","latitude":"5.65000000","longitude":"100.43333330","name":"Kampong Sungai Batu Larangan"},{"id":"1671101","latitude":"5.61666670","longitude":"100.68333330","name":"Kampong Sungai Bemban"},{"id":"1671114","latitude":"5.16666670","longitude":"100.55000000","name":"Kampong Sungai Buaya"},{"id":"1671120","latitude":"5.88333330","longitude":"100.38333330","name":"Kampong Sungai Bujar"},