[{"id":"1678475","latitude":"-15.14388890","longitude":"39.70527780","name":"7 de Abril"},{"id":"1678480","latitude":"-14.28777780","longitude":"40.48527780","name":"Abdala"},{"id":"1678487","latitude":"-16.58694440","longitude":"39.53138890","name":"Abel"},{"id":"1678497","latitude":"-14.17694440","longitude":"40.42500000","name":"Abinda"},{"id":"1678501","latitude":"-15.53027780","longitude":"40.38027780","name":"Abreu"},{"id":"1678504","latitude":"-14.61472220","longitude":"40.67861110","name":"Abudala"},{"id":"1678506","latitude":"-14.02888890","longitude":"40.60583330","name":"Abude"},{"id":"1678508","latitude":"-14.46027780","longitude":"40.64472220","name":"Abudo"},{"id":"1678513","latitude":"-15.85000000","longitude":"39.75000000","name":"Ab\ufffdti"},{"id":"1678516","latitude":"-14.65416670","longitude":"39.61500000","name":"Acalavana"},{"id":"1678517","latitude":"-14.94166670","longitude":"40.30527780","name":"Acampamento"},{"id":"1678524","latitude":"-14.85638890","longitude":"40.24222220","name":"Achane"},{"id":"1678533","latitude":"-14.13555560","longitude":"40.09472220","name":"Acua"},{"id":"1678535","latitude":"-15.42444440","longitude":"39.55083330","name":"Acuata"},{"id":"1678543","latitude":"-13.78750000","longitude":"40.36305560","name":"Acupo"},{"id":"1678544","latitude":"-15.16388890","longitude":"39.00694440","name":"Acurr\ufffd"},{"id":"1678548","latitude":"-14.50111110","longitude":"40.69694440","name":"Ad\ufffdmegi"},{"id":"1678552","latitude":"-14.87416670","longitude":"37.36472220","name":"Adelina"},{"id":"1678553","latitude":"-14.40138890","longitude":"40.30805560","name":"Adia"},{"id":"1678555","latitude":"-16.42972220","longitude":"39.56250000","name":"Adibo"},{"id":"1678558","latitude":"-16.41083330","longitude":"39.59555560","name":"Adiuia"},{"id":"1678561","latitude":"-15.15611110","longitude":"39.09638890","name":"Adriano"},{"id":"1678570","latitude":"-15.96666670","longitude":"39.51666670","name":"Afonso"},{"id":"1678580","latitude":"-14.63333330","longitude":"40.75000000","name":"Agi"},{"id":"1678583","latitude":"-15.35277780","longitude":"39.55750000","name":"Agostinho"},{"id":"1678603","latitude":"-14.26944440","longitude":"39.27750000","name":"Aiupa"},{"id":"1678610","latitude":"-15.68277780","longitude":"39.00972220","name":"Alama"},{"id":"1678614","latitude":"-14.86583330","longitude":"38.99694440","name":"Alaneque"},{"id":"1678615","latitude":"-14.45694440","longitude":"39.43611110","name":"Alavalieque"},{"id":"1678616","latitude":"-15.64444440","longitude":"40.16222220","name":"Alave"},{"id":"1678624","latitude":"-14.00694440","longitude":"40.29222220","name":"Alberto"},{"id":"1678628","latitude":"-16.02250000","longitude":"39.38111110","name":"Albinho"},{"id":"1678808","latitude":"-14.98388890","longitude":"39.73750000","name":"Aldeia Ferreira"},{"id":"1678986","latitude":"-15.20111110","longitude":"39.38416670","name":"Aldeia Piedade"},{"id":"1678997","latitude":"-15.09305560","longitude":"39.33027780","name":"Aldeia Silva"},{"id":"1679029","latitude":"-16.14166670","longitude":"39.23361110","name":"Alexandre"},{"id":"1679060","latitude":"-14.89333330","longitude":"37.00305560","name":"Alfredo"},{"id":"1679066","latitude":"-14.77444440","longitude":"37.46750000","name":"Alia"},{"id":"1679070","latitude":"-13.85861110","longitude":"40.33694440","name":"Ali"},{"id":"1679080","latitude":"-15.04472220","longitude":"40.57694440","name":"Alifane"},{"id":"1679085","latitude":"-13.85694440","longitude":"40.29694440","name":"Alifo"},{"id":"1679086","latitude":"-16.12111110","longitude":"39.40166670","name":"Alig\ufffdma"},{"id":"1679089","latitude":"-14.76694440","longitude":"40.82277780","name":"Alimp\ufffdria"},{"id":"1679090","latitude":"-15.90750000","longitude":"39.04361110","name":"Aliparrimo"},{"id":"1679091","latitude":"-15.03333330","longitude":"38.25000000","name":"Alipe"},{"id":"1679092","latitude":"-15.80027780","longitude":"39.56916670","name":"Alipo"},{"id":"1679125","latitude":"-13.91805560","longitude":"39.91388890","name":"Alua"},{"id":"1679128","latitude":"-16.13388890","longitude":"39.14027780","name":"Alumeta"},{"id":"1679129","latitude":"-14.26944440","longitude":"39.27750000","name":"Alupa"},{"id":"1679131","latitude":"-14.81055560","longitude":"40.60416670","name":"Alupo"},{"id":"1679141","latitude":"-14.27694440","longitude":"40.59916670","name":"Amade"},{"id":"1679155","latitude":"-15.47166670","longitude":"39.98250000","name":"Amaro"},{"id":"1679171","latitude":"-14.07027780","longitude":"40.25111110","name":"Amela"},{"id":"1679177","latitude":"-14.40055560","longitude":"40.52666670","name":"Ameto"},{"id":"1679179","latitude":"-14.46583330","longitude":"40.70166670","name":"Amice"},{"id":"1679185","latitude":"-14.25444440","longitude":"40.65388890","name":"Amire"},{"id":"1679187","latitude":"-15.05194440","longitude":"40.38750000","name":"Amisse"},{"id":"1679189","latitude":"-14.63972220","longitude":"37.45583330","name":"Amissi"},{"id":"1679207","latitude":"-14.91888890","longitude":"40.38833330","name":"Ampivine"},{"id":"1679208","latitude":"-14.94777780","longitude":"40.64472220","name":"Ampoense"},{"id":"1679209","latitude":"-14.46888890","longitude":"39.75916670","name":"Ampohe"},{"id":"1679210","latitude":"-14.66861110","longitude":"39.67777780","name":"Ampuaia"},{"id":"1679211","latitude":"-15.09916670","longitude":"40.11000000","name":"Ampuato"},{"id":"1679212","latitude":"-16.79361110","longitude":"39.20388890","name":"Amuda"},{"id":"1679213","latitude":"-15.63083330","longitude":"40.40527780","name":"Amudo"},{"id":"1679219","latitude":"-16.63888890","longitude":"38.99666670","name":"Anacari"},{"id":"1679222","latitude":"-15.96833330","longitude":"39.37000000","name":"Anamaca"},{"id":"1679223","latitude":"-15.06805560","longitude":"37.71944440","name":"Anantapa"},{"id":"1679227","latitude":"-15.17083330","longitude":"38.25722220","name":"Anatule"},{"id":"1679228","latitude":"-15.09611110","longitude":"39.42083330","name":"Anchil"},{"id":"1679229","latitude":"-15.09611110","longitude":"39.42083330","name":"Anchilo"},{"id":"1679232","latitude":"-14.11222220","longitude":"39.43277780","name":"Ancorora"},{"id":"1679257","latitude":"-14.16388890","longitude":"38.43250000","name":"Andr\ufffd"},{"id":"1679265","latitude":"-15.68944440","longitude":"39.03000000","name":"Aneco"},{"id":"1679267","latitude":"-14.70972220","longitude":"40.33861110","name":"Anela"},{"id":"1679269","latitude":"-15.26388890","longitude":"38.32333330","name":"Anemela\ufffda"},{"id":"1679275","latitude":"-16.23250000","longitude":"39.90861110","name":"Angoche"},{"id":"1679283","latitude":"-14.00361110","longitude":"40.13750000","name":"Anhapa"},{"id":"1679285","latitude":"-15.97722220","longitude":"39.48500000","name":"Anigo"},{"id":"1679289","latitude":"-16.32916670","longitude":"39.06861110","name":"Anjinho"},{"id":"1679295","latitude":"-14.97694440","longitude":"37.78083330","name":"An\ufffdnia"},{"id":"1679302","latitude":"-13.95222220","longitude":"40.53250000","name":"Antabo"},{"id":"1679311","latitude":"-15.22472220","longitude":"39.50777780","name":"Antipirra"},{"id":"1679314","latitude":"-14.48500000","longitude":"39.78361110","name":"Ant\ufffda"},{"id":"1679320","latitude":"-14.13027780","longitude":"40.05722220","name":"Ant\ufffdnio"},{"id":"1679325","latitude":"-16.23250000","longitude":"39.90861110","name":"Ant\ufffdnio Enes"},{"id":"1679326","latitude":"-16.23250000","longitude":"39.90861110","name":"Antonio Engs"},{"id":"1679327","latitude":"-16.23250000","longitude":"39.90861110","name":"Antonio Ennes"},{"id":"1679329","latitude":"-13.75750000","longitude":"39.63305560","name":"Ant\ufffdnio Marques"},{"id":"1679340","latitude":"-15.82916670","longitude":"40.10888890","name":"Apac\ufffdri"},{"id":"1679341","latitude":"-14.98055560","longitude":"40.64527780","name":"Apaga Fogo"},{"id":"1679344","latitude":"-15.24388890","longitude":"40.44888890","name":"Apato"},{"id":"1679345","latitude":"-15.07888890","longitude":"40.35638890","name":"Apeca"},{"id":"1679348","latitude":"-14.16833330","longitude":"38.54472220","name":"Aprine"},{"id":"1679352","latitude":"-14.78444440","longitude":"39.96861110","name":"Apurruro"},{"id":"1679353","latitude":"-14.30000000","longitude":"39.00611110","name":"Aputala"},{"id":"1679354","latitude":"-13.88333330","longitude":"40.47055560","name":"Aquia"},{"id":"1679356","latitude":"-14.94888890","longitude":"37.14138890","name":"Aquili\ufffda"},{"id":"1679358","latitude":"-14.12222220","longitude":"40.45555560","name":"Aquino"},{"id":"1679363","latitude":"-16.41916670","longitude":"39.44305560","name":"Arame"},{"id":"1679366","latitude":"-14.58694440","longitude":"37.26361110","name":"Arapela"},{"id":"1679367","latitude":"-15.23305560","longitude":"38.23388890","name":"Ara\ufffdjo"},{"id":"1679377","latitude":"-13.81611110","longitude":"40.58222220","name":"Arire"},{"id":"1679378","latitude":"-14.71750000","longitude":"39.59222220","name":"Aristides"},{"id":"1679385","latitude":"-13.70305560","longitude":"40.54055560","name":"Armaz\ufffdm"},{"id":"1679392","latitude":"-15.11500000","longitude":"37.92722220","name":"Arrapa"},{"id":"1679394","latitude":"-15.12416670","longitude":"40.16472220","name":"Arrie"},{"id":"1679395","latitude":"-15.18111110","longitude":"39.76277780","name":"Arrimue"},{"id":"1679399","latitude":"-14.73638890","longitude":"40.06111110","name":"Arrune"},{"id":"1679400","latitude":"-14.26444440","longitude":"40.10250000","name":"Arrupa"},{"id":"1679401","latitude":"-14.34472220","longitude":"38.29111110","name":"Artur"},{"id":"1679416","latitude":"-13.86250000","longitude":"39.56166670","name":"Assamo"},{"id":"1679419","latitude":"-13.90500000","longitude":"40.26638890","name":"Assane"},{"id":"1679423","latitude":"-15.28555560","longitude":"40.65666670","name":"Assane e Lima"},{"id":"1679426","latitude":"-14.87750000","longitude":"37.02055560","name":"Assarra"},{"id":"1679434","latitude":"-14.57944440","longitude":"37.98666670","name":"Assomane"},{"id":"1679437","latitude":"-14.80361110","longitude":"39.96194440","name":"Assuate"},{"id":"1679438","latitude":"-15.53333330","longitude":"40.44500000","name":"Assuati"},{"id":"1679440","latitude":"-14.34555560","longitude":"40.70638890","name":"Assulia"},{"id":"1679442","latitude":"-15.20972220","longitude":"40.53527780","name":"Assumane"},{"id":"1679445","latitude":"-14.45361110","longitude":"37.88166670","name":"Ata\ufffdce"},{"id":"1679447","latitude":"-16.48805560","longitude":"39.06527780","name":"Atecume"},{"id":"1679450","latitude":"-15.59555560","longitude":"40.20750000","name":"Atibo"},{"id":"1679456","latitude":"-15.10027780","longitude":"40.37250000","name":"Atunane"},{"id":"1679457","latitude":"-14.91305560","longitude":"38.58944440","name":"Atupa"},{"id":"1679462","latitude":"-16.36555560","longitude":"39.75333330","name":"Aube"},{"id":"1679467","latitude":"-15.90805560","longitude":"39.06138890","name":"Augosto"},{"id":"1679468","latitude":"-15.13055560","longitude":"39.17861110","name":"Augusta"},{"id":"1679472","latitude":"-16.48027780","longitude":"39.18277780","name":"Augusto"},{"id":"1679478","latitude":"-15.05888890","longitude":"40.33444440","name":"Auite"},{"id":"1679487","latitude":"-14.76777780","longitude":"39.05638890","name":"Avara"},{"id":"1679489","latitude":"-14.96583330","longitude":"37.36472220","name":"Avarra"},{"id":"1679491","latitude":"-15.02888890","longitude":"37.95166670","name":"Avelino"},{"id":"1679495","latitude":"-15.36055560","longitude":"39.44027780","name":"Azaquela"},{"id":"1679506","latitude":"-14.51444440","longitude":"38.35472220","name":"Bacalhau"},{"id":"1679513","latitude":"-14.13944440","longitude":"40.29250000","name":"Bacela"},{"id":"1679519","latitude":"-15.23138890","longitude":"39.07194440","name":"Bacia"},{"id":"1679520","latitude":"-14.80250000","longitude":"38.63388890","name":"Baciano"},{"id":"1679522","latitude":"-16.33333330","longitude":"39.91666670","name":"Ba\ufffda"},{"id":"1679555","latitude":"-14.81333330","longitude":"40.19222220","name":"Balan\ufffda"},{"id":"1679598","latitude":"-15.87777780","longitude":"39.75083330","name":"Bandeira"},{"id":"1679636","latitude":"-14.93694440","longitude":"40.20388890","name":"Bara"},{"id":"1679641","latitude":"-14.24638890","longitude":"39.00000000","name":"Barata"},{"id":"1679646","latitude":"-15.20000000","longitude":"40.50000000","name":"Barra"},{"id":"1679653","latitude":"-15.02722220","longitude":"40.63444440","name":"Barreto"},{"id":"1679654","latitude":"-14.87361110","longitude":"38.94833330","name":"Barrite"},{"id":"1679655","latitude":"-15.51666670","longitude":"40.51666670","name":"Barroa"},{"id":"1679699","latitude":"-14.14805560","longitude":"40.40111110","name":"Bazilio"},{"id":"1679722","latitude":"-15.02527780","longitude":"40.67500000","name":"Bela Vista"},{"id":"1679727","latitude":"-14.83750000","longitude":"40.09750000","name":"Belmonte"},{"id":"1679771","latitude":"-15.84250000","longitude":"39.51027780","name":"Bernardo"},{"id":"1679776","latitude":"-15.00111110","longitude":"37.35500000","name":"Berruma"},{"id":"1679828","latitude":"-14.97222220","longitude":"38.38583330","name":"Bique"},{"id":"1679835","latitude":"-13.91194440","longitude":"40.27055560","name":"Biribiri"},{"id":"1679891","latitude":"-16.15638890","longitude":"39.83416670","name":"Boila"},{"id":"1679892","latitude":"-14.48666670","longitude":"38.13583330","name":"Bolacha"},{"id":"1679927","latitude":"-14.57472220","longitude":"40.77777780","name":"Bonga"},{"id":"1679973","latitude":"-15.01638890","longitude":"40.62194440","name":"Bra\ufffdmo"},{"id":"1679975","latitude":"-14.00388890","longitude":"40.55138890","name":"Branda"},{"id":"1679984","latitude":"-15.08138890","longitude":"38.26694440","name":"Bruno"},{"id":"1679998","latitude":"-14.16944440","longitude":"38.89472220","name":"Buane"},{"id":"1680038","latitude":"-14.75027780","longitude":"40.69638890","name":"Bulupo"},{"id":"1680051","latitude":"-15.87777780","longitude":"39.11527780","name":"Burla"},{"id":"1680070","latitude":"-14.98055560","longitude":"40.73416670","name":"Cabaceira"},{"id":"1680071","latitude":"-15.00111110","longitude":"40.76611110","name":"Cabaceira Pequena"},{"id":"1680080","latitude":"-14.57500000","longitude":"40.65500000","name":"Cabeceira"},{"id":"1680081","latitude":"-14.57500000","longitude":"40.65500000","name":"Cabeceiro"},{"id":"1680086","latitude":"-13.70750000","longitude":"40.54777780","name":"Cabo Ala\ufffd\ufffd"},{"id":"1680088","latitude":"-13.55861110","longitude":"40.50972220","name":"Cabo Alia"},{"id":"1680089","latitude":"-13.65527780","longitude":"39.93388890","name":"Cabo Ali"},{"id":"1680090","latitude":"-13.77972220","longitude":"40.57194440","name":"Cabo Alicora"},{"id":"1680092","latitude":"-16.75388890","longitude":"39.13972220","name":"Cabo Amisse"},{"id":"1680096","latitude":"-13.58722220","longitude":"40.04027780","name":"Cabo Ant\ufffdnio"},{"id":"1680097","latitude":"-16.60444440","longitude":"39.24472220","name":"Cabo Apacari"},{"id":"1680098","latitude":"-16.68583330","longitude":"39.08000000","name":"Cabo Apacarl"},{"id":"1680099","latitude":"-16.77833330","longitude":"39.13916670","name":"Cabo Assane"},{"id":"1680100","latitude":"-16.54916670","longitude":"39.32305560","name":"Cabo Atipo"},{"id":"1680112","latitude":"-14.87611110","longitude":"39.00888890","name":"Cabo Bomba"},{"id":"1680121","latitude":"-16.59611110","longitude":"39.40000000","name":"Cabo Cairali"},{"id":"1680126","latitude":"-13.79638890","longitude":"40.21916670","name":"Cabo Catahare"},{"id":"1680130","latitude":"-16.64055560","longitude":"39.20388890","name":"Cabo Cavilo"},{"id":"1680136","latitude":"-14.35611110","longitude":"39.53250000","name":"Cabo Chereque"},{"id":"1680170","latitude":"-14.66527780","longitude":"39.12250000","name":"Cabo Correia"},{"id":"1680186","latitude":"-13.84611110","longitude":"39.52000000","name":"Cabo Eduardo"},{"id":"1680188","latitude":"-13.93138890","longitude":"39.74638890","name":"Cabo El\ufffdmu\ufffd"},{"id":"1680208","latitude":"-13.93583330","longitude":"39.88388890","name":"Cabo Gustavo"},{"id":"1680214","latitude":"-13.93027780","longitude":"39.87416670","name":"Cabo Ingele"},{"id":"1680219","latitude":"-13.99361110","longitude":"39.24611110","name":"Cabo Inticua"},{"id":"1680222","latitude":"-13.95500000","longitude":"40.35694440","name":"Cabo Jamali"},{"id":"1680226","latitude":"-13.55666670","longitude":"40.36333330","name":"Cabo Jo\ufffdo"},{"id":"1680228","latitude":"-13.98222220","longitude":"40.20222220","name":"Cabo Jos\ufffd"},{"id":"1680230","latitude":"-16.42527780","longitude":"39.30750000","name":"Cabo Lacamuatio"},{"id":"1680236","latitude":"-13.96944440","longitude":"39.98722220","name":"Cabo Lilua"},{"id":"1680276","latitude":"-14.12500000","longitude":"39.64444440","name":"Cabo Mahula"},{"id":"1680287","latitude":"-14.66694440","longitude":"39.38611110","name":"Cabo Malela"},{"id":"1680318","latitude":"-13.64111110","longitude":"40.32638890","name":"Cabo Matimpa"},{"id":"1680330","latitude":"-13.94805560","longitude":"39.72083330","name":"Cabo Mejuco"},{"id":"1680335","latitude":"-13.67333330","longitude":"40.40500000","name":"Cabo Metucut\ufffd"},{"id":"1680337","latitude":"-13.95805560","longitude":"39.93416670","name":"Cabo Micai"},{"id":"1680341","latitude":"-13.80444440","longitude":"40.40138890","name":"Cabo Mopia"},{"id":"1680342","latitude":"-13.98694440","longitude":"40.44444440","name":"Cabo Moria"},{"id":"1680344","latitude":"-13.88111110","longitude":"39.58527780","name":"Cabo Mouzinho"},{"id":"1680347","latitude":"-13.80000000","longitude":"39.65388890","name":"Cabo Mualeia"},{"id":"1680348","latitude":"-13.97805560","longitude":"39.94833330","name":"Cabo Muanahumo"},{"id":"1680349","latitude":"-13.97527780","longitude":"39.80388890","name":"Cabo Muanona"},{"id":"1680351","latitude":"-13.79888890","longitude":"40.09027780","name":"Cabo Muatelene"},{"id":"1680353","latitude":"-16.45138890","longitude":"39.15333330","name":"Cabo Muave"},{"id":"1680355","latitude":"-16.47416670","longitude":"39.35611110","name":"Cabo Mucalaia"},{"id":"1680356","latitude":"-16.57083330","longitude":"39.34666670","name":"Cabo Mucalavana"},{"id":"1680358","latitude":"-13.52305560","longitude":"40.48083330","name":"Cabo Mucamisse"},{"id":"1680369","latitude":"-13.98166670","longitude":"39.23888890","name":"Cabo Mu\ufffdpita"},{"id":"1680370","latitude":"-16.66166670","longitude":"39.04472220","name":"Cabo Mulaca"},{"id":"1680371","latitude":"-16.42694440","longitude":"39.17750000","name":"Cabo Mulogi\ufffda"},{"id":"1680374","latitude":"-13.76555560","longitude":"40.29388890","name":"Cabo Munisai"},{"id":"1680379","latitude":"-14.76888890","longitude":"39.06777780","name":"Cabo Mussinta"},{"id":"1680381","latitude":"-13.98527780","longitude":"40.07833330","name":"Cabo Nacache"},{"id":"1680382","latitude":"-13.87805560","longitude":"39.48000000","name":"Cabo Nacoto"},{"id":"1680385","latitude":"-16.53527780","longitude":"39.20944440","name":"Cabo Nairra"},{"id":"1680387","latitude":"-13.80416670","longitude":"40.06083330","name":"Cabo Nametarramo"},{"id":"1680388","latitude":"-13.69166670","longitude":"39.93694440","name":"Cabo Namexequelia"},{"id":"1680389","latitude":"-13.81111110","longitude":"39.87083330","name":"Cabo Namic\ufffdi"},{"id":"1680390","latitude":"-14.70277780","longitude":"39.02944440","name":"Cabo Namirau"},{"id":"1680391","latitude":"-14.57138890","longitude":"39.49444440","name":"Cabo Namirrupa"},{"id":"1680392","latitude":"-13.92777780","longitude":"40.00166670","name":"Cabo Nanc\ufffdpue"},{"id":"1680393","latitude":"-13.87777780","longitude":"39.89444440","name":"Cabo Nauaxa"},{"id":"1680411","latitude":"-14.19500000","longitude":"39.35027780","name":"Cabo Nicapa"},{"id":"1680414","latitude":"-14.92500000","longitude":"39.23305560","name":"Cabo Niico"},{"id":"1680415","latitude":"-13.89416670","longitude":"39.65861110","name":"Cabo Nivira"},{"id":"1680419","latitude":"-13.91611110","longitude":"39.79666670","name":"Cabo Pacala"},{"id":"1680423","latitude":"-16.55361110","longitude":"39.48611110","name":"Cabo Paraca"},{"id":"1680433","latitude":"-16.43277780","longitude":"39.15527780","name":"Cabo Raice"},{"id":"1680435","latitude":"-13.98916670","longitude":"39.35750000","name":"Cabo Ramos"},{"id":"1680438","latitude":"-14.47166670","longitude":"39.99527780","name":"Cabo Rila"},{"id":"1680439","latitude":"-13.94055560","longitude":"39.93027780","name":"Cabo Rocha"},{"id":"1680442","latitude":"-14.28833330","longitude":"39.53833330","name":"Cabo Ruania"},{"id":"1680443","latitude":"-16.75222220","longitude":"39.11111110","name":"Cabo Rucunua"},{"id":"1680444","latitude":"-13.81416670","longitude":"40.12277780","name":"Cabo Rumela"},{"id":"1680447","latitude":"-13.83361110","longitude":"39.70305560","name":"Cabo Saguate"},{"id":"1680452","latitude":"-13.97250000","longitude":"39.79583330","name":"Cabo Seta"},{"id":"1680458","latitude":"-13.95861110","longitude":"39.39583330","name":"Cabo Tapuata"},{"id":"1680466","latitude":"-13.96305560","longitude":"39.84472220","name":"Cabo Uacate"},{"id":"1680467","latitude":"-14.63611110","longitude":"39.06916670","name":"Cabo Uaconha"},{"id":"1680473","latitude":"-13.96722220","longitude":"40.10555560","name":"Cabo Ussene"},{"id":"1680475","latitude":"-16.43194440","longitude":"39.34805560","name":"Cabo Vailale"},{"id":"1680476","latitude":"-13.80611110","longitude":"40.01111110","name":"Cabo Vajulo"},{"id":"1680477","latitude":"-13.94944440","longitude":"39.86694440","name":"Cabo Varavate"},{"id":"1680480","latitude":"-13.78555560","longitude":"39.73166670","name":"Cabo Vicente"},{"id":"1680488","latitude":"-15.36194440","longitude":"38.70138890","name":"Cabulo"},{"id":"1680528","latitude":"-15.43777780","longitude":"40.00333330","name":"C\ufffdcimo"},{"id":"1680534","latitude":"-14.54555560","longitude":"40.41472220","name":"Cacuvela"},{"id":"1680540","latitude":"-15.65083330","longitude":"39.66083330","name":"Cadeira"},{"id":"1680549","latitude":"-14.90861110","longitude":"40.35083330","name":"Caeiro"},{"id":"1680553","latitude":"-14.35472220","longitude":"40.26416670","name":"Caetano"},{"id":"1680579","latitude":"-14.98222220","longitude":"38.35388890","name":"Cai\ufffdia"},{"id":"1680589","latitude":"-15.42027780","longitude":"40.26861110","name":"Ca\ufffdra"},{"id":"1680613","latitude":"-15.18027780","longitude":"40.59583330","name":"Calajulo"},{"id":"1680621","latitude":"-13.64416670","longitude":"40.36750000","name":"Calana"},{"id":"1680629","latitude":"-14.01055560","longitude":"40.28027780","name":"Calauane"},{"id":"1680633","latitude":"-15.75750000","longitude":"40.13833330","name":"Calayeta"},{"id":"1680643","latitude":"-15.33861110","longitude":"38.53500000","name":"Caleva"},{"id":"1680646","latitude":"-14.09805560","longitude":"40.12777780","name":"Calia"},{"id":"1680650","latitude":"-15.24361110","longitude":"38.98361110","name":"Calima"},{"id":"1680654","latitude":"-15.63000000","longitude":"39.10472220","name":"Calipo"},{"id":"1680676","latitude":"-14.83944440","longitude":"40.76444440","name":"Camaculo"},{"id":"1680677","latitude":"-15.80972220","longitude":"39.25861110","name":"Camaeno"},{"id":"1680682","latitude":"-14.28333330","longitude":"39.25916670","name":"Camale"},{"id":"1680721","latitude":"-15.30972220","longitude":"39.60277780","name":"Cameio"},{"id":"1680723","latitude":"-15.78000000","longitude":"39.52694440","name":"Cam\ufffdla"},{"id":"1680733","latitude":"-14.38333330","longitude":"39.98333330","name":"Camilo"},{"id":"1680735","latitude":"-15.49472220","longitude":"39.91555560","name":"Camino"},{"id":"1680746","latitude":"-14.85111110","longitude":"39.02611110","name":"Camoco"},{"id":"1680755","latitude":"-14.30277780","longitude":"40.10083330","name":"Campe"},{"id":"1680763","latitude":"-15.16972220","longitude":"39.45638890","name":"Campito"},{"id":"1680767","latitude":"-15.07555560","longitude":"39.55055560","name":"Camuana"},{"id":"1680771","latitude":"-15.03500000","longitude":"40.03527780","name":"Camueto"},{"id":"1680784","latitude":"-15.01361110","longitude":"40.32666670","name":"Canalola"},{"id":"1680786","latitude":"-15.13666670","longitude":"39.03388890","name":"Canameja"},{"id":"1680816","latitude":"-14.84805560","longitude":"39.49305560","name":"Caneca"},{"id":"1680817","latitude":"-16.02833330","longitude":"39.26277780","name":"Caneta"},{"id":"1680824","latitude":"-13.63055560","longitude":"40.13416670","name":"Canga\ufffdche"},{"id":"1680829","latitude":"-16.17722220","longitude":"38.98583330","name":"Canhaia"},{"id":"1680838","latitude":"-14.87388890","longitude":"38.66888890","name":"Canh\ufffdua"},{"id":"1680858","latitude":"-15.26777780","longitude":"39.05777780","name":"Caniaja"},{"id":"1680860","latitude":"-15.19638890","longitude":"39.53694440","name":"Canimala"},{"id":"1680869","latitude":"-16.58333330","longitude":"39.26666670","name":"Canlaua"},{"id":"1680870","latitude":"-15.95944440","longitude":"39.41916670","name":"Canlula"},{"id":"1680877","latitude":"-15.12305560","longitude":"39.95027780","name":"Canr\ufffdea"},{"id":"1680878","latitude":"-14.49472220","longitude":"40.33583330","name":"Cansa"},{"id":"1680895","latitude":"-15.62000000","longitude":"38.57111110","name":"Canteua"},{"id":"1680898","latitude":"-15.30638890","longitude":"39.81944440","name":"Cantiga"},{"id":"1680904","latitude":"-16.21666670","longitude":"39.56666670","name":"Cantoneiro"},{"id":"1680906","latitude":"-14.14361110","longitude":"38.79500000","name":"Cant\ufffdta"},{"id":"1680926","latitude":"-15.86972220","longitude":"38.97777780","name":"Capaca"},{"id":"1680943","latitude":"-15.30777780","longitude":"40.27916670","name":"Capataz"},{"id":"1680944","latitude":"-15.00250000","longitude":"37.76777780","name":"Capataz Devia"},{"id":"1680948","latitude":"-14.27861110","longitude":"40.65972220","name":"Capelelene"},{"id":"1680952","latitude":"-14.05166670","longitude":"38.95777780","name":"Caper"},{"id":"1680971","latitude":"-15.18416670","longitude":"40.19666670","name":"Capit\ufffdo-M\ufffdr"},{"id":"1680974","latitude":"-15.58416670","longitude":"40.01083330","name":"Capitula"},{"id":"1680986","latitude":"-14.18333330","longitude":"39.90000000","name":"Capula"},{"id":"1680987","latitude":"-13.99222220","longitude":"40.36416670","name":"C\ufffdpulo"},{"id":"1680997","latitude":"-14.51083330","longitude":"38.83138890","name":"Caqui"},{"id":"1681005","latitude":"-15.15722220","longitude":"39.01972220","name":"Carama"},{"id":"1681006","latitude":"-15.13666670","longitude":"39.03388890","name":"Caramaja"},{"id":"1681009","latitude":"-14.91750000","longitude":"40.22250000","name":"Carapira"},{"id":"1681014","latitude":"-14.61416670","longitude":"40.52833330","name":"Cardoso"},{"id":"1681018","latitude":"-16.28777780","longitude":"39.43277780","name":"Carei"},{"id":"1681019","latitude":"-14.71888890","longitude":"37.22305560","name":"Cariata"},{"id":"1681021","latitude":"-14.87444440","longitude":"38.51055560","name":"C\ufffdrico"},{"id":"1681023","latitude":"-15.85166670","longitude":"39.08833330","name":"Carieto"},{"id":"1681025","latitude":"-15.28916670","longitude":"38.60388890","name":"Carimbo"},{"id":"1681026","latitude":"-14.65111110","longitude":"39.95111110","name":"Carimo"},{"id":"1681037","latitude":"-15.64083330","longitude":"39.34083330","name":"Carlos"},{"id":"1681047","latitude":"-15.08555560","longitude":"38.68805560","name":"Caromia"},{"id":"1681050","latitude":"-16.30194440","longitude":"39.06500000","name":"Carpinteiro"},{"id":"1681054","latitude":"-14.96722220","longitude":"40.32250000","name":"Carramo"},{"id":"1681063","latitude":"-14.58333330","longitude":"38.28333330","name":"Carrica"},{"id":"1681068","latitude":"-13.99500000","longitude":"39.90916670","name":"Carr\ufffda"},{"id":"1681080","latitude":"-14.34055560","longitude":"40.51805560","name":"Casa Jagu"},{"id":"1681089","latitude":"-14.53805560","longitude":"39.38388890","name":"Casimiro"},{"id":"1681095","latitude":"-15.96888890","longitude":"39.10805560","name":"Cassama"},{"id":"1681100","latitude":"-13.71694440","longitude":"39.69750000","name":"Cassamo"},{"id":"1681122","latitude":"-13.97888890","longitude":"39.18083330","name":"Cassimo"},{"id":"1681133","latitude":"-14.49166670","longitude":"40.45055560","name":"Castelo"},{"id":"1681137","latitude":"-14.49166670","longitude":"40.45055560","name":"Castle"},{"id":"1681145","latitude":"-16.30000000","longitude":"39.86666670","name":"Catamoio"},{"id":"1681152","latitude":"-13.79638890","longitude":"40.21916670","name":"Catarre"},{"id":"1681153","latitude":"-15.61361110","longitude":"39.27750000","name":"Catarrua"},{"id":"1681155","latitude":"-14.57583330","longitude":"40.51027780","name":"Catava"},{"id":"1681159","latitude":"-14.55361110","longitude":"40.53000000","name":"Catchave"},{"id":"1681171","latitude":"-14.67888890","longitude":"40.40055560","name":"Cateia"},{"id":"1681179","latitude":"-13.78472220","longitude":"40.38638890","name":"Caterra"},{"id":"1681219","latitude":"-15.04166670","longitude":"39.03861110","name":"Cat\ufffda"},{"id":"1681244","latitude":"-14.21000000","longitude":"40.37222220","name":"Catutua"},{"id":"1681245","latitude":"-15.09416670","longitude":"40.10305560","name":"Cauacue"},{"id":"1681247","latitude":"-15.75277780","longitude":"39.43805560","name":"Cauaio"},{"id":"1681277","latitude":"-14.17416670","longitude":"40.26416670","name":"Cava"},{"id":"1681281","latitude":"-14.56638890","longitude":"37.90638890","name":"Cavala"},{"id":"1681288","latitude":"-14.49250000","longitude":"39.55500000","name":"Cavalaria"},{"id":"1681293","latitude":"-15.61361110","longitude":"38.56888890","name":"Cavalo"},{"id":"1681302","latitude":"-15.63166670","longitude":"38.56750000","name":"Cavarro"},{"id":"1681307","latitude":"-14.17583330","longitude":"40.21805560","name":"Caveia"},{"id":"1681311","latitude":"-14.18888890","longitude":"39.92416670","name":"Cavete"},{"id":"1681312","latitude":"-15.01972220","longitude":"40.63611110","name":"Cavia"},{"id":"1681315","latitude":"-15.12861110","longitude":"39.09583330","name":"Cavo"},{"id":"1681318","latitude":"-14.89388890","longitude":"39.31444440","name":"Cavula Novo"},{"id":"1681319","latitude":"-14.85555560","longitude":"39.33250000","name":"Cavula Velho"},{"id":"1681371","latitude":"-14.32500000","longitude":"40.62083330","name":"Ceba"},{"id":"1681374","latitude":"-14.15861110","longitude":"40.28000000","name":"Cebola"},{"id":"1681376","latitude":"-16.38138890","longitude":"39.02000000","name":"Cecileuce"},{"id":"1681378","latitude":"-14.00888890","longitude":"40.16583330","name":"Cemula"},{"id":"1681387","latitude":"-15.45027780","longitude":"38.66194440","name":"C\ufffdro"},{"id":"1681428","latitude":"-15.00250000","longitude":"39.82472220","name":"Chac\ufffdpo"},{"id":"1681431","latitude":"-14.29555560","longitude":"39.77527780","name":"Chacuia"},{"id":"1681480","latitude":"-16.02611110","longitude":"39.81166670","name":"Chalati"},{"id":"1681481","latitude":"-15.71361110","longitude":"39.12083330","name":"Chalaua"},{"id":"1681483","latitude":"-14.45000000","longitude":"40.65000000","name":"Chalau"},{"id":"1681498","latitude":"-14.92250000","longitude":"40.24472220","name":"Chali"},{"id":"1681546","latitude":"-15.91805560","longitude":"39.64833330","name":"Ch\ufffdmurra"},{"id":"1681584","latitude":"-16.43277780","longitude":"39.61611110","name":"Chanruga"},{"id":"1681586","latitude":"-15.29750000","longitude":"39.81166670","name":"Chante"},{"id":"1681592","latitude":"-14.72972220","longitude":"39.57750000","name":"Chapala"},{"id":"1681609","latitude":"-15.47972220","longitude":"39.46500000","name":"Chapir"},{"id":"1681610","latitude":"-13.99638890","longitude":"40.06138890","name":"Chapire"},{"id":"1681611","latitude":"-14.38972220","longitude":"37.79055560","name":"Ch\ufffdpite"},{"id":"1681616","latitude":"-14.72972220","longitude":"39.57750000","name":"Chapola"},{"id":"1681622","latitude":"-15.95888890","longitude":"40.01111110","name":"Charamatane"},{"id":"1681633","latitude":"-15.08388890","longitude":"40.69750000","name":"Chassa"},{"id":"1681671","latitude":"-14.17722220","longitude":"40.23611110","name":"Chaves"},{"id":"1681672","latitude":"-14.71666670","longitude":"40.13333330","name":"Chavieque"},{"id":"1681676","latitude":"-13.63222220","longitude":"40.39472220","name":"Cheane"},{"id":"1681688","latitude":"-14.85000000","longitude":"39.03333330","name":"Chechere"},{"id":"1681699","latitude":"-16.06416670","longitude":"39.83472220","name":"Chefe Abedala"},{"id":"1681700","latitude":"-16.42444440","longitude":"39.27916670","name":"Chefe Abudo"},{"id":"1681702","latitude":"-16.04750000","longitude":"38.94416670","name":"Chefe Adelino"},{"id":"1681707","latitude":"-16.04833330","longitude":"39.16222220","name":"Chefe Agostinho"},{"id":"1681709","latitude":"-16.28055560","longitude":"39.11583330","name":"Chefe Aia"},{"id":"1681711","latitude":"-16.07472220","longitude":"39.25888890","name":"Chefe Alberto"},{"id":"1681713","latitude":"-16.13805560","longitude":"39.08138890","name":"Chefe Albino"},{"id":"1681714","latitude":"-16.00555560","longitude":"39.93972220","name":"Chefe Alde"},{"id":"1681717","latitude":"-16.32305560","longitude":"39.83750000","name":"Chefe Alibaiane"},{"id":"1681719","latitude":"-13.68583330","longitude":"39.88694440","name":"Chefe Ali"},{"id":"1681721","latitude":"-16.55111110","longitude":"39.24500000","name":"Chefe Alite"},{"id":"1681722","latitude":"-16.86500000","longitude":"39.13305560","name":"Chefe Aliti"},{"id":"1681723","latitude":"-16.17194440","longitude":"39.12611110","name":"Chefe \ufffdlvaro"},{"id":"1681725","latitude":"-16.51000000","longitude":"39.65194440","name":"Chefe Amade"},{"id":"1681726","latitude":"-16.79722220","longitude":"39.15277780","name":"Chefe Amanzi"},{"id":"1681728","latitude":"-16.05777780","longitude":"40.09250000","name":"Chefe Amisse"},{"id":"1681732","latitude":"-16.01222220","longitude":"38.90472220","name":"Chefe Ant\ufffdnio"},{"id":"1681737","latitude":"-13.63555560","longitude":"40.02944440","name":"Chefe Armando"},{"id":"1681738","latitude":"-16.23694440","longitude":"39.80055560","name":"Chefe Arreca"},{"id":"1681742","latitude":"-16.05000000","longitude":"39.75555560","name":"Chefe Assane"},{"id":"1681743","latitude":"-16.36583330","longitude":"39.74222220","name":"Chefe Assemane"},{"id":"1681744","latitude":"-16.04055560","longitude":"39.78583330","name":"Chefe Assumane"},{"id":"1681745","latitude":"-16.65888890","longitude":"39.15361110","name":"Chefe Atumane"},{"id":"1681796","latitude":"-16.45222220","longitude":"39.10000000","name":"Chefe Caj\ufffd"},{"id":"1681799","latitude":"-16.56444440","longitude":"39.41111110","name":"Chefe Calipo"},{"id":"1681819","latitude":"-13.62500000","longitude":"39.96500000","name":"Chefe Cardoso"},{"id":"1681820","latitude":"-16.73777780","longitude":"39.28694440","name":"Chefe Carepa"},{"id":"1681824","latitude":"-16.42305560","longitude":"39.58472220","name":"Chefe Carneiro"},{"id":"1681832","latitude":"-16.59777780","longitude":"39.54166670","name":"Chefe Cassimo"},{"id":"1681834","latitude":"-16.11972220","longitude":"39.01777780","name":"Chefe Castro"},{"id":"1681841","latitude":"-13.75666670","longitude":"39.71666670","name":"Chefe Cavara"},{"id":"1681843","latitude":"-16.61611110","longitude":"39.28944440","name":"Chefe Cavina"},{"id":"1681851","latitude":"-13.71944440","longitude":"39.85666670","name":"Chefe Chale"},{"id":"1681853","latitude":"-16.20666670","longitude":"39.85083330","name":"Chefe Chame"},{"id":"1681860","latitude":"-14.73638890","longitude":"40.75583330","name":"Chefe"},{"id":"1681864","latitude":"-13.81500000","longitude":"40.09416670","name":"Chefe Cherequela"},{"id":"1681950","latitude":"-13.66083330","longitude":"40.02166670","name":"Chefe Chumar"},{"id":"1681953","latitude":"-16.62055560","longitude":"39.52027780","name":"Chefe Cinco"},{"id":"1681964","latitude":"-16.55472220","longitude":"39.13833330","name":"Chefe Colete"},{"id":"1681971","latitude":"-13.55833330","longitude":"40.03222220","name":"Chefe Comemo"},{"id":"1681987","latitude":"-16.09555560","longitude":"38.98750000","name":"Chefe Costa"},{"id":"1681989","latitude":"-16.23833330","longitude":"39.09861110","name":"Chefe Coutinho"},{"id":"1682037","latitude":"-13.71888890","longitude":"39.77055560","name":"Chefe Duarte"},{"id":"1682043","latitude":"-16.07444440","longitude":"39.14055560","name":"Chefe Eduardo"},{"id":"1682052","latitude":"-16.80222220","longitude":"39.18416670","name":"Chefe Essuma\ufffdla"},{"id":"1682056","latitude":"-16.42388890","longitude":"39.10888890","name":"Chefe Fernando"},{"id":"1682057","latitude":"-16.31500000","longitude":"39.51916670","name":"Chefe Filipe"},{"id":"1682059","latitude":"-16.56277780","longitude":"39.47500000","name":"Chefe Fogo"},{"id":"1682060","latitude":"-13.93722220","longitude":"39.25777780","name":"Chefe Francisco"},{"id":"1682070","latitude":"-16.13638890","longitude":"38.95750000","name":"Chefe Gelo"},{"id":"1682072","latitude":"-16.02333330","longitude":"39.44694440","name":"Chefe Gimo"},{"id":"1682073","latitude":"-16.34722220","longitude":"39.12416670","name":"Chefe Ginama"},{"id":"1682096","latitude":"-16.01027780","longitude":"39.90972220","name":"Chefe Henrique"},{"id":"1682128","latitude":"-16.06361110","longitude":"39.60500000","name":"Chefe Intopua"},{"id":"1682130","latitude":"-16.15694440","longitude":"39.36138890","name":"Chefe Inxela"},{"id":"1682131","latitude":"-16.02861110","longitude":"39.05833330","name":"Chefe Iua"},{"id":"1682132","latitude":"-16.45750000","longitude":"39.08611110","name":"Chefe Jacoma"},{"id":"1682134","latitude":"-13.72000000","longitude":"39.90111110","name":"Chefe Jagaia"},{"id":"1682139","latitude":"-16.54694440","longitude":"39.57250000","name":"Chefe Jamal"},{"id":"1682146","latitude":"-13.65194440","longitude":"39.92222220","name":"Chefe Jiquina"},{"id":"1682148","latitude":"-16.04888890","longitude":"38.98722220","name":"Chefe Jo\ufffdo"},{"id":"1682149","latitude":"-16.03111110","longitude":"39.29194440","name":"Chefe Joaquim"},{"id":"1682154","latitude":"-13.67694440","longitude":"39.76972220","name":"Chefe Jor\ufffdji"},{"id":"1682156","latitude":"-16.02583330","longitude":"39.24444440","name":"Chefe Jos\ufffd"},{"id":"1682162","latitude":"-13.73583330","longitude":"39.91055560","name":"Chefe J\ufffdlio"},{"id":"1682166","latitude":"-16.70277780","longitude":"39.10583330","name":"Chefe Languane"},{"id":"1682173","latitude":"-16.21972220","longitude":"39.64416670","name":"Chefe Licuma"},{"id":"1682175","latitude":"-16.40555560","longitude":"39.70305560","name":"Chefe Ligonha"},{"id":"1682179","latitude":"-13.84694440","longitude":"39.47416670","name":"Chefe Limelo"},{"id":"1682191","latitude":"-16.58305560","longitude":"39.58222220","name":"Chefe Louren\ufffdo"},{"id":"1682244","latitude":"-16.73972220","longitude":"39.21527780","name":"Chefe Macua"},{"id":"1682248","latitude":"-16.05416670","longitude":"39.12750000","name":"Chefe Macuerere"},{"id":"1682316","latitude":"-16.04638890","longitude":"39.57722220","name":"Chefe Malata"},{"id":"1682322","latitude":"-16.11027780","longitude":"39.34055560","name":"Chefe Malito"},{"id":"1682333","latitude":"-16.71055560","longitude":"39.32388890","name":"Chefe Mana"},{"id":"1682374","latitude":"-16.48944440","longitude":"39.27583330","name":"Chefe Marido"},{"id":"1682375","latitude":"-16.53388890","longitude":"39.22944440","name":"Chefe Marinheiro"},{"id":"1682376","latitude":"-13.73694440","longitude":"39.74888890","name":"Chefe M\ufffdrio"},{"id":"1682388","latitude":"-16.30083330","longitude":"39.66777780","name":"Chefe Marrucha"},{"id":"1682390","latitude":"-16.18527780","longitude":"39.15333330","name":"Chefe Martinho"},{"id":"1682391","latitude":"-16.20194440","longitude":"39.49361110","name":"Chefe Maru\ufffd"},{"id":"1682395","latitude":"-13.61361110","longitude":"40.02861110","name":"Chefe Massaiene"},{"id":"1682416","latitude":"-13.95416670","longitude":"39.27027780","name":"Chefe Matania"},{"id":"1682417","latitude":"-16.40111110","longitude":"39.45083330","name":"Chefe Matela"},{"id":"1682420","latitude":"-16.01305560","longitude":"39.89333330","name":"Chefe Matesaide"},{"id":"1682425","latitude":"-16.28500000","longitude":"39.52861110","name":"Chefe Matico"},{"id":"1682429","latitude":"-16.41333330","longitude":"39.15416670","name":"Chefe Matos"},{"id":"1682435","latitude":"-13.98944440","longitude":"39.92444440","name":"Chefe Matuta"},{"id":"1682437","latitude":"-16.02083330","longitude":"39.62000000","name":"Chefe Mauange"},{"id":"1682451","latitude":"-16.07694440","longitude":"39.86444440","name":"Chefe Mecaze"},{"id":"1682459","latitude":"-13.73277780","longitude":"39.70166670","name":"Chefe Mele"},{"id":"1682463","latitude":"-16.69694440","longitude":"39.33750000","name":"Chefe Mepago"},{"id":"1682478","latitude":"-16.08583330","longitude":"39.53972220","name":"Chefe Meque"},{"id":"1682479","latitude":"-13.73861110","longitude":"39.91694440","name":"Chefe Meriasai"},{"id":"1682480","latitude":"-16.15750000","longitude":"39.58111110","name":"Chefe Merraca"},{"id":"1682482","latitude":"-13.74000000","longitude":"39.75222220","name":"Chefe Messarage"},{"id":"1682484","latitude":"-16.54250000","longitude":"39.44027780","name":"Chefe Metage"},{"id":"1682487","latitude":"-16.61527780","longitude":"39.31666670","name":"Chefe Metano"},{"id":"1682506","latitude":"-16.71861110","longitude":"39.36666670","name":"Chefe Miria"},{"id":"1682512","latitude":"-16.46555560","longitude":"39.12027780","name":"Chefe Mitua"},{"id":"1682517","latitude":"-16.62944440","longitude":"39.32555560","name":"Chefe Mivua"},{"id":"1682518","latitude":"-16.12972220","longitude":"39.97305560","name":"Chefe Moamade"},{"id":"1682522","latitude":"-16.76888890","longitude":"39.11916670","name":"Chefe Mocorroco"},{"id":"1682535","latitude":"-13.69750000","longitude":"39.73750000","name":"Chefe Monteiro"},{"id":"1682547","latitude":"-13.73666670","longitude":"39.69944440","name":"Chefe Moura"},{"id":"1682549","latitude":"-13.59444440","longitude":"40.00694440","name":"Chefe M'Rossia"},{"id":"1682556","latitude":"-16.12861110","longitude":"39.58055560","name":"Chefe Muahua"},{"id":"1682564","latitude":"-13.94222220","longitude":"39.41694440","name":"Chefe Muali"},{"id":"1682566","latitude":"-16.59305560","longitude":"39.20277780","name":"Chefe Mualsene"},{"id":"1682573","latitude":"-13.71250000","longitude":"39.76555560","name":"Chefe Muanacuale"},{"id":"1682581","latitude":"-16.41250000","longitude":"39.61388890","name":"Chefe Muanique"},{"id":"1682585","latitude":"-13.87861110","longitude":"39.46000000","name":"Chefe Muapatcha"},{"id":"1682590","latitude":"-16.60222220","longitude":"39.02111110","name":"Chefe Muauanha"},{"id":"1682600","latitude":"-16.01388890","longitude":"39.74388890","name":"Chefe Mucaquiua"},{"id":"1682605","latitude":"-16.30694440","longitude":"39.47833330","name":"Chefe Mucatapeia"},{"id":"1682617","latitude":"-16.72722220","longitude":"39.16805560","name":"Chefe Mucoila"},{"id":"1682629","latitude":"-16.07222220","longitude":"39.92222220","name":"Chefe Mucume"},{"id":"1682634","latitude":"-16.31861110","longitude":"39.67500000","name":"Chefe Mucunuca"},{"id":"1682656","latitude":"-16.57916670","longitude":"39.01750000","name":"Chefe Muieva"},{"id":"1682660","latitude":"-16.69000000","longitude":"39.40000000","name":"Chefe Muirruma"},{"id":"1682671","latitude":"-16.36694440","longitude":"39.22944440","name":"Chefe Mulele"},{"id":"1682672","latitude":"-16.14888890","longitude":"39.32805560","name":"Chefe Muleva"},{"id":"1682676","latitude":"-16.22722220","longitude":"39.58861110","name":"Chefe Mulicote"},{"id":"1682683","latitude":"-16.18444440","longitude":"39.65861110","name":"Chefe Munga"},{"id":"1682692","latitude":"-13.74638890","longitude":"39.80555560","name":"Chefe Munrria"},{"id":"1682693","latitude":"-16.41361110","longitude":"39.55500000","name":"Chefe Munua"},{"id":"1682699","latitude":"-16.74972220","longitude":"39.29138890","name":"Chefe Muponha"},{"id":"1682701","latitude":"-13.71694440","longitude":"39.88416670","name":"Chefe Muquina"},{"id":"1682707","latitude":"-16.44000000","longitude":"39.07833330","name":"Chefe Murronha"},{"id":"1682716","latitude":"-16.36111110","longitude":"39.24361110","name":"Chefe Mussama"},{"id":"1682717","latitude":"-16.58750000","longitude":"39.42611110","name":"Chefe Mussassanha"},{"id":"1682718","latitude":"-16.03138890","longitude":"39.94000000","name":"Chefe Mussassuade"},{"id":"1682724","latitude":"-16.43722220","longitude":"39.35166670","name":"Chefe Mutala"},{"id":"1682731","latitude":"-14.92861110","longitude":"36.96583330","name":"Chefe Mutu\ufffdli"},{"id":"1682754","latitude":"-13.80666670","longitude":"40.58277780","name":"Chefe Na\ufffdte"},{"id":"1682788","latitude":"-16.70916670","longitude":"39.06027780","name":"Chefe Namuine"},{"id":"1682800","latitude":"-16.11583330","longitude":"39.52027780","name":"Chefe Nanre"},{"id":"1682806","latitude":"-16.39750000","longitude":"39.68972220","name":"Chefe Napiri"},{"id":"1682809","latitude":"-13.80472220","longitude":"39.94138890","name":"Chefe Napitamuno"},{"id":"1682813","latitude":"-16.30027780","longitude":"39.08805560","name":"Chefe Napurra"},{"id":"1682815","latitude":"-16.33666670","longitude":"39.71555560","name":"Chefe Naquite"},{"id":"1682816","latitude":"-16.37916670","longitude":"39.10361110","name":"Chefe Nariva"},{"id":"1682818","latitude":"-16.41027780","longitude":"39.07527780","name":"Chefe Natocua"},{"id":"1682826","latitude":"-16.05111110","longitude":"39.47444440","name":"Chefe Nelaxe"},{"id":"1682827","latitude":"-16.56416670","longitude":"39.00277780","name":"Chefe Nemua"},{"id":"1682835","latitude":"-13.72361110","longitude":"39.69777780","name":"Chefe Neuela"},{"id":"1682874","latitude":"-14.69805560","longitude":"36.99500000","name":"Chefe Nicanhaba"},{"id":"1682880","latitude":"-16.40944440","longitude":"39.12166670","name":"Chefe Nicua"},{"id":"1682889","latitude":"-13.67611110","longitude":"39.92666670","name":"Chefe Nimalane"},{"id":"1682890","latitude":"-16.11777780","longitude":"39.29805560","name":"Chefe Nimalela"},{"id":"1682892","latitude":"-16.16083330","longitude":"39.45250000","name":"Chefe Nimate"},{"id":"1682910","latitude":"-13.70750000","longitude":"39.75333330","name":"Chefe Nonianane"},{"id":"1682913","latitude":"-13.57388890","longitude":"40.03722220","name":"Chefe Nuquela"},{"id":"1682919","latitude":"-16.37805560","longitude":"39.86722220","name":"Chefe Ossofo"},{"id":"1682920","latitude":"-16.51472220","longitude":"39.31027780","name":"Chefe Ossufo"},{"id":"1682937","latitude":"-13.86444440","longitude":"39.71666670","name":"Chefe Paulo"},{"id":"1682945","latitude":"-16.63472220","longitude":"39.03222220","name":"Chefe Pequenino"},{"id":"1682955","latitude":"-16.53611110","longitude":"39.59388890","name":"Chefe Pinho"},{"id":"1682958","latitude":"-16.44527780","longitude":"39.14472220","name":"Chefe Pitanha"},{"id":"1682959","latitude":"-13.96944440","longitude":"39.15416670","name":"Chefe Pit\ufffdria"},{"id":"1682971","latitude":"-16.34361110","longitude":"39.07166670","name":"Chefe Puampuela"},{"id":"1682972","latitude":"-16.10166670","longitude":"39.18666670","name":"Chefe Puarro"},{"id":"1682973","latitude":"-16.65305560","longitude":"39.45166670","name":"Chefe Puca"},{"id":"1682985","latitude":"-16.58527780","longitude":"39.35083330","name":"Chefe Quecereia"},{"id":"1682992","latitude":"-13.76388890","longitude":"39.82388890","name":"Chefe Quinau\ufffdria"},{"id":"1682996","latitude":"-16.45222220","longitude":"39.24666670","name":"Chefe Quissome"},{"id":"1682999","latitude":"-13.70333330","longitude":"39.74694440","name":"Chefe Rafael"},{"id":"1683000","latitude":"-16.53444440","longitude":"39.16722220","name":"Chefe Raice"},{"id":"1683003","latitude":"-16.14277780","longitude":"39.01444440","name":"Chefe Raimundo"},{"id":"1683005","latitude":"-16.76638890","longitude":"39.07805560","name":"Chefe Ratil"},{"id":"1683008","latitude":"-13.68277780","longitude":"39.78583330","name":"Chefe Repea"},{"id":"1683011","latitude":"-16.33888890","longitude":"39.10527780","name":"Chefe Rihiua"},{"id":"1683023","latitude":"-13.73666670","longitude":"39.84305560","name":"Chefe Rumene"},{"id":"1683025","latitude":"-16.43555560","longitude":"39.12305560","name":"Chefe Rumua"},{"id":"1683029","latitude":"-13.70750000","longitude":"40.01666670","name":"Chefe Sab\ufffdo"},{"id":"1683030","latitude":"-16.65166670","longitude":"39.47555560","name":"Chefe Sagage"},{"id":"1683033","latitude":"-16.54972220","longitude":"39.53861110","name":"Chefe Sa\ufffdde"},{"id":"1683034","latitude":"-16.55083330","longitude":"39.50388890","name":"Chefe Saile"},{"id":"1683038","latitude":"-16.55166670","longitude":"39.16694440","name":"Chefe Salimo"},{"id":"1683042","latitude":"-16.11166670","longitude":"39.16166670","name":"Chefe Samuel"},{"id":"1683045","latitude":"-13.91861110","longitude":"39.38694440","name":"Chefe Sapala"},{"id":"1683046","latitude":"-13.73777780","longitude":"40.05833330","name":"Chefe Sapihe"},{"id":"1683048","latitude":"-16.36888890","longitude":"39.22277780","name":"Chefe Sardinha"},{"id":"1683051","latitude":"-16.24861110","longitude":"39.19583330","name":"Chefe Sebasti\ufffdo"},{"id":"1683055","latitude":"-16.51972220","longitude":"39.35277780","name":"Chefe Selimane"},{"id":"1683063","latitude":"-16.16000000","longitude":"39.13638890","name":"Chefe Silva"},{"id":"1683064","latitude":"-16.41527780","longitude":"39.40250000","name":"Chefe Silv\ufffdrio"},{"id":"1683072","latitude":"-16.67111110","longitude":"39.06138890","name":"Chefe Sulimane"},{"id":"1683076","latitude":"-16.39055560","longitude":"39.37222220","name":"Chefe Supera"},{"id":"1683079","latitude":"-16.67638890","longitude":"39.41500000","name":"Chefe Taca"},{"id":"1683087","latitude":"-16.27416670","longitude":"39.55472220","name":"Chefe Tapio"},{"id":"1683089","latitude":"-16.70805560","longitude":"39.14972220","name":"Chefe Ta\ufffdda"},{"id":"1683094","latitude":"-16.40638890","longitude":"39.38638890","name":"Chefe Telua"},{"id":"1683104","latitude":"-16.14250000","longitude":"39.28694440","name":"Chefe Tiquite"},{"id":"1683107","latitude":"-16.34611110","longitude":"39.05805560","name":"Chefe Tom\ufffd"},{"id":"1683109","latitude":"-14.78888890","longitude":"36.90527780","name":"Chefe Tomola"},{"id":"1683129","latitude":"-16.19694440","longitude":"38.94416670","name":"Chefe Ualete"},{"id":"1683133","latitude":"-13.68833330","longitude":"39.78500000","name":"Chefe Uante"},{"id":"1683138","latitude":"-13.68888890","longitude":"39.82000000","name":"Chefe Uela"},{"id":"1683141","latitude":"-13.92888890","longitude":"39.40305560","name":"Chefe Umalauato"},{"id":"1683148","latitude":"-13.69638890","longitude":"39.86722220","name":"Chefe Ussene"},{"id":"1683149","latitude":"-16.15694440","longitude":"39.91500000","name":"Chefe Ussufopateia"},{"id":"1683155","latitude":"-16.44555560","longitude":"39.28944440","name":"Chefe Veke"},{"id":"1683156","latitude":"-16.41222220","longitude":"39.26138890","name":"Chefe Vento"},{"id":"1683157","latitude":"-16.39194440","longitude":"39.49833330","name":"Chefe Ver\ufffdssimo"},{"id":"1683229","latitude":"-14.27861110","longitude":"40.72305560","name":"Chepa"},{"id":"1683235","latitude":"-14.20000000","longitude":"38.60111110","name":"Chequ\ufffdche"},{"id":"1683237","latitude":"-14.78638890","longitude":"38.69166670","name":"Chequeia"},{"id":"1683238","latitude":"-14.78638890","longitude":"38.69166670","name":"Chequ\ufffdze"},{"id":"1683239","latitude":"-14.72194440","longitude":"40.77083330","name":"Cheramatane"},{"id":"1683241","latitude":"-15.56666670","longitude":"40.34638890","name":"Cherequelele"},{"id":"1683242","latitude":"-15.54527780","longitude":"39.70277780","name":"Chereua"},{"id":"1683244","latitude":"-14.13111110","longitude":"40.09083330","name":"Cherico"},{"id":"1683247","latitude":"-15.93027780","longitude":"39.65666670","name":"Cherimba"},{"id":"1683258","latitude":"-14.29611110","longitude":"40.65694440","name":"Cherrinho"},{"id":"1683259","latitude":"-14.82250000","longitude":"37.40111110","name":"Ch\ufffdrrule"},{"id":"1683266","latitude":"-15.39500000","longitude":"39.76666670","name":"Ch\ufffdta"},{"id":"1683267","latitude":"-15.99222220","longitude":"39.84416670","name":"Ch\ufffdti"},{"id":"1683273","latitude":"-15.95944440","longitude":"39.51750000","name":"Cheveni"},{"id":"1683379","latitude":"-14.98833330","longitude":"38.53333330","name":"Chic\ufffd"},{"id":"1683446","latitude":"-14.19805560","longitude":"40.19694440","name":"Chico"},{"id":"1683464","latitude":"-14.86111110","longitude":"40.76250000","name":"Chicoma"},{"id":"1683468","latitude":"-15.18694440","longitude":"39.52888890","name":"Chic\ufffdme"},{"id":"1683512","latitude":"-14.83027780","longitude":"38.82583330","name":"Chicuale"},{"id":"1683519","latitude":"-14.87444440","longitude":"39.82305560","name":"Chicuate"},{"id":"1683650","latitude":"-14.69222220","longitude":"37.45166670","name":"Chihulo"},{"id":"1683651","latitude":"-14.91361110","longitude":"40.16083330","name":"Chiirre"},{"id":"1683734","latitude":"-14.66472220","longitude":"40.68000000","name":"Chimela"},{"id":"1683751","latitude":"-15.87416670","longitude":"39.22138890","name":"Chimoio"},{"id":"1683820","latitude":"-15.02694440","longitude":"40.40833330","name":"Chine"},{"id":"1683825","latitude":"-15.20166670","longitude":"38.69138890","name":"Chinga"},{"id":"1683883","latitude":"-14.58638890","longitude":"40.61583330","name":"Chinte"},{"id":"1683901","latitude":"-13.81333330","longitude":"39.83972220","name":"Chiove"},{"id":"1683974","latitude":"-15.69611110","longitude":"39.67277780","name":"Chipuarra"},{"id":"1684020","latitude":"-14.55527780","longitude":"40.30250000","name":"Chire"},{"id":"1684030","latitude":"-14.77694440","longitude":"38.37694440","name":"Chirima"},{"id":"1684052","latitude":"-15.98361110","longitude":"39.32944440","name":"Chirripo"},{"id":"1684113","latitude":"-14.56666670","longitude":"40.66666670","name":"Chitapane"},{"id":"1684201","latitude":"-14.58638890","longitude":"40.61583330","name":"Chiute"},{"id":"1684280","latitude":"-14.08333330","longitude":"40.15000000","name":"Chomola"},{"id":"1684297","latitude":"-14.66583330","longitude":"38.51472220","name":"Choquel\ufffdque"},{"id":"1684302","latitude":"-15.28666670","longitude":"39.83083330","name":"Chorrula"},{"id":"1684333","latitude":"-14.93333330","longitude":"40.73333330","name":"Chuca"},{"id":"1684335","latitude":"-15.31750000","longitude":"39.80666670","name":"Chuce"},{"id":"1684350","latitude":"-14.86250000","longitude":"40.57638890","name":"Chumalise"},{"id":"1684372","latitude":"-14.34277780","longitude":"38.63444440","name":"Chupura"},{"id":"1684378","latitude":"-14.55527780","longitude":"40.30250000","name":"Chure"},{"id":"1684387","latitude":"-14.85277780","longitude":"37.03527780","name":"Cica"},{"id":"1684388","latitude":"-16.47722220","longitude":"39.08416670","name":"Cicome"},{"id":"1684389","latitude":"-14.18611110","longitude":"38.47361110","name":"Cicua"},{"id":"1684393","latitude":"-14.54277780","longitude":"40.67277780","name":"Cidade de Nacala"},{"id":"1684398","latitude":"-14.65416670","longitude":"37.47000000","name":"Cigarro"},{"id":"1684408","latitude":"-13.68305560","longitude":"40.47000000","name":"Cincoenta"},{"id":"1684414","latitude":"-14.24083330","longitude":"39.11805560","name":"Cinjalo"},{"id":"1684422","latitude":"-15.54194440","longitude":"39.87583330","name":"Cipriano"},{"id":"1684474","latitude":"-15.22888890","longitude":"38.88500000","name":"Coat\ufffdliua"},{"id":"1684482","latitude":"-14.02916670","longitude":"40.19694440","name":"Cobre"},{"id":"1684508","latitude":"-14.60694440","longitude":"37.91861110","name":"C\ufffdc\ufffdrrico"},{"id":"1684513","latitude":"-14.07888890","longitude":"40.54444440","name":"Cocuata"},{"id":"1684525","latitude":"-14.96388890","longitude":"37.38611110","name":"Coelho"},{"id":"1684544","latitude":"-13.52250000","longitude":"40.50416670","name":"Coje"},{"id":"1684549","latitude":"-13.53472220","longitude":"40.03555560","name":"Colava"},{"id":"1684563","latitude":"-14.62694440","longitude":"39.18000000","name":"Coliua"},{"id":"1684568","latitude":"-14.69472220","longitude":"37.42722220","name":"C\ufffdl\ufffdele"},{"id":"1684570","latitude":"-13.73888890","longitude":"39.92333330","name":"Cololo"},{"id":"1684578","latitude":"-15.05250000","longitude":"37.56694440","name":"Colucoia"},{"id":"1684582","latitude":"-15.20777780","longitude":"39.79416670","name":"Colulo"},{"id":"1684584","latitude":"-15.46472220","longitude":"40.53777780","name":"Coluvelane"},{"id":"1684588","latitude":"-15.74194440","longitude":"38.75944440","name":"C\ufffdma"},{"id":"1684590","latitude":"-13.97416670","longitude":"39.79555560","name":"Comala"},{"id":"1684614","latitude":"-15.92694440","longitude":"40.07500000","name":"Comela"},{"id":"1684625","latitude":"-14.59527780","longitude":"38.79416670","name":"Comia"},{"id":"1684638","latitude":"-16.45944440","longitude":"39.73305560","name":"Companhia do Boror"},{"id":"1684640","latitude":"-15.10138890","longitude":"38.19083330","name":"Compania"},{"id":"1684649","latitude":"-16.00888890","longitude":"39.87916670","name":"Conala"},{"id":"1684651","latitude":"-14.58333330","longitude":"40.63333330","name":"Conampia"},{"id":"1684669","latitude":"-14.94000000","longitude":"40.73916670","name":"Cond\ufffdcia"},{"id":"1684683","latitude":"-14.76722220","longitude":"40.30083330","name":"Congo"},{"id":"1684702","latitude":"-14.84416670","longitude":"40.25500000","name":"Conta"},{"id":"1684729","latitude":"-13.86361110","longitude":"40.52916670","name":"Coroma"},{"id":"1684735","latitude":"-16.53333330","longitude":"39.68333330","name":"Corop\ufffda"},{"id":"1684738","latitude":"-15.45944440","longitude":"39.62444440","name":"Corrane"},{"id":"1684739","latitude":"-15.44416670","longitude":"39.79777780","name":"Corranhe"},{"id":"1684742","latitude":"-14.84472220","longitude":"37.12583330","name":"Correia"},{"id":"1684749","latitude":"-15.28138890","longitude":"38.23166670","name":"Correneia"},{"id":"1684752","latitude":"-15.00388890","longitude":"38.41250000","name":"Corroje"},{"id":"1684754","latitude":"-14.56194440","longitude":"39.59777780","name":"Corropa"},{"id":"1684765","latitude":"-16.11527780","longitude":"39.18916670","name":"Costa"},{"id":"1684774","latitude":"-15.61361110","longitude":"39.27750000","name":"Cotarrua"},{"id":"1684784","latitude":"-15.72111110","longitude":"39.61861110","name":"Couto"},{"id":"1684789","latitude":"-14.89888890","longitude":"40.22611110","name":"C\ufffdvarrica"},{"id":"1684793","latitude":"-16.12694440","longitude":"39.56083330","name":"Covera"},{"id":"1684795","latitude":"-14.45583330","longitude":"40.38833330","name":"Covo"},{"id":"1684810","latitude":"-14.95388890","longitude":"37.95805560","name":"Cristvo"},{"id":"1684815","latitude":"-14.99361110","longitude":"40.13833330","name":"Cruz"},{"id":"1684825","latitude":"-15.04111110","longitude":"38.76250000","name":"Cuacua"},{"id":"1684830","latitude":"-15.97305560","longitude":"39.75777780","name":"Cuamba"},{"id":"1684840","latitude":"-13.99694440","longitude":"39.47527780","name":"Cuante"},{"id":"1684841","latitude":"-13.88972220","longitude":"40.32277780","name":"Cuara"},{"id":"1684842","latitude":"-15.69527780","longitude":"39.72527780","name":"Cuar"},{"id":"1684844","latitude":"-14.39583330","longitude":"40.35055560","name":"Cuarrata"},{"id":"1684875","latitude":"-14.11000000","longitude":"39.79805560","name":"Cuela"},{"id":"1684887","latitude":"-15.88416670","longitude":"39.68861110","name":"Cu\ufffdni"},{"id":"1684908","latitude":"-14.58527780","longitude":"37.89888890","name":"Cuirria"},{"id":"1684922","latitude":"-14.37555560","longitude":"40.42166670","name":"Culua"},{"id":"1684925","latitude":"-15.65972220","longitude":"38.79861110","name":"Culue"},{"id":"1684929","latitude":"-15.57111110","longitude":"40.09944440","name":"Cului"},{"id":"1684931","latitude":"-15.68166670","longitude":"40.16805560","name":"Cululo"},{"id":"1684932","latitude":"-13.90694440","longitude":"40.12277780","name":"Culumpa"},{"id":"1684957","latitude":"-14.32416670","longitude":"40.45722220","name":"Cumueque"},{"id":"1684966","latitude":"-15.36194440","longitude":"38.70138890","name":"Cunaxa"},{"id":"1684967","latitude":"-14.67944440","longitude":"39.46277780","name":"Cunca"},{"id":"1684982","latitude":"-15.37638890","longitude":"38.47722220","name":"Cunhagule"},{"id":"1684983","latitude":"-13.76361110","longitude":"40.29444440","name":"Cunhia"},{"id":"1684985","latitude":"-15.15638890","longitude":"38.23694440","name":"Cunle"},{"id":"1684986","latitude":"-15.37250000","longitude":"39.48222220","name":"Cunque"},{"id":"1684988","latitude":"-14.93555560","longitude":"37.17027780","name":"Cunuarra"},{"id":"1684991","latitude":"-14.84138890","longitude":"37.14250000","name":"Cunvarre"},{"id":"1684994","latitude":"-14.69277780","longitude":"37.79111110","name":"Cuomala"},{"id":"1684996","latitude":"-14.98250000","longitude":"40.15888890","name":"Cupa"},{"id":"1685004","latitude":"-15.44083330","longitude":"38.46444440","name":"Cur\ufffd\ufffda"},{"id":"1685013","latitude":"-14.46555560","longitude":"38.93833330","name":"Curria"},{"id":"1685016","latitude":"-16.20000000","longitude":"39.88333330","name":"Curripunia"},{"id":"1685017","latitude":"-15.12083330","longitude":"37.72666670","name":"Currupua"},{"id":"1685018","latitude":"-13.98611110","longitude":"40.42222220","name":"Curua"},{"id":"1685023","latitude":"-16.10888890","longitude":"38.98555560","name":"Cusse"},{"id":"1685024","latitude":"-15.47055560","longitude":"39.10472220","name":"Cussi"},{"id":"1685025","latitude":"-15.95805560","longitude":"39.78694440","name":"Cussufo"},{"id":"1685031","latitude":"-13.89722220","longitude":"39.96138890","name":"Cutocuane"},{"id":"1685037","latitude":"-14.94388890","longitude":"39.82833330","name":"Cuvea"},{"id":"1685038","latitude":"-15.73861110","longitude":"39.43722220","name":"Cuvile"},{"id":"1685103","latitude":"-16.22388890","longitude":"39.32611110","name":"Daniel"},{"id":"1685127","latitude":"-15.38611110","longitude":"39.55750000","name":"Dauto"},{"id":"1685198","latitude":"-14.87805560","longitude":"40.29805560","name":"Dervale"},{"id":"1685220","latitude":"-15.95000000","longitude":"40.23333330","name":"Dielo"},{"id":"1685266","latitude":"-14.53166670","longitude":"37.88944440","name":"Djalo"},{"id":"1685371","latitude":"-14.84083330","longitude":"40.20527780","name":"Duarte"},{"id":"1685430","latitude":"-15.30916670","longitude":"38.12250000","name":"Echaco"},{"id":"1685434","latitude":"-14.26194440","longitude":"40.57000000","name":"Ecota"},{"id":"1685435","latitude":"-14.05833330","longitude":"40.03444440","name":"Ecuba"},{"id":"1685470","latitude":"-16.45666670","longitude":"39.57916670","name":"Emati"},{"id":"1685485","latitude":"-16.20000000","longitude":"39.88333330","name":"Engenheiro"},{"id":"1685495","latitude":"-14.08833330","longitude":"39.30833330","name":"Entalia"},{"id":"1685496","latitude":"-15.11138890","longitude":"38.19472220","name":"Entata"},{"id":"1685504","latitude":"-14.94861110","longitude":"37.41444440","name":"Entre Rios"},{"id":"1685507","latitude":"-15.49250000","longitude":"38.68722220","name":"Enxame"},{"id":"1685509","latitude":"-15.09750000","longitude":"39.94944440","name":"Epipe"},{"id":"1685510","latitude":"-15.77083330","longitude":"39.70583330","name":"Epirisse"},{"id":"1685511","latitude":"-14.30972220","longitude":"40.64027780","name":"Epuita"},{"id":"1685512","latitude":"-15.15527780","longitude":"40.40388890","name":"Epuramo"},{"id":"1685518","latitude":"-14.80222220","longitude":"40.82222220","name":"Erepa"},{"id":"1685519","latitude":"-15.88361110","longitude":"38.85027780","name":"Eric\ufffd"},{"id":"1685521","latitude":"-14.61666670","longitude":"38.25472220","name":"Eriua"},{"id":"1685529","latitude":"-15.65138890","longitude":"39.47722220","name":"Erranza"},{"id":"1685530","latitude":"-15.72833330","longitude":"39.43750000","name":"Err\ufffdti"},{"id":"1685533","latitude":"-15.32277780","longitude":"39.40666670","name":"Erreria"},{"id":"1685556","latitude":"-15.05194440","longitude":"37.61583330","name":"Essarra"},{"id":"1685573","latitude":"-13.85250000","longitude":"39.76277780","name":"Estocala"},{"id":"1685579","latitude":"-15.07500000","longitude":"37.49444440","name":"Estuta"},{"id":"1685586","latitude":"-16.65583330","longitude":"39.13555560","name":"Etupo"},{"id":"1685590","latitude":"-14.11694440","longitude":"39.49888890","name":"Eug\ufffdnio"},{"id":"1685591","latitude":"-14.87194440","longitude":"37.41694440","name":"Eurripa"},{"id":"1685608","latitude":"-15.88305560","longitude":"39.41055560","name":"F\ufffdbula"},{"id":"1685639","latitude":"-15.08166670","longitude":"40.12500000","name":"Faita"},{"id":"1685669","latitude":"-13.92305560","longitude":"40.20194440","name":"Faquira"},{"id":"1685679","latitude":"-16.49472220","longitude":"39.35111110","name":"Faria"},{"id":"1685683","latitude":"-13.75944440","longitude":"40.31722220","name":"Farridje"},{"id":"1685686","latitude":"-14.11055560","longitude":"39.60138890","name":"F\ufffdtima"},{"id":"1685689","latitude":"-14.08750000","longitude":"40.00305560","name":"Faustino"},{"id":"1685719","latitude":"-16.53555560","longitude":"39.38361110","name":"Fermento"},{"id":"1685721","latitude":"-14.90944440","longitude":"40.00388890","name":"Fernandes"},{"id":"1685727","latitude":"-14.24472220","longitude":"40.55833330","name":"Fernando"},{"id":"1685730","latitude":"-14.45861110","longitude":"40.68500000","name":"Fern\ufffdo Veloso"},{"id":"1685746","latitude":"-14.26611110","longitude":"40.74194440","name":"Fica"},{"id":"1685762","latitude":"-15.64638890","longitude":"39.19750000","name":"Filipe"},{"id":"1685779","latitude":"-14.59222220","longitude":"39.38361110","name":"Firmino"},{"id":"1685804","latitude":"-15.04555560","longitude":"37.75500000","name":"Fonseca"},{"id":"1685813","latitude":"-14.22416670","longitude":"40.59527780","name":"Formone"},{"id":"1685834","latitude":"-16.03805560","longitude":"38.93777780","name":"Francisco"},{"id":"1685900","latitude":"-14.77638890","longitude":"40.19638890","name":"Gabriel"},{"id":"1685907","latitude":"-15.02611110","longitude":"40.21555560","name":"Gago"},{"id":"1685934","latitude":"-13.82055560","longitude":"40.40722220","name":"Gamala"},{"id":"1685960","latitude":"-14.60194440","longitude":"40.30194440","name":"Ganharia"},{"id":"1685973","latitude":"-15.03611110","longitude":"40.46388890","name":"Garcia"},{"id":"1686009","latitude":"-14.32500000","longitude":"40.62083330","name":"Geba"},{"id":"1686010","latitude":"-14.32500000","longitude":"40.62083330","name":"Gebo"},{"id":"1686012","latitude":"-14.14388890","longitude":"39.80805560","name":"Gelo"},{"id":"1686014","latitude":"-14.53916670","longitude":"37.45194440","name":"Gemane"},{"id":"1686032","latitude":"-15.71027780","longitude":"40.07638890","name":"Ger\ufffdnimo"},{"id":"1686033","latitude":"-16.03694440","longitude":"39.22166670","name":"Gerra"},{"id":"1686046","latitude":"-15.71750000","longitude":"39.28027780","name":"Gil"},{"id":"1686054","latitude":"-14.78333330","longitude":"40.51666670","name":"Gimo"},{"id":"1686192","latitude":"-15.05000000","longitude":"40.63333330","name":"G\ufffdnio"},{"id":"1686207","latitude":"-14.57416670","longitude":"37.77277780","name":"Gorria"},{"id":"1686222","latitude":"-14.04166670","longitude":"40.02527780","name":"Granducol"},{"id":"1686223","latitude":"-16.42138890","longitude":"39.55722220","name":"Granja Muerrim"},{"id":"1686225","latitude":"-14.52472220","longitude":"40.04555560","name":"Greg\ufffdrio"},{"id":"1686255","latitude":"-16.22666670","longitude":"39.54138890","name":"Guarancia"},{"id":"1686256","latitude":"-14.85638890","longitude":"40.58416670","name":"Guarda"},{"id":"1686259","latitude":"-16.19194440","longitude":"39.46833330","name":"Guarneia"},{"id":"1686406","latitude":"-15.24694440","longitude":"39.51416670","name":"Gundo"},{"id":"1686446","latitude":"-15.30111110","longitude":"39.99500000","name":"Henrique"},{"id":"1686447","latitude":"-14.75111110","longitude":"39.55555560","name":"Henriques"},{"id":"1686451","latitude":"-16.41138890","longitude":"39.57750000","name":"Herdade"},{"id":"1686470","latitude":"-15.30444440","longitude":"39.37611110","name":"Hoqu\ufffd"},{"id":"1686505","latitude":"-15.39555560","longitude":"39.60222220","name":"Ialapane"},{"id":"1686509","latitude":"-14.88083330","longitude":"40.48055560","name":"Iamorrimo"},{"id":"1686510","latitude":"-15.43805560","longitude":"39.62027780","name":"Iampita"},{"id":"1686512","latitude":"-14.29722220","longitude":"39.74527780","name":"Ianca"},{"id":"1686515","latitude":"-15.86305560","longitude":"39.69750000","name":"Ianiv\ufffdri"},{"id":"1686516","latitude":"-16.18333330","longitude":"39.88333330","name":"Iapa"},{"id":"1686518","latitude":"-15.02500000","longitude":"38.04250000","name":"Iapala"},{"id":"1686519","latitude":"-15.89194440","longitude":"39.48722220","name":"Iapili"},{"id":"1686522","latitude":"-16.35000000","longitude":"39.88333330","name":"Iarrupa"},{"id":"1686525","latitude":"-14.59277780","longitude":"37.93527780","name":"Iava"},{"id":"1686532","latitude":"-14.93805560","longitude":"40.52944440","name":"Ibra\ufffdmo"},{"id":"1686540","latitude":"-13.92166670","longitude":"39.55555560","name":"Iei\ufffd"},{"id":"1686545","latitude":"-15.80083330","longitude":"39.26638890","name":"Igreque"},{"id":"1686547","latitude":"-14.26333330","longitude":"40.55166670","name":"Ilapu"},{"id":"1686549","latitude":"-15.03416670","longitude":"40.73583330","name":"Ilha de Mo\ufffdambique"},{"id":"1686551","latitude":"-14.48333330","longitude":"40.68333330","name":"Imade Chali"},{"id":"1686552","latitude":"-14.57777780","longitude":"39.57500000","name":"Imala"},{"id":"1686564","latitude":"-15.24000000","longitude":"40.27194440","name":"Impanane"},{"id":"1686566","latitude":"-15.74111110","longitude":"39.70916670","name":"Imparo"},{"id":"1686567","latitude":"-15.03277780","longitude":"39.34138890","name":"Imparra"},{"id":"1686569","latitude":"-15.03666670","longitude":"38.76555560","name":"Imp\ufffdl\ufffdle"},{"id":"1686570","latitude":"-15.42166670","longitude":"39.02333330","name":"Impirima"},{"id":"1686571","latitude":"-15.65805560","longitude":"39.53166670","name":"Impiriquixe"},{"id":"1686573","latitude":"-15.02333330","longitude":"40.40000000","name":"Imp\ufffdna"},{"id":"1686576","latitude":"-15.43611110","longitude":"38.79638890","name":"Impu\ufffdda"},{"id":"1686578","latitude":"-13.91055560","longitude":"39.75583330","name":"Impute"},{"id":"1686581","latitude":"-14.64944440","longitude":"40.79083330","name":"Inago"},{"id":"1686604","latitude":"-16.33611110","longitude":"39.21944440","name":"Incuana"},{"id":"1686605","latitude":"-15.90305560","longitude":"39.56111110","name":"Incu\ufffdlo"},{"id":"1686732","latitude":"-15.18138890","longitude":"39.00777780","name":"Inhadele"},{"id":"1686792","latitude":"-15.11666670","longitude":"40.56666670","name":"Injaca"},{"id":"1686793","latitude":"-16.15222220","longitude":"39.35583330","name":"Injala"},{"id":"1686798","latitude":"-14.82972220","longitude":"40.52805560","name":"Inlau\ufffd"},{"id":"1686807","latitude":"-15.07166670","longitude":"39.83527780","name":"Inr\ufffdcula"},{"id":"1686808","latitude":"-15.83638890","longitude":"39.67888890","name":"Inr\ufffdra"},{"id":"1686810","latitude":"-14.63666670","longitude":"37.54083330","name":"Inrrama"},{"id":"1686816","latitude":"-15.63777780","longitude":"38.80916670","name":"Int\ufffdb\ufffdla"},{"id":"1686820","latitude":"-14.41805560","longitude":"40.06805560","name":"Intete"},{"id":"1686823","latitude":"-16.23333330","longitude":"39.93333330","name":"Intope"},{"id":"1686827","latitude":"-14.13638890","longitude":"39.91583330","name":"Intuto"},{"id":"1686829","latitude":"-15.65527780","longitude":"38.67805560","name":"Inveia"},{"id":"1686831","latitude":"-14.38666670","longitude":"39.46388890","name":"Inxique"},{"id":"1686832","latitude":"-14.38666670","longitude":"39.46388890","name":"Inxiquixe"},{"id":"1686835","latitude":"-13.92527780","longitude":"39.94055560","name":"Ioburro"},{"id":"1686837","latitude":"-13.62916670","longitude":"40.35722220","name":"Iocuma"},{"id":"1686839","latitude":"-14.88750000","longitude":"37.65777780","name":"I\ufffdle"},{"id":"1686845","latitude":"-14.90166670","longitude":"39.39972220","name":"Iquimane"},{"id":"1686848","latitude":"-14.78666670","longitude":"37.35500000","name":"Iraque"},{"id":"1686851","latitude":"-14.61666670","longitude":"38.25472220","name":"Iriua"},{"id":"1686876","latitude":"-13.93750000","longitude":"40.04416670","name":"Issufo"},{"id":"1686881","latitude":"-14.26333330","longitude":"40.55166670","name":"Itapu"},{"id":"1686884","latitude":"-15.08277780","longitude":"40.57333330","name":"Itipa"},{"id":"1686885","latitude":"-14.72027780","longitude":"40.33638890","name":"Itoculo"},{"id":"1686887","latitude":"-16.62333330","longitude":"39.42166670","name":"Itupa"},{"id":"1686889","latitude":"-15.83444440","longitude":"38.97916670","name":"Iuluti"},{"id":"1686893","latitude":"-14.39527780","longitude":"40.29583330","name":"Iuta"},{"id":"1686897","latitude":"-14.11666670","longitude":"40.05833330","name":"Jacaia"},{"id":"1686898","latitude":"-13.89916670","longitude":"39.82388890","name":"Jacau"},{"id":"1686902","latitude":"-14.93111110","longitude":"40.60138890","name":"Jacinto"},{"id":"1686925","latitude":"-14.98666670","longitude":"40.14694440","name":"Jagaia"},{"id":"1686932","latitude":"-16.44083330","longitude":"39.05111110","name":"Jaime"},{"id":"1686935","latitude":"-14.29555560","longitude":"38.53222220","name":"Jaina"},{"id":"1686938","latitude":"-16.78333330","longitude":"39.23333330","name":"Jajane"},{"id":"1686943","latitude":"-14.14194440","longitude":"40.43472220","name":"Jamal"},{"id":"1686956","latitude":"-15.11666670","longitude":"40.56666670","name":"Jana"},{"id":"1686966","latitude":"-14.12444440","longitude":"40.41388890","name":"Janeiro"},{"id":"1686973","latitude":"-15.32333330","longitude":"39.66472220","name":"Janeque"},{"id":"1686976","latitude":"-14.61388890","longitude":"40.80638890","name":"Janga"},{"id":"1686982","latitude":"-14.64888890","longitude":"40.39972220","name":"Janica"},{"id":"1686990","latitude":"-14.77138890","longitude":"37.04111110","name":"Janu\ufffdrio"},{"id":"1687012","latitude":"-13.97111110","longitude":"40.11750000","name":"Jauela"},{"id":"1687037","latitude":"-14.54388890","longitude":"40.08888890","name":"Jel\ufffd"},{"id":"1687056","latitude":"-14.57861110","longitude":"38.86833330","name":"J\ufffdque"},{"id":"1687072","latitude":"-14.57333330","longitude":"40.03416670","name":"Jerope"},{"id":"1687080","latitude":"-14.99722220","longitude":"40.54250000","name":"J. F. dos Santos"},{"id":"1687095","latitude":"-14.59666670","longitude":"40.56333330","name":"Jimo"},{"id":"1687124","latitude":"-14.93694440","longitude":"39.78000000","name":"Joana"},{"id":"1687151","latitude":"-13.50138890","longitude":"40.12083330","name":"Jo\ufffdo"},{"id":"1687157","latitude":"-15.80055560","longitude":"39.44111110","name":"Jo\ufffdo Macuta"},{"id":"1687177","latitude":"-14.56833330","longitude":"40.03944440","name":"Joaquim"},{"id":"1687201","latitude":"-14.51833330","longitude":"40.69750000","name":"Joge"},{"id":"1687202","latitude":"-15.01361110","longitude":"39.88083330","name":"Jogoio"},{"id":"1687205","latitude":"-14.51972220","longitude":"37.89694440","name":"John"},{"id":"1687250","latitude":"-15.38861110","longitude":"39.59916670","name":"Jone"},{"id":"1687269","latitude":"-14.98444440","longitude":"37.72888890","name":"Jorje"},{"id":"1687287","latitude":"-13.98222220","longitude":"40.20222220","name":"Jos\ufffd"},{"id":"1687292","latitude":"-14.95111110","longitude":"39.28388890","name":"Jos\ufffd Pereira"},{"id":"1687328","latitude":"-13.90055560","longitude":"40.29083330","name":"Juca"},{"id":"1687332","latitude":"-14.64333330","longitude":"39.61638890","name":"Juco"},{"id":"1687364","latitude":"-14.17444440","longitude":"40.49111110","name":"Juma"},{"id":"1687383","latitude":"-14.88583330","longitude":"40.11750000","name":"Jussene"},{"id":"1687417","latitude":"-15.39361110","longitude":"38.66583330","name":"Laca"},{"id":"1687435","latitude":"-13.65111110","longitude":"40.42222220","name":"Laica"},{"id":"1687453","latitude":"-14.48444440","longitude":"38.36611110","name":"Lala"},{"id":"1687456","latitude":"-14.38750000","longitude":"38.26527780","name":"Lalaua"},{"id":"1687457","latitude":"-14.42138890","longitude":"39.37972220","name":"Lalea"},{"id":"1687458","latitude":"-15.12611110","longitude":"40.05777780","name":"Laleca"},{"id":"1687469","latitude":"-16.73388890","longitude":"39.32027780","name":"Lamele"},{"id":"1687473","latitude":"-15.13416670","longitude":"37.95444440","name":"Lampi\ufffdo"},{"id":"1687475","latitude":"-14.00472220","longitude":"39.33416670","name":"Lanca"},{"id":"1687497","latitude":"-14.10000000","longitude":"40.60000000","name":"Langu"},{"id":"1687499","latitude":"-14.35027780","longitude":"39.65722220","name":"Lapaca"},{"id":"1687501","latitude":"-15.41500000","longitude":"39.08416670","name":"Lapa"},{"id":"1687507","latitude":"-15.12527780","longitude":"39.78916670","name":"Laqueique"},{"id":"1687516","latitude":"-16.47722220","longitude":"39.71638890","name":"Larde"},{"id":"1687519","latitude":"-14.59472220","longitude":"40.11000000","name":"Laria"},{"id":"1687520","latitude":"-15.11388890","longitude":"39.75083330","name":"Lassa"},{"id":"1687527","latitude":"-16.52472220","longitude":"39.25583330","name":"Latifo"},{"id":"1687531","latitude":"-14.04500000","longitude":"40.45083330","name":"Lauia"},{"id":"1687536","latitude":"-14.76250000","longitude":"40.74416670","name":"Lave"},{"id":"1687537","latitude":"-15.15666670","longitude":"40.11194440","name":"Lavie"},{"id":"1687548","latitude":"-14.86666670","longitude":"37.72555560","name":"Leal"},{"id":"1687549","latitude":"-13.56972220","longitude":"39.97305560","name":"Leca"},{"id":"1687556","latitude":"-14.92083330","longitude":"37.98583330","name":"Leite Faria"},{"id":"1687557","latitude":"-15.05694440","longitude":"37.51083330","name":"Leite"},{"id":"1687561","latitude":"-14.95583330","longitude":"39.91305560","name":"Lema"},{"id":"1687562","latitude":"-15.11083330","longitude":"39.72250000","name":"Lembra"},{"id":"1687576","latitude":"-15.35611110","longitude":"39.69111110","name":"Lequeia"},{"id":"1687577","latitude":"-15.11750000","longitude":"39.95000000","name":"Leuria"},{"id":"1687578","latitude":"-14.79583330","longitude":"40.03916670","name":"Levecha"},{"id":"1687582","latitude":"-15.17888890","longitude":"39.89750000","name":"Leveque"},{"id":"1687583","latitude":"-14.61055560","longitude":"39.98583330","name":"Leviha"},{"id":"1687589","latitude":"-15.01166670","longitude":"37.69666670","name":"Lhegue"},{"id":"1687591","latitude":"-14.25055560","longitude":"40.19527780","name":"Lialala"},{"id":"1687592","latitude":"-15.00666670","longitude":"37.67500000","name":"Liala"},{"id":"1687610","latitude":"-15.76777780","longitude":"39.21750000","name":"Licanhia"},{"id":"1687634","latitude":"-15.07777780","longitude":"37.25694440","name":"Licu\ufffdngua"},{"id":"1687655","latitude":"-15.17611110","longitude":"37.74000000","name":"Ligonha"},{"id":"1687662","latitude":"-14.57944440","longitude":"40.76555560","name":"Lile"},{"id":"1687665","latitude":"-14.66250000","longitude":"39.29166670","name":"Lima"},{"id":"1687687","latitude":"-16.23333330","longitude":"39.31000000","name":"Liote"},{"id":"1687704","latitude":"-14.54361110","longitude":"40.76666670","name":"Lipupulo"},{"id":"1687718","latitude":"-14.68972220","longitude":"40.09583330","name":"Lissema"},{"id":"1687730","latitude":"-14.78250000","longitude":"40.02138890","name":"Liti"},{"id":"1687744","latitude":"-15.60361110","longitude":"39.94333330","name":"Liupo"},{"id":"1687750","latitude":"-14.11472220","longitude":"40.17361110","name":"Livela"},{"id":"1687759","latitude":"-15.99722220","longitude":"39.28777780","name":"L\ufffdbissa"},{"id":"1687762","latitude":"-14.93333330","longitude":"37.25000000","name":"L\ufffdchue"},{"id":"1687763","latitude":"-15.78666670","longitude":"38.84888890","name":"L\ufffdco"},{"id":"1687778","latitude":"-15.94694440","longitude":"39.30111110","name":"Lonlo"},{"id":"1687780","latitude":"-15.28111110","longitude":"40.20777780","name":"Lopa"},{"id":"1687782","latitude":"-14.60333330","longitude":"40.45361110","name":"Lopes"},{"id":"1687788","latitude":"-14.52555560","longitude":"38.02500000","name":"Lotua"},{"id":"1687791","latitude":"-15.59833330","longitude":"39.56805560","name":"Lourenco"},{"id":"1687798","latitude":"-15.15055560","longitude":"37.83722220","name":"Luaha"},{"id":"1687817","latitude":"-14.23361110","longitude":"40.49222220","name":"Luciano"},{"id":"1687823","latitude":"-14.80555560","longitude":"38.17611110","name":"Lucumune"},{"id":"1687847","latitude":"-14.24000000","longitude":"39.83000000","name":"Lu\ufffds"},{"id":"1687866","latitude":"-15.01055560","longitude":"40.66638890","name":"Lumbo"},{"id":"1687875","latitude":"-15.17833330","longitude":"40.51472220","name":"Lunga"},{"id":"1687876","latitude":"-14.15000000","longitude":"40.60000000","name":"Lungo"},{"id":"1687890","latitude":"-13.53500000","longitude":"40.50416670","name":"L\ufffdrio"},{"id":"1687914","latitude":"-14.49861110","longitude":"37.80694440","name":"Maage"},{"id":"1687916","latitude":"-14.54277780","longitude":"40.67277780","name":"Maaia"},{"id":"1687920","latitude":"-14.50500000","longitude":"40.40472220","name":"Maala"},{"id":"1687922","latitude":"-14.67750000","longitude":"39.42555560","name":"Maalela"},{"id":"1687925","latitude":"-14.52194440","longitude":"40.57527780","name":"Maando"},{"id":"1687929","latitude":"-14.56861110","longitude":"37.46027780","name":"Maano"},{"id":"1687934","latitude":"-14.78277780","longitude":"40.59000000","name":"Maassa"},{"id":"1687935","latitude":"-13.98722220","longitude":"40.42750000","name":"Maata"},{"id":"1687938","latitude":"-14.49055560","longitude":"37.88777780","name":"Ma\ufffdtxe"},{"id":"1687939","latitude":"-13.97861110","longitude":"40.32777780","name":"Maavarra"},{"id":"1687946","latitude":"-15.05694440","longitude":"39.85916670","name":"Mabala"},{"id":"1688045","latitude":"-13.70111110","longitude":"40.50583330","name":"Macaburi"},{"id":"1688070","latitude":"-14.99250000","longitude":"39.81361110","name":"Macala"},{"id":"1688078","latitude":"-13.95000000","longitude":"40.61666670","name":"Macalopa"},{"id":"1688130","latitude":"-15.50750000","longitude":"39.64111110","name":"Macapera"},{"id":"1688138","latitude":"-15.35027780","longitude":"39.44222220","name":"Macarreia"},{"id":"1688151","latitude":"-14.82611110","longitude":"39.62694440","name":"Macassa"},{"id":"1688164","latitude":"-13.99166670","longitude":"40.39888890","name":"Macatene"},{"id":"1688179","latitude":"-15.09111110","longitude":"37.46333330","name":"Macaza"},{"id":"1688206","latitude":"-15.04111110","longitude":"38.00611110","name":"Machagu\ufffdte"},{"id":"1688211","latitude":"-15.75666670","longitude":"39.96444440","name":"Machalo"},{"id":"1688225","latitude":"-14.74305560","longitude":"40.55166670","name":"Machamo"},{"id":"1688238","latitude":"-14.77416670","longitude":"39.80222220","name":"Machangula"},{"id":"1688261","latitude":"-13.93777780","longitude":"40.34833330","name":"Machaua"},{"id":"1688266","latitude":"-14.72972220","longitude":"40.08666670","name":"Machauvuela"},{"id":"1688289","latitude":"-14.55722220","longitude":"40.69888890","name":"M\ufffdchecute"},{"id":"1688313","latitude":"-14.69250000","longitude":"40.69250000","name":"Macheude"},{"id":"1688316","latitude":"-14.00833330","longitude":"40.23722220","name":"Machiala"},{"id":"1688355","latitude":"-13.99361110","longitude":"39.73694440","name":"Machona"},{"id":"1688366","latitude":"-14.56277780","longitude":"40.44194440","name":"Machua"},{"id":"1688396","latitude":"-14.98833330","longitude":"40.31083330","name":"Macigarro"},{"id":"1688399","latitude":"-14.58666670","longitude":"39.30361110","name":"Macira"},{"id":"1688415","latitude":"-14.64194440","longitude":"40.11444440","name":"Macolela"},{"id":"1688431","latitude":"-15.03805560","longitude":"37.83361110","name":"Macomia"},{"id":"1688451","latitude":"-14.23333330","longitude":"40.58333330","name":"Macorrene"},{"id":"1688452","latitude":"-13.98833330","longitude":"40.11333330","name":"Macorri"},{"id":"1688463","latitude":"-15.78833330","longitude":"39.32611110","name":"Macotola"},{"id":"1688477","latitude":"-16.43472220","longitude":"39.45833330","name":"Macua"},{"id":"1688505","latitude":"-14.60805560","longitude":"40.12805560","name":"Macui"},{"id":"1688511","latitude":"-14.99638890","longitude":"39.07777780","name":"Macuje"},{"id":"1688532","latitude":"-15.26694440","longitude":"38.55027780","name":"Macumia"},{"id":"1688552","latitude":"-15.47888890","longitude":"40.14305560","name":"Macupela"},{"id":"1688565","latitude":"-14.02388890","longitude":"39.60277780","name":"Macuto"},{"id":"1688566","latitude":"-16.75000000","longitude":"39.23333330","name":"Macutuga"},{"id":"1688567","latitude":"-15.79138890","longitude":"38.87138890","name":"Macutu"},{"id":"1688569","latitude":"-14.79888890","longitude":"40.40444440","name":"Macuveque"},{"id":"1688689","latitude":"-14.14027780","longitude":"40.50888890","name":"Maeca"},{"id":"1688698","latitude":"-15.31055560","longitude":"40.01583330","name":"Maele"},{"id":"1688706","latitude":"-14.16222220","longitude":"40.11472220","name":"Maetuze"},{"id":"1688810","latitude":"-13.55277780","longitude":"40.50750000","name":"Magege"},{"id":"1688816","latitude":"-15.00500000","longitude":"40.17250000","name":"Magerica"},{"id":"1688877","latitude":"-14.72916670","longitude":"37.07111110","name":"Maguda"},{"id":"1688945","latitude":"-15.11500000","longitude":"39.88583330","name":"Mahala"},{"id":"1689000","latitude":"-14.46638890","longitude":"40.69388890","name":"Maiaia"},{"id":"1689001","latitude":"-14.23527780","longitude":"40.29222220","name":"Maia"},{"id":"1689010","latitude":"-15.50472220","longitude":"39.91611110","name":"Maica"},{"id":"1689011","latitude":"-15.85833330","longitude":"39.09944440","name":"Maicarra"},{"id":"1689024","latitude":"-14.61666670","longitude":"40.78333330","name":"Mailene"},{"id":"1689043","latitude":"-15.80638890","longitude":"39.33250000","name":"Maioela"},{"id":"1689053","latitude":"-14.97416670","longitude":"39.37861110","name":"Maiuaca"},{"id":"1689054","latitude":"-14.69666670","longitude":"38.75027780","name":"Mai\ufffda"},{"id":"1689057","latitude":"-15.12944440","longitude":"39.66527780","name":"Maiu"},{"id":"1689059","latitude":"-14.65500000","longitude":"37.98750000","name":"Maiuta"},{"id":"1689061","latitude":"-15.68250000","longitude":"38.79388890","name":"Ma\ufffdva"},{"id":"1689103","latitude":"-13.96694440","longitude":"40.13166670","name":"Majua"},{"id":"1689118","latitude":"-14.63000000","longitude":"40.66222220","name":"Malaca"},{"id":"1689121","latitude":"-15.14222220","longitude":"37.77444440","name":"Mal\ufffdche"},{"id":"1689125","latitude":"-14.63000000","longitude":"40.66222220","name":"Malacu"},{"id":"1689128","latitude":"-14.98333330","longitude":"37.87472220","name":"Malage"},{"id":"1689130","latitude":"-15.04138890","longitude":"37.51305560","name":"Malaia"},{"id":"1689137","latitude":"-15.04138890","longitude":"37.51305560","name":"Malala"},{"id":"1689141","latitude":"-15.20694440","longitude":"37.72444440","name":"Malalo"},{"id":"1689143","latitude":"-14.76638890","longitude":"37.28694440","name":"Mala"},{"id":"1689152","latitude":"-14.89138890","longitude":"39.81666670","name":"Malancha"},{"id":"1689170","latitude":"-14.50333330","longitude":"40.11250000","name":"Malapo"},{"id":"1689172","latitude":"-15.01666670","longitude":"40.18388890","name":"Malapua"},{"id":"1689174","latitude":"-16.19194440","longitude":"39.93305560","name":"Malatane"},{"id":"1689180","latitude":"-15.28861110","longitude":"39.93666670","name":"Malauia"},{"id":"1689185","latitude":"-15.28750000","longitude":"39.64944440","name":"Malave"},{"id":"1689186","latitude":"-15.00000000","longitude":"40.28333330","name":"Malavi"},{"id":"1689190","latitude":"-15.46861110","longitude":"39.74222220","name":"Maleia"},{"id":"1689192","latitude":"-14.77944440","longitude":"38.61638890","name":"Malema"},{"id":"1689207","latitude":"-16.31777780","longitude":"39.68555560","name":"Malepua"},{"id":"1689208","latitude":"-15.88944440","longitude":"39.31666670","name":"M\ufffdleque"},{"id":"1689221","latitude":"-14.67777780","longitude":"37.45805560","name":"Maliana"},{"id":"1689225","latitude":"-15.10805560","longitude":"38.30277780","name":"Malico"},{"id":"1689228","latitude":"-15.35666670","longitude":"39.58083330","name":"Malieque"},{"id":"1689232","latitude":"-16.48527780","longitude":"39.54722220","name":"Mali"},{"id":"1689236","latitude":"-15.07166670","longitude":"40.49000000","name":"Malimo"},{"id":"1689249","latitude":"-14.94944440","longitude":"37.31750000","name":"Maliua"},{"id":"1689254","latitude":"-15.59666670","longitude":"39.79972220","name":"Maloge"},{"id":"1689256","latitude":"-15.19611110","longitude":"39.45111110","name":"Maloja"},{"id":"1689257","latitude":"-15.59666670","longitude":"39.79972220","name":"Maloje"},{"id":"1689258","latitude":"-14.73777780","longitude":"38.83361110","name":"Malola"},{"id":"1689281","latitude":"-14.15666670","longitude":"40.16500000","name":"Malua"},{"id":"1689290","latitude":"-15.39444440","longitude":"38.61000000","name":"Malucata"},{"id":"1689304","latitude":"-15.82666670","longitude":"38.82500000","name":"Maluo"},{"id":"1689314","latitude":"-14.28833330","longitude":"40.36111110","name":"Mamade"},{"id":"1689342","latitude":"-14.98444440","longitude":"37.69111110","name":"Mamira"},{"id":"1689345","latitude":"-14.91666670","longitude":"38.36666670","name":"Mam\ufffdla"},{"id":"1689347","latitude":"-14.91666670","longitude":"40.65000000","name":"Mampei"},{"id":"1689348","latitude":"-14.07805560","longitude":"39.27972220","name":"Mampue"},{"id":"1689351","latitude":"-14.62416670","longitude":"40.78583330","name":"Mamude"},{"id":"1689352","latitude":"-14.98500000","longitude":"40.49666670","name":"Mamudo"},{"id":"1689354","latitude":"-16.42055560","longitude":"39.05750000","name":"Mamuia"},{"id":"1689355","latitude":"-14.60777780","longitude":"37.27638890","name":"Mamuirre"},{"id":"1689358","latitude":"-15.86277780","longitude":"39.01750000","name":"Mamutamua"},{"id":"1689365","latitude":"-15.91500000","longitude":"39.54166670","name":"Mana"},{"id":"1689380","latitude":"-15.03111110","longitude":"40.18527780","name":"Mancigada"},{"id":"1689403","latitude":"-14.88805560","longitude":"40.38944440","name":"M\ufffdnd\ufffd"},{"id":"1689429","latitude":"-14.69916670","longitude":"40.19750000","name":"Mand\ufffdrria"},{"id":"1689430","latitude":"-14.96888890","longitude":"40.45388890","name":"Manduvi"},{"id":"1689432","latitude":"-15.64388890","longitude":"39.97944440","name":"Maneia"},{"id":"1689545","latitude":"-14.80611110","longitude":"40.40305560","name":"Manh\ufffdrrati"},{"id":"1689580","latitude":"-15.66777780","longitude":"39.78388890","name":"Manhunho"},{"id":"1689584","latitude":"-14.29472220","longitude":"40.34333330","name":"Mania"},{"id":"1689589","latitude":"-15.13638890","longitude":"38.26361110","name":"Manica"},{"id":"1689609","latitude":"-14.79888890","longitude":"37.68055560","name":"Manlia"},{"id":"1689615","latitude":"-15.67333330","longitude":"40.02777780","name":"Manoel"},{"id":"1689619","latitude":"-15.87500000","longitude":"39.61888890","name":"Manta"},{"id":"1689620","latitude":"-15.91916670","longitude":"39.67305560","name":"Mantanha"},{"id":"1689631","latitude":"-16.04333330","longitude":"40.07000000","name":"Manuela"},{"id":"1689641","latitude":"-14.05500000","longitude":"40.55500000","name":"Manuel"},{"id":"1689650","latitude":"-15.85750000","longitude":"39.48888890","name":"M\ufffdnula"},{"id":"1689671","latitude":"-14.83416670","longitude":"39.41277780","name":"Maolelane"},{"id":"1689684","latitude":"-14.62138890","longitude":"40.71638890","name":"Mapaguira"},{"id":"1689687","latitude":"-14.47666670","longitude":"40.01388890","name":"Mapaio"},{"id":"1689704","latitude":"-14.62138890","longitude":"40.71638890","name":"Mapaquira"},{"id":"1689721","latitude":"-14.98861110","longitude":"40.69055560","name":"Mapeta"},{"id":"1689729","latitude":"-13.52138890","longitude":"40.30305560","name":"Mapilima"},{"id":"1689740","latitude":"-14.24333330","longitude":"38.40972220","name":"Mapitua"},{"id":"1689757","latitude":"-15.92138890","longitude":"39.77500000","name":"Mapucho"},{"id":"1689778","latitude":"-14.84750000","longitude":"40.72027780","name":"Maputo"},{"id":"1689786","latitude":"-15.58888890","longitude":"39.82805560","name":"Maquela"},{"id":"1689805","latitude":"-15.04972220","longitude":"37.94027780","name":"M\ufffdquina"},{"id":"1689811","latitude":"-15.09722220","longitude":"37.51111110","name":"Maquitatulo"},{"id":"1689819","latitude":"-14.42777780","longitude":"40.27638890","name":"Marapala"},{"id":"1689823","latitude":"-14.43916670","longitude":"40.72166670","name":"Marazarazi"},{"id":"1689825","latitude":"-14.66972220","longitude":"40.41083330","name":"Marcelo"},{"id":"1689826","latitude":"-14.07861110","longitude":"40.62055560","name":"Marcngi"},{"id":"1689827","latitude":"-14.16777780","longitude":"38.93944440","name":"Marc\ufffda"},{"id":"1689828","latitude":"-14.77250000","longitude":"40.56555560","name":"Marco"},{"id":"1689831","latitude":"-14.99916670","longitude":"37.27750000","name":"Marcou"},{"id":"1689837","latitude":"-14.19222220","longitude":"40.12972220","name":"Marelia"},{"id":"1689841","latitude":"-14.58472220","longitude":"40.13194440","name":"Marenga"},{"id":"1689843","latitude":"-14.07861110","longitude":"40.62055560","name":"Marengi"},{"id":"1689844","latitude":"-15.71138890","longitude":"39.83638890","name":"Marepela"},{"id":"1689849","latitude":"-14.26194440","longitude":"40.59361110","name":"Maresane"},{"id":"1689850","latitude":"-16.38333330","longitude":"39.88333330","name":"Maressa"},{"id":"1689855","latitude":"-14.49944440","longitude":"37.88638890","name":"Maria"},{"id":"1689860","latitude":"-13.63222220","longitude":"40.28166670","name":"Mariano"},{"id":"1689864","latitude":"-14.84416670","longitude":"37.40583330","name":"Maric\ufffda"},{"id":"1689872","latitude":"-14.53333330","longitude":"40.66666670","name":"Marigariga"},{"id":"1689887","latitude":"-14.23861110","longitude":"38.84055560","name":"Marinxana"},{"id":"1689890","latitude":"-15.00805560","longitude":"39.02111110","name":"M\ufffdrio"},{"id":"1689897","latitude":"-14.45000000","longitude":"40.68333330","name":"Maroas"},{"id":"1689907","latitude":"-14.70638890","longitude":"36.99277780","name":"Marques"},{"id":"1689919","latitude":"-15.23083330","longitude":"39.41527780","name":"Marra"},{"id":"1689924","latitude":"-15.30194440","longitude":"40.17833330","name":"Marrapo"},{"id":"1689927","latitude":"-13.53944440","longitude":"40.40861110","name":"Marratamel"},{"id":"1689928","latitude":"-15.12472220","longitude":"40.39722220","name":"Marrato"},{"id":"1689929","latitude":"-15.07805560","longitude":"39.41222220","name":"Marreca"},{"id":"1689932","latitude":"-14.43638890","longitude":"38.71527780","name":"Marreia"},{"id":"1689935","latitude":"-15.92527780","longitude":"39.54111110","name":"Marr\ufffdp\ufffda"},{"id":"1689936","latitude":"-14.75722220","longitude":"40.27805560","name":"Marreque"},{"id":"1689937","latitude":"-14.95666670","longitude":"39.79333330","name":"Marreria"},{"id":"1689938","latitude":"-14.59972220","longitude":"40.60111110","name":"Marria"},{"id":"1689945","latitude":"-15.44888890","longitude":"38.89166670","name":"Marrita"},{"id":"1689950","latitude":"-14.63000000","longitude":"40.18416670","name":"Marrua"},{"id":"1689975","latitude":"-13.98194440","longitude":"39.76694440","name":"Marruria"},{"id":"1689983","latitude":"-14.06527780","longitude":"39.52277780","name":"Martinho"},{"id":"1689990","latitude":"-15.82027780","longitude":"40.07000000","name":"Maru\ufffd"},{"id":"1690001","latitude":"-16.39694440","longitude":"39.89416670","name":"Masiuane"},{"id":"1690007","latitude":"-14.97194440","longitude":"40.53583330","name":"Massaca"},{"id":"1690053","latitude":"-14.57083330","longitude":"39.40805560","name":"Massaua"},{"id":"1690093","latitude":"-14.60472220","longitude":"38.48111110","name":"M\ufffdssi"},{"id":"1690148","latitude":"-15.79138890","longitude":"38.87138890","name":"Massuti"},{"id":"1690164","latitude":"-14.26138890","longitude":"38.70111110","name":"Mataca"},{"id":"1690176","latitude":"-15.39944440","longitude":"39.10000000","name":"Mataia"},{"id":"1690187","latitude":"-14.32611110","longitude":"40.10611110","name":"Mata"},{"id":"1690209","latitude":"-14.51583330","longitude":"40.56916670","name":"Matanla"},{"id":"1690212","latitude":"-15.10555560","longitude":"39.94972220","name":"Matapa"},{"id":"1690222","latitude":"-14.93583330","longitude":"38.13888890","name":"Matarij"},{"id":"1690247","latitude":"-14.08000000","longitude":"39.93805560","name":"Mateco"},{"id":"1690249","latitude":"-16.10000000","longitude":"39.36666670","name":"Matela"},{"id":"1690283","latitude":"-14.50805560","longitude":"37.89027780","name":"Mateu"},{"id":"1690304","latitude":"-14.98111110","longitude":"39.94333330","name":"Matia"},{"id":"1690307","latitude":"-15.05250000","longitude":"37.56694440","name":"Matias"},{"id":"1690309","latitude":"-14.86111110","longitude":"40.76250000","name":"Matibane"},{"id":"1690315","latitude":"-15.28861110","longitude":"39.95250000","name":"Matico"},{"id":"1690324","latitude":"-14.38916670","longitude":"40.41638890","name":"Matilene"},{"id":"1690337","latitude":"-16.22611110","longitude":"39.55000000","name":"Matina"},{"id":"1690343","latitude":"-15.41972220","longitude":"39.18972220","name":"Matipa"},{"id":"1690345","latitude":"-15.63388890","longitude":"39.02222220","name":"Matipela"},{"id":"1690346","latitude":"-15.35416670","longitude":"39.57333330","name":"Matipia"},{"id":"1690351","latitude":"-14.41888890","longitude":"40.77277780","name":"Matiquite"},{"id":"1690358","latitude":"-14.93555560","longitude":"37.95305560","name":"M\ufffdt\ufffdc\ufffdrre"},{"id":"1690362","latitude":"-14.83388890","longitude":"37.04361110","name":"Matola"},{"id":"1690368","latitude":"-14.73250000","longitude":"39.78111110","name":"Mato"},{"id":"1690387","latitude":"-14.75000000","longitude":"40.29388890","name":"Mat\ufffdrro"},{"id":"1690426","latitude":"-16.15583330","longitude":"39.80277780","name":"Matulo"},{"id":"1690440","latitude":"-13.51333330","longitude":"40.11611110","name":"Matupulucha"},{"id":"1690443","latitude":"-13.99472220","longitude":"39.98666670","name":"Matuta"},{"id":"1690447","latitude":"-13.98944440","longitude":"39.92444440","name":"Matuto"},{"id":"1690449","latitude":"-14.83555560","longitude":"39.28972220","name":"Matuve"},{"id":"1690464","latitude":"-13.70722220","longitude":"40.55083330","name":"Mauala"},{"id":"1690466","latitude":"-14.72083330","longitude":"37.66583330","name":"Maua"},{"id":"1690482","latitude":"-15.99416670","longitude":"39.73611110","name":"Maueia"},{"id":"1690490","latitude":"-14.50138890","longitude":"38.96833330","name":"Mauio"},{"id":"1690500","latitude":"-15.74638890","longitude":"39.28805560","name":"Ma\ufffdla"},