[{"id":"1711485","latitude":"7.81666670","longitude":"7.53333330","name":"Abajikolo"},{"id":"1711600","latitude":"8.38972220","longitude":"6.98611110","name":"Abaza"},{"id":"1711640","latitude":"8.03333330","longitude":"6.90000000","name":"Abehu"},{"id":"1711642","latitude":"7.81666670","longitude":"7.53333330","name":"Abejukolo"},{"id":"1711911","latitude":"8.40916670","longitude":"7.00277780","name":"Achido"},{"id":"1711981","latitude":"7.93333330","longitude":"6.80000000","name":"Adama"},{"id":"1711983","latitude":"7.46666670","longitude":"6.76666670","name":"Adam"},{"id":"1712003","latitude":"7.98333330","longitude":"6.76666670","name":"Adana"},{"id":"1712210","latitude":"7.51666670","longitude":"6.48333330","name":"Adogo"},{"id":"1712214","latitude":"7.91666670","longitude":"7.60000000","name":"Adoka"},{"id":"1712222","latitude":"7.46666670","longitude":"6.76666670","name":"Adom"},{"id":"1712223","latitude":"7.81666670","longitude":"6.70000000","name":"Adonkolo"},{"id":"1712250","latitude":"8.06250000","longitude":"6.99305560","name":"Adumata"},{"id":"1712474","latitude":"7.98333330","longitude":"6.65000000","name":"Agbaja"},{"id":"1713069","latitude":"7.46666670","longitude":"6.70000000","name":"Ajaokuta"},{"id":"1713170","latitude":"7.80000000","longitude":"7.55000000","name":"Ajibu"},{"id":"1713574","latitude":"7.86666670","longitude":"6.46666670","name":"Akpata"},{"id":"1714098","latitude":"7.41666670","longitude":"6.73333330","name":"Alo"},{"id":"1714201","latitude":"8.00250000","longitude":"7.54611110","name":"Amagede"},{"id":"1714282","latitude":"8.00750000","longitude":"7.40083330","name":"Amara"},{"id":"1715140","latitude":"7.98333330","longitude":"6.80000000","name":"Arugaga"},{"id":"1715392","latitude":"7.78333330","longitude":"6.78333330","name":"Atakpa"},{"id":"1715784","latitude":"7.41666670","longitude":"6.75000000","name":"Ayanka"},{"id":"1716136","latitude":"7.99916670","longitude":"7.58361110","name":"Bagana"},{"id":"1716325","latitude":"7.88333330","longitude":"7.53333330","name":"Bakumi"},{"id":"1716497","latitude":"7.88333330","longitude":"6.75000000","name":"Banda"},{"id":"1717354","latitude":"7.98333330","longitude":"7.30000000","name":"Bishua"},{"id":"1717609","latitude":"7.85000000","longitude":"7.43333330","name":"Braidu"},{"id":"1717715","latitude":"7.99916670","longitude":"7.58361110","name":"Bugana"},{"id":"1717743","latitude":"7.88333330","longitude":"7.53333330","name":"Bukami"},{"id":"1718316","latitude":"7.66666670","longitude":"6.78333330","name":"Chita"},{"id":"1718908","latitude":"7.88333330","longitude":"6.86666670","name":"Dangerri"},{"id":"1720077","latitude":"7.85000000","longitude":"7.60000000","name":"Ebiradu"},{"id":"1720078","latitude":"7.53333330","longitude":"6.41666670","name":"Ebiya"},{"id":"1720235","latitude":"7.53333330","longitude":"6.46666670","name":"Eganyi"},{"id":"1720302","latitude":"7.60000000","longitude":"6.71666670","name":"Egbu"},{"id":"1720330","latitude":"7.43333330","longitude":"6.80000000","name":"Egomicha"},{"id":"1720397","latitude":"7.86666670","longitude":"7.63333330","name":"Ejali"},{"id":"1720420","latitude":"7.98333330","longitude":"7.65000000","name":"Ejima"},{"id":"1720792","latitude":"7.71666670","longitude":"6.86666670","name":"Eluli"},{"id":"1720832","latitude":"7.75000000","longitude":"6.91666670","name":"Emi Atsumbe"},{"id":"1720840","latitude":"7.48333330","longitude":"6.78333330","name":"Emikudamisi"},{"id":"1720858","latitude":"7.73333330","longitude":"6.76666670","name":"Emiwoziri"},{"id":"1720867","latitude":"7.96666670","longitude":"6.61666670","name":"Emu"},{"id":"1721004","latitude":"7.58333330","longitude":"6.70000000","name":"Ero"},{"id":"1721007","latitude":"7.56666670","longitude":"6.70000000","name":"Eroko"},{"id":"1721120","latitude":"7.41666670","longitude":"6.71666670","name":"Etobe"},{"id":"1721524","latitude":"7.85000000","longitude":"6.71666670","name":"Felelen Buzu"},{"id":"1721567","latitude":"7.85000000","longitude":"6.71666670","name":"Filele"},{"id":"1722584","latitude":"7.70000000","longitude":"6.80000000","name":"Gbagbachi"},{"id":"1722589","latitude":"7.70000000","longitude":"6.78333330","name":"Gbagede"},{"id":"1722764","latitude":"7.71666670","longitude":"6.90000000","name":"Gboloka"},{"id":"1722779","latitude":"7.71666670","longitude":"6.90000000","name":"Gbonoko"},{"id":"1722793","latitude":"8.06555560","longitude":"6.98527780","name":"Gbugbudu"},{"id":"1722864","latitude":"7.56666670","longitude":"6.70000000","name":"Geregu"},{"id":"1723472","latitude":"8.94138890","longitude":"7.50888890","name":"Ginda"},{"id":"1724952","latitude":"7.70000000","longitude":"6.76666670","name":"Icheu"},{"id":"1725040","latitude":"7.48333330","longitude":"6.58333330","name":"Idibo"},{"id":"1726434","latitude":"7.50000000","longitude":"6.50000000","name":"Ilashe"},{"id":"1726568","latitude":"7.50000000","longitude":"6.50000000","name":"Iloshi"},{"id":"1726575","latitude":"7.53333330","longitude":"6.45000000","name":"Ilubusechi"},{"id":"1726761","latitude":"7.95000000","longitude":"7.56666670","name":"Iole"},{"id":"1726918","latitude":"7.56666670","longitude":"6.70000000","name":"Iroko"},{"id":"1727238","latitude":"7.41666670","longitude":"6.71666670","name":"Itobe"},{"id":"1727366","latitude":"7.91666670","longitude":"7.38333330","name":"Iyadi"},{"id":"1727413","latitude":"7.91666670","longitude":"7.38333330","name":"Iyeddi"},{"id":"1727418","latitude":"7.91666670","longitude":"7.38333330","name":"Iyedi"},{"id":"1727487","latitude":"7.96666670","longitude":"6.76666670","name":"Iziho"},{"id":"1727797","latitude":"7.86666670","longitude":"7.41666670","name":"Jato"},{"id":"1728116","latitude":"8.05000000","longitude":"6.95000000","name":"Jinjere"},{"id":"1729851","latitude":"7.65000000","longitude":"6.73333330","name":"Koji"},{"id":"1730177","latitude":"7.76666670","longitude":"6.80000000","name":"Kpatakpali"},{"id":"1730178","latitude":"7.76666670","longitude":"6.80000000","name":"Kpatakpoli"},{"id":"1730179","latitude":"7.73333330","longitude":"6.80000000","name":"Kpato"},{"id":"1730486","latitude":"7.98333330","longitude":"6.78333330","name":"Kuma"},{"id":"1730747","latitude":"7.66666670","longitude":"6.73333330","name":"Kuroko"},{"id":"1731189","latitude":"7.83333330","longitude":"7.40000000","name":"Kwiambana"},{"id":"1731349","latitude":"7.91666670","longitude":"7.53333330","name":"Laffa"},{"id":"1731378","latitude":"7.91666670","longitude":"7.53333330","name":"Lafo"},{"id":"1731421","latitude":"7.80000000","longitude":"6.73333330","name":"Lairdstown"},{"id":"1731885","latitude":"7.80000000","longitude":"6.73333330","name":"Lokoja"},{"id":"1732276","latitude":"7.48333330","longitude":"6.80000000","name":"Magu"},{"id":"1732313","latitude":"8.00166670","longitude":"7.47888890","name":"Maiagu"},{"id":"1732461","latitude":"8.00166670","longitude":"7.47888890","name":"Maiogu"},{"id":"1734142","latitude":"7.48333330","longitude":"6.78333330","name":"Nabure"},{"id":"1735077","latitude":"7.81666670","longitude":"6.76666670","name":"Numai"},{"id":"1735119","latitude":"7.93333330","longitude":"7.43333330","name":"Nupe"},{"id":"1735174","latitude":"7.76666670","longitude":"6.91666670","name":"Nyangpo"},{"id":"1735176","latitude":"7.76666670","longitude":"6.91666670","name":"Nyankpo"},{"id":"1735189","latitude":"8.00000000","longitude":"7.33333330","name":"Nyebu"},{"id":"1735276","latitude":"7.91666670","longitude":"6.43333330","name":"Obajana"},{"id":"1735561","latitude":"7.98333330","longitude":"7.51666670","name":"Odagba"},{"id":"1735562","latitude":"7.98333330","longitude":"7.51666670","name":"Odagbo"},{"id":"1735839","latitude":"7.53333330","longitude":"6.46666670","name":"Ogain"},{"id":"1736181","latitude":"7.96666670","longitude":"7.48333330","name":"Ohaifo"},{"id":"1736182","latitude":"7.96666670","longitude":"7.48333330","name":"Ohaifor"},{"id":"1736230","latitude":"7.46666670","longitude":"6.66666670","name":"Ohunene"},{"id":"1736829","latitude":"7.86666670","longitude":"6.78333330","name":"Okume"},{"id":"1737425","latitude":"7.41666670","longitude":"6.66666670","name":"Onado"},{"id":"1737637","latitude":"8.01555560","longitude":"7.32888890","name":"Onyebu"},{"id":"1737954","latitude":"7.68333330","longitude":"6.43333330","name":"Osara"},{"id":"1738136","latitude":"7.93333330","longitude":"6.73333330","name":"Otuba"},{"id":"1738301","latitude":"8.07750000","longitude":"6.98305560","name":"Owubu"},{"id":"1738751","latitude":"8.00000000","longitude":"6.96666670","name":"Poto"},{"id":"1739824","latitude":"8.89722220","longitude":"7.50722220","name":"Sape"},{"id":"1740317","latitude":"7.86666670","longitude":"6.78333330","name":"Shikaku"},{"id":"1740364","latitude":"7.71666670","longitude":"6.76666670","name":"Shintaku"},{"id":"1740857","latitude":"8.01666670","longitude":"6.60000000","name":"Tajimi"},{"id":"1740888","latitude":"7.71666670","longitude":"6.90000000","name":"Takefi"},{"id":"1740891","latitude":"7.71666670","longitude":"6.90000000","name":"Takete"},{"id":"1740893","latitude":"7.71666670","longitude":"6.90000000","name":"Taketi"},{"id":"1740906","latitude":"7.53333330","longitude":"6.71666670","name":"Takumena"},{"id":"1742582","latitude":"7.46666670","longitude":"6.51666670","name":"Ugoli"},{"id":"1744333","latitude":"7.96666670","longitude":"6.61666670","name":"Waye"},{"id":"1744373","latitude":"7.91666670","longitude":"6.78333330","name":"Wodata"},{"id":"1744936","latitude":"7.98333330","longitude":"6.75000000","name":"Yanemi"},{"id":"1745053","latitude":"7.95000000","longitude":"6.78333330","name":"Yashiyali"},{"id":"1745057","latitude":"7.90000000","longitude":"6.78333330","name":"Yasisule"},{"id":"1745350","latitude":"7.98333330","longitude":"6.93333330","name":"Zagi"},{"id":"1745579","latitude":"8.90888890","longitude":"7.51027780","name":"Ziona"},{"id":"1745594","latitude":"7.80000000","longitude":"6.73333330","name":"Zokoja"},{"id":"1745616","latitude":"7.81666670","longitude":"6.65000000","name":"Zongon Daji"}]