[{"id":"1824814","latitude":"12.96277800","longitude":"123.66805600","name":"Abas"},{"id":"1824904","latitude":"12.94750000","longitude":"123.64916700","name":"Abucay"},{"id":"1824934","latitude":"12.94666700","longitude":"124.05527800","name":"Abuyog"},{"id":"1825296","latitude":"12.81666700","longitude":"123.83333300","name":"Aguada"},{"id":"1825536","latitude":"12.86666700","longitude":"124.13333300","name":"Alegria"},{"id":"1825641","latitude":"12.99055600","longitude":"123.53027800","name":"Alin"},{"id":"1825972","latitude":"12.93138900","longitude":"123.85305600","name":"Amomonting"},{"id":"1825973","latitude":"12.93138900","longitude":"123.85305600","name":"Amomoting"},{"id":"1825979","latitude":"12.93138900","longitude":"123.85305600","name":"Amonting"},{"id":"1826253","latitude":"12.80111100","longitude":"124.01444400","name":"Aniog"},{"id":"1826290","latitude":"12.81194400","longitude":"123.99194400","name":"A\ufffdog"},{"id":"1826592","latitude":"12.91666700","longitude":"124.11666700","name":"Ariman"},{"id":"1826621","latitude":"12.81666700","longitude":"124.00000000","name":"Aroroy"},{"id":"1827051","latitude":"12.78333300","longitude":"124.00000000","name":"Bacolod"},{"id":"1827063","latitude":"13.03777800","longitude":"124.04111100","name":"Bacon"},{"id":"1827170","latitude":"12.55666700","longitude":"123.97833300","name":"Badiang"},{"id":"1827186","latitude":"12.55666700","longitude":"123.97833300","name":"Badiong"},{"id":"1827244","latitude":"12.98861100","longitude":"124.14111100","name":"Bagacay"},{"id":"1827276","latitude":"12.93333300","longitude":"123.83333300","name":"Bagalayag"},{"id":"1827334","latitude":"12.82611100","longitude":"123.81472200","name":"Bagea"},{"id":"1827364","latitude":"12.65500000","longitude":"123.89666700","name":"Bago"},{"id":"1827448","latitude":"12.95000000","longitude":"123.90000000","name":"Bagongsirang"},{"id":"1827458","latitude":"12.91666700","longitude":"124.06666700","name":"Bagouahan"},{"id":"1827462","latitude":"12.71666700","longitude":"124.03333300","name":"Bagsagan"},{"id":"1827470","latitude":"12.71666700","longitude":"124.03333300","name":"Bagsangan"},{"id":"1827801","latitude":"12.83333300","longitude":"123.83333300","name":"Balagting"},{"id":"1828069","latitude":"13.01916700","longitude":"124.03194400","name":"Balete"},{"id":"1828337","latitude":"12.58333300","longitude":"124.08333300","name":"Balocawe"},{"id":"1828372","latitude":"12.96666700","longitude":"124.00000000","name":"Balogo"},{"id":"1828540","latitude":"12.95777800","longitude":"123.60888900","name":"Bamaang Gurang"},{"id":"1828699","latitude":"12.65000000","longitude":"124.00000000","name":"Banban"},{"id":"1828935","latitude":"12.63333300","longitude":"124.00000000","name":"Bangtohan"},{"id":"1829076","latitude":"12.90500000","longitude":"123.85138900","name":"Bantaron"},{"id":"1829108","latitude":"12.84750000","longitude":"123.73250000","name":"Bantigui"},{"id":"1829159","latitude":"13.01194400","longitude":"123.59888900","name":"Banuang"},{"id":"1829161","latitude":"13.01194400","longitude":"123.59888900","name":"Banuang Gurang"},{"id":"1829162","latitude":"13.01194400","longitude":"123.59888900","name":"Banuangurang"},{"id":"1829309","latitude":"13.00000000","longitude":"123.61666700","name":"Baras"},{"id":"1829326","latitude":"12.96666700","longitude":"124.00000000","name":"Barayong"},{"id":"1829346","latitude":"12.86833300","longitude":"124.14111100","name":"Barcelona"},{"id":"1829366","latitude":"12.61666700","longitude":"124.08333300","name":"Bariis"},{"id":"1829398","latitude":"12.76666700","longitude":"124.10000000","name":"Bariw"},{"id":"1829603","latitude":"12.98888900","longitude":"123.95000000","name":"Basud"},{"id":"1829664","latitude":"12.69861100","longitude":"123.99416700","name":"Batang"},{"id":"1829764","latitude":"13.00416700","longitude":"124.09111100","name":"Bato"},{"id":"1829958","latitude":"12.93222200","longitude":"123.82138900","name":"Bayalarag"},{"id":"1829997","latitude":"12.98611100","longitude":"123.69305600","name":"Bayasong"},{"id":"1830007","latitude":"12.95416700","longitude":"123.61444400","name":"Bayawas"},{"id":"1830144","latitude":"12.69583300","longitude":"123.90361100","name":"Beguin"},{"id":"1830146","latitude":"12.83333300","longitude":"123.83333300","name":"Behia"},{"id":"1830212","latitude":"12.86000000","longitude":"124.07972200","name":"Bentuco"},{"id":"1830262","latitude":"12.86666700","longitude":"124.13333300","name":"Biac-Bato"},{"id":"1830301","latitude":"12.98361100","longitude":"124.01416700","name":"Bibincahan"},{"id":"1830302","latitude":"12.98361100","longitude":"124.01416700","name":"Bibingcahan"},{"id":"1830313","latitude":"12.73333300","longitude":"123.95000000","name":"Bical"},{"id":"1830368","latitude":"13.03472200","longitude":"123.67861100","name":"Bigao"},{"id":"1830605","latitude":"12.85000000","longitude":"123.98333300","name":"Binanuahan"},{"id":"1830728","latitude":"13.03333300","longitude":"124.18333300","name":"Binontolan"},{"id":"1830828","latitude":"12.85888900","longitude":"123.95777800","name":"Biriran"},{"id":"1830848","latitude":"13.03611100","longitude":"124.16222200","name":"Bisitang-daan"},{"id":"1830905","latitude":"12.75583300","longitude":"123.84777800","name":"Biten"},{"id":"1830930","latitude":"12.61111100","longitude":"123.94083300","name":"Biton"},{"id":"1830959","latitude":"12.71666700","longitude":"123.88333300","name":"Biyul"},{"id":"1831081","latitude":"12.90000000","longitude":"123.83333300","name":"Bog\ufffda"},{"id":"1831084","latitude":"13.03333300","longitude":"124.03333300","name":"Bogna-Caricaran"},{"id":"1831086","latitude":"12.66750000","longitude":"123.93111100","name":"Bognog"},{"id":"1831091","latitude":"12.65500000","longitude":"123.89666700","name":"Bogo"},{"id":"1831107","latitude":"12.86444400","longitude":"124.11444400","name":"Bogtong"},{"id":"1831118","latitude":"12.84750000","longitude":"124.02833300","name":"Boho"},{"id":"1831127","latitude":"12.84750000","longitude":"124.02833300","name":"Bojo"},{"id":"1831246","latitude":"12.76666700","longitude":"124.00000000","name":"Bolos"},{"id":"1831329","latitude":"12.90000000","longitude":"123.83333300","name":"Bonga"},{"id":"1831390","latitude":"12.66750000","longitude":"123.93111100","name":"Bo\ufffdgog"},{"id":"1831434","latitude":"12.89388900","longitude":"123.80722200","name":"Bonot"},{"id":"1831590","latitude":"12.92611100","longitude":"124.04388900","name":"Boton"},{"id":"1831595","latitude":"12.86444400","longitude":"124.11444400","name":"Botong"},{"id":"1831653","latitude":"12.93333300","longitude":"123.66666700","name":"Bual"},{"id":"1831758","latitude":"12.98083300","longitude":"123.91555600","name":"Bucalbucalan"},{"id":"1831870","latitude":"12.69388900","longitude":"124.02027800","name":"Buena Vista"},{"id":"1831871","latitude":"12.86666700","longitude":"123.75000000","name":"Buenavista"},{"id":"1831963","latitude":"12.85000000","longitude":"124.10000000","name":"Bugna"},{"id":"1832021","latitude":"12.80000000","longitude":"124.15000000","name":"Buhang"},{"id":"1832038","latitude":"12.97222200","longitude":"124.05166700","name":"Buhatan"},{"id":"1832108","latitude":"12.98111100","longitude":"123.90666700","name":"Bulabag"},{"id":"1832110","latitude":"12.98111100","longitude":"123.90666700","name":"Bulabog"},{"id":"1832113","latitude":"12.98111100","longitude":"123.90666700","name":"Bulabug"},{"id":"1832131","latitude":"12.88861100","longitude":"124.09444400","name":"Bulacao"},{"id":"1832204","latitude":"12.67138900","longitude":"123.87500000","name":"Bulan"},{"id":"1832232","latitude":"12.96666700","longitude":"124.06666700","name":"Bulatan"},{"id":"1832238","latitude":"12.71694400","longitude":"123.96805600","name":"Bulauan"},{"id":"1832243","latitude":"13.03333300","longitude":"124.16666700","name":"Bulawan"},{"id":"1832347","latitude":"12.67138900","longitude":"123.87500000","name":"Bulsan"},{"id":"1832391","latitude":"12.75805600","longitude":"124.13527800","name":"Bulusan"},{"id":"1832408","latitude":"13.05722200","longitude":"124.10916700","name":"Bunag"},{"id":"1832417","latitude":"12.78333300","longitude":"124.15000000","name":"Bunan"},{"id":"1832466","latitude":"12.91277800","longitude":"123.83638900","name":"Bunga"},{"id":"1832500","latitude":"13.03333300","longitude":"123.61666700","name":"Bungao"},{"id":"1832610","latitude":"12.95000000","longitude":"123.78333300","name":"Burabod"},{"id":"1832619","latitude":"12.85000000","longitude":"123.98333300","name":"Buraburan"},{"id":"1832662","latitude":"12.88527800","longitude":"124.05638900","name":"Burgos"},{"id":"1832714","latitude":"12.63333300","longitude":"124.10000000","name":"Busaingan"},{"id":"1832759","latitude":"12.63333300","longitude":"124.10000000","name":"Busing"},{"id":"1832787","latitude":"12.62916700","longitude":"123.93444400","name":"Butag"},{"id":"1832832","latitude":"12.92611100","longitude":"124.04388900","name":"Buton"},{"id":"1833133","latitude":"13.05000000","longitude":"124.05000000","name":"Cabarbohan"},{"id":"1833256","latitude":"12.90583300","longitude":"123.73138900","name":"Cabibiang"},{"id":"1833269","latitude":"12.90583300","longitude":"123.73138900","name":"Cabiguan"},{"id":"1833271","latitude":"12.91666700","longitude":"124.11666700","name":"Cabiguhan"},{"id":"1833409","latitude":"12.91666700","longitude":"123.60000000","name":"Cabugao"},{"id":"1833506","latitude":"12.91777800","longitude":"123.77750000","name":"Caburacan"},{"id":"1833620","latitude":"12.80527800","longitude":"123.84916700","name":"Cadetaan"},{"id":"1833630","latitude":"12.80527800","longitude":"123.84916700","name":"Caditaan"},{"id":"1833723","latitude":"13.01666700","longitude":"123.76666700","name":"Cagbacong"},{"id":"1833737","latitude":"12.85833300","longitude":"123.86083300","name":"Cagbolo"},{"id":"1833744","latitude":"12.85833300","longitude":"123.86083300","name":"Cagbulo"},{"id":"1833791","latitude":"12.91111100","longitude":"123.85166700","name":"Cagotaw"},{"id":"1833793","latitude":"13.05000000","longitude":"124.05000000","name":"Cagpandan"},{"id":"1833806","latitude":"12.83333300","longitude":"123.83333300","name":"Cagtalaba"},{"id":"1833810","latitude":"12.91111100","longitude":"123.85166700","name":"Cagtocaw"},{"id":"1834107","latitude":"13.01305600","longitude":"124.15166700","name":"Calao"},{"id":"1834150","latitude":"12.55583300","longitude":"124.06972200","name":"Calasi"},{"id":"1834161","latitude":"12.85000000","longitude":"123.98333300","name":"Calateo"},{"id":"1834214","latitude":"12.65000000","longitude":"124.08333300","name":"Calayogan"},{"id":"1834253","latitude":"12.60138900","longitude":"124.07583300","name":"Calibag"},{"id":"1834331","latitude":"12.53333300","longitude":"124.10000000","name":"Calintaan"},{"id":"1834379","latitude":"12.85000000","longitude":"123.98333300","name":"Calle Nueva"},{"id":"1834394","latitude":"12.85000000","longitude":"123.98333300","name":"Calmayon"},{"id":"1834411","latitude":"12.70777800","longitude":"123.88194400","name":"Calomagon"},{"id":"1834418","latitude":"12.94750000","longitude":"123.64916700","name":"Calongay"},{"id":"1834438","latitude":"12.93333300","longitude":"123.66666700","name":"Calpe"},{"id":"1834460","latitude":"12.70000000","longitude":"124.11666700","name":"Calubuyan"},{"id":"1834520","latitude":"12.94750000","longitude":"123.64916700","name":"Calungay"},{"id":"1834768","latitude":"12.96361100","longitude":"123.98583300","name":"Cambolagas"},{"id":"1834785","latitude":"12.96361100","longitude":"123.98583300","name":"Cambulaga"},{"id":"1835003","latitude":"12.57694400","longitude":"123.96138900","name":"Canamalag"},{"id":"1835179","latitude":"12.60000000","longitude":"124.10000000","name":"Candomaay"},{"id":"1835447","latitude":"12.57694400","longitude":"123.96138900","name":"Canomalag"},{"id":"1835448","latitude":"12.57694400","longitude":"123.96138900","name":"Canomalas"},{"id":"1835653","latitude":"12.76666700","longitude":"124.08333300","name":"Capalalihan"},{"id":"1835772","latitude":"12.85000000","longitude":"123.75000000","name":"Caporos"},{"id":"1835813","latitude":"12.98333300","longitude":"123.93333300","name":"Capuy"},{"id":"1836049","latitude":"12.93333300","longitude":"124.10000000","name":"Carriedo"},{"id":"1836132","latitude":"12.87361100","longitude":"124.00972200","name":"Casiguran"},{"id":"1836160","latitude":"12.67944400","longitude":"123.98388900","name":"Casine"},{"id":"1836162","latitude":"12.67944400","longitude":"123.98388900","name":"Casini"},{"id":"1836186","latitude":"12.94861100","longitude":"123.88222200","name":"Castilla"},{"id":"1836223","latitude":"12.89972200","longitude":"123.68333300","name":"Catacan"},{"id":"1836277","latitude":"13.00000000","longitude":"123.65000000","name":"Catamlagan"},{"id":"1836278","latitude":"13.00000000","longitude":"123.65000000","name":"Catamlagnan"},{"id":"1836279","latitude":"12.99000000","longitude":"123.62611100","name":"Catamla\ufffdan"},{"id":"1836280","latitude":"12.99000000","longitude":"123.62611100","name":"Catamlangan"},{"id":"1836282","latitude":"12.85083300","longitude":"123.98833300","name":"Catanagah"},{"id":"1836285","latitude":"12.85083300","longitude":"123.98833300","name":"Catanagan"},{"id":"1836298","latitude":"12.85083300","longitude":"123.98833300","name":"Catantagan"},{"id":"1836300","latitude":"12.81666700","longitude":"123.96666700","name":"Catanusan"},{"id":"1836376","latitude":"12.61666700","longitude":"124.10000000","name":"Catmon"},{"id":"1836423","latitude":"12.96333300","longitude":"123.53777800","name":"Catundulan"},{"id":"1836498","latitude":"12.85000000","longitude":"123.98333300","name":"Cavite"},{"id":"1836591","latitude":"13.03333300","longitude":"124.16666700","name":"Cayo"},{"id":"1836687","latitude":"13.08333300","longitude":"124.00000000","name":"Cibulan"},{"id":"1836720","latitude":"12.56666700","longitude":"123.96666700","name":"Cobarawan"},{"id":"1836727","latitude":"12.75000000","longitude":"124.13333300","name":"Cobugauan"},{"id":"1836766","latitude":"12.74972200","longitude":"124.01194400","name":"Cogon"},{"id":"1836845","latitude":"12.70777800","longitude":"123.88194400","name":"Colomagon"},{"id":"1836883","latitude":"12.95000000","longitude":"123.90000000","name":"Comadcad"},{"id":"1837044","latitude":"12.76666700","longitude":"124.11666700","name":"Copayagitan"},{"id":"1837071","latitude":"12.93333300","longitude":"123.86666700","name":"Corocauayan"},{"id":"1837084","latitude":"12.55638900","longitude":"123.98194400","name":"Coron-Coron"},{"id":"1837122","latitude":"12.89972200","longitude":"123.68333300","name":"Cotacan"},{"id":"1837152","latitude":"12.91666700","longitude":"123.60000000","name":"Cristo"},{"id":"1837261","latitude":"12.60000000","longitude":"124.08333300","name":"Culasi"},{"id":"1837322","latitude":"12.98055600","longitude":"123.78916700","name":"Cumadcad"},{"id":"1837893","latitude":"12.73611100","longitude":"123.85000000","name":"Danao"},{"id":"1837921","latitude":"12.91722200","longitude":"123.58500000","name":"Dancalan"},{"id":"1837945","latitude":"12.91722200","longitude":"123.58500000","name":"Dangcalan"},{"id":"1837987","latitude":"13.05000000","longitude":"123.71666700","name":"Danlog"},{"id":"1838074","latitude":"12.89888900","longitude":"123.72500000","name":"Dapdap"},{"id":"1838085","latitude":"12.86833300","longitude":"123.79055600","name":"Daphi"},{"id":"1838410","latitude":"13.03333300","longitude":"124.03333300","name":"Del Rosario"},{"id":"1838793","latitude":"12.94666700","longitude":"123.80027800","name":"Dolagnan"},{"id":"1838803","latitude":"12.75000000","longitude":"124.13333300","name":"Dolipay"},{"id":"1838834","latitude":"12.75000000","longitude":"123.95000000","name":"Dolos"},{"id":"1838893","latitude":"12.90833300","longitude":"123.59805600","name":"Donsol"},{"id":"1839003","latitude":"12.94666700","longitude":"123.80027800","name":"Dulag\ufffdan"},{"id":"1839060","latitude":"12.99166700","longitude":"123.89666700","name":"Dumadlangan"},{"id":"1839288","latitude":"12.84250000","longitude":"123.88055600","name":"Encarisan"},{"id":"1839335","latitude":"12.82194400","longitude":"124.05027800","name":"Escuala"},{"id":"1839337","latitude":"12.91666700","longitude":"123.66666700","name":"Esmerada"},{"id":"1839363","latitude":"13.00000000","longitude":"123.73333300","name":"Esperanza"},{"id":"1839400","latitude":"13.01666700","longitude":"124.10000000","name":"Esteban"},{"id":"1839430","latitude":"12.66750000","longitude":"123.90222200","name":"Fabrica"},{"id":"1839563","latitude":"12.73055600","longitude":"123.96138900","name":"Gabao"},{"id":"1839871","latitude":"13.01861100","longitude":"124.10250000","name":"Gatbo"},{"id":"1839875","latitude":"12.66000000","longitude":"123.95944400","name":"Gate"},{"id":"1839882","latitude":"12.66000000","longitude":"123.95944400","name":"Gato"},{"id":"1839919","latitude":"13.10472200","longitude":"123.96916700","name":"Gayong"},{"id":"1839933","latitude":"12.58333300","longitude":"124.08333300","name":"Genablan"},{"id":"1839934","latitude":"12.54222200","longitude":"124.03611100","name":"Genablan Oriental"},{"id":"1839985","latitude":"12.80000000","longitude":"123.86666700","name":"Gibalon"},{"id":"1840021","latitude":"12.96222200","longitude":"123.69611100","name":"Gihablan"},{"id":"1840030","latitude":"12.94416700","longitude":"123.56055600","name":"Gimagaan"},{"id":"1840032","latitude":"12.94416700","longitude":"123.56055600","name":"Gimagaon"},{"id":"1840052","latitude":"12.54222200","longitude":"124.03611100","name":"Ginablan"},{"id":"1840061","latitude":"12.77583300","longitude":"123.86000000","name":"Ginangra"},{"id":"1840117","latitude":"12.90000000","longitude":"123.58333300","name":"Girawan"},{"id":"1840162","latitude":"12.86666700","longitude":"124.00000000","name":"Gogon"},{"id":"1840193","latitude":"12.73888900","longitude":"123.93916700","name":"Goroyan"},{"id":"1840277","latitude":"12.92055600","longitude":"124.12305600","name":"Gubat"},{"id":"1840316","latitude":"12.77583300","longitude":"123.86000000","name":"Guiangra"},{"id":"1840504","latitude":"12.99027800","longitude":"123.96611100","name":"Guinlahong"},{"id":"1840505","latitude":"12.99027800","longitude":"123.96611100","name":"Guinlajong"},{"id":"1840506","latitude":"12.99027800","longitude":"123.96611100","name":"Guinlajon"},{"id":"1840650","latitude":"12.70000000","longitude":"124.03333300","name":"Gulangulang"},{"id":"1840723","latitude":"12.93333300","longitude":"123.61666700","name":"Gura"},{"id":"1840726","latitude":"12.80000000","longitude":"123.98333300","name":"Gurayan"},{"id":"1840729","latitude":"12.58333300","longitude":"124.10000000","name":"Gurong Banua"},{"id":"1840730","latitude":"12.73888900","longitude":"123.93916700","name":"Guruyan"},{"id":"1840858","latitude":"12.98333300","longitude":"123.56666700","name":"Halabang Talaytay"},{"id":"1840864","latitude":"12.96666700","longitude":"123.55000000","name":"Halangcao na Bato"},{"id":"1840913","latitude":"12.71277800","longitude":"123.93361100","name":"Hamurawon"},{"id":"1841056","latitude":"13.05000000","longitude":"124.01666700","name":"Himaog"},{"id":"1841154","latitude":"12.96666700","longitude":"123.75000000","name":"Hipanao"},{"id":"1841228","latitude":"12.85000000","longitude":"123.85000000","name":"Hubo"},{"id":"1841262","latitude":"12.95555600","longitude":"124.10083300","name":"Hupi"},{"id":"1841317","latitude":"13.01555600","longitude":"123.64444400","name":"Ibaugan"},{"id":"1841524","latitude":"12.85000000","longitude":"123.98333300","name":"Ilawod"},{"id":"1841574","latitude":"12.76666700","longitude":"124.10000000","name":"Ilihan"},{"id":"1841702","latitude":"12.74694400","longitude":"123.84861100","name":"Inalapan"},{"id":"1841712","latitude":"12.72194400","longitude":"123.85222200","name":"Inamoc"},{"id":"1841722","latitude":"12.97694400","longitude":"123.73888900","name":"Inang"},{"id":"1841735","latitude":"12.69861100","longitude":"123.85861100","name":"Inararan"},{"id":"1841759","latitude":"12.84250000","longitude":"123.88055600","name":"Incarisan"},{"id":"1841760","latitude":"12.84250000","longitude":"123.88055600","name":"Incarizan"},{"id":"1841936","latitude":"12.70138900","longitude":"124.03861100","name":"Irosin"},{"id":"1842069","latitude":"12.81666700","longitude":"123.95000000","name":"Jagusara"},{"id":"1842096","latitude":"12.71277800","longitude":"123.93361100","name":"Jamarawon"},{"id":"1842110","latitude":"12.71277800","longitude":"123.93361100","name":"Jamorawon"},{"id":"1842211","latitude":"12.86666700","longitude":"124.00000000","name":"Jimaoyon"},{"id":"1842284","latitude":"12.84777800","longitude":"123.98777800","name":"Juban"},{"id":"1842324","latitude":"12.95555600","longitude":"124.10083300","name":"Jupi"},{"id":"1842545","latitude":"13.01666700","longitude":"123.76666700","name":"Kagbacong"},{"id":"1843891","latitude":"12.98055600","longitude":"123.78916700","name":"Kumadcad"},{"id":"1843892","latitude":"12.98055600","longitude":"123.78916700","name":"Kumadkad"},{"id":"1844030","latitude":"12.66666700","longitude":"124.00000000","name":"Laboy"},{"id":"1844100","latitude":"12.65000000","longitude":"124.10000000","name":"La Esperanza"},{"id":"1844259","latitude":"12.83333300","longitude":"123.96666700","name":"Lajong"},{"id":"1844358","latitude":"12.55000000","longitude":"124.08333300","name":"Lamaoan"},{"id":"1844397","latitude":"12.70000000","longitude":"124.05000000","name":"Lamboon"},{"id":"1844648","latitude":"12.71666700","longitude":"123.95000000","name":"Lanipga"},{"id":"1844802","latitude":"12.75000000","longitude":"123.88333300","name":"Lapinig"},{"id":"1845005","latitude":"12.99138900","longitude":"123.87194400","name":"La Union"},{"id":"1845090","latitude":"12.69027800","longitude":"123.86250000","name":"Layoan"},{"id":"1845097","latitude":"12.83333300","longitude":"124.15000000","name":"Layog"},{"id":"1845099","latitude":"12.75000000","longitude":"124.11666700","name":"Layo"},{"id":"1845210","latitude":"12.66666700","longitude":"124.03333300","name":"Liang"},{"id":"1845235","latitude":"13.06666700","longitude":"124.00000000","name":"Libanon"},{"id":"1845369","latitude":"12.95000000","longitude":"123.90000000","name":"Libtong"},{"id":"1845775","latitude":"12.91666700","longitude":"123.66666700","name":"Lipason"},{"id":"1845784","latitude":"12.58527800","longitude":"123.95555600","name":"Lipata"},{"id":"1845973","latitude":"12.91666700","longitude":"123.66666700","name":"Log\ufffdib"},{"id":"1846196","latitude":"12.95000000","longitude":"123.88333300","name":"Loreto"},{"id":"1846231","latitude":"13.03333300","longitude":"123.70000000","name":"Lourdes"},{"id":"1846313","latitude":"12.91666700","longitude":"123.66666700","name":"Lubiano"},{"id":"1846421","latitude":"12.86666700","longitude":"124.00000000","name":"Lugnib"},{"id":"1846537","latitude":"12.91666700","longitude":"123.66666700","name":"Lumbang"},{"id":"1846633","latitude":"12.86250000","longitude":"124.14944400","name":"Luneta"},{"id":"1846694","latitude":"12.84277800","longitude":"123.93500000","name":"Lupi"},{"id":"1846839","latitude":"12.80000000","longitude":"123.96666700","name":"Maalo"},{"id":"1846929","latitude":"12.95000000","longitude":"123.68333300","name":"Mabanate"},{"id":"1847027","latitude":"12.86666700","longitude":"124.00000000","name":"Mabini"},{"id":"1847116","latitude":"12.81888900","longitude":"124.15055600","name":"Macabare"},{"id":"1847117","latitude":"12.81888900","longitude":"124.15055600","name":"Macabari"},{"id":"1847160","latitude":"12.88944400","longitude":"123.77111100","name":"Macalaya"},{"id":"1847252","latitude":"12.70000000","longitude":"124.03333300","name":"Macawayan"},{"id":"1847428","latitude":"12.82916700","longitude":"123.83638900","name":"Magallanes"},{"id":"1847659","latitude":"12.66750000","longitude":"123.93111100","name":"Magsaysay"},{"id":"1847716","latitude":"12.95000000","longitude":"123.61666700","name":"Maguisa"},{"id":"1847790","latitude":"13.01666700","longitude":"123.60000000","name":"Maharoan"},{"id":"1847835","latitude":"12.99444400","longitude":"123.65111100","name":"Maigabod"},{"id":"1847999","latitude":"12.90000000","longitude":"124.13333300","name":"Malabago"},{"id":"1848237","latitude":"13.01666700","longitude":"123.58333300","name":"Malapoc"},{"id":"1848301","latitude":"12.93750000","longitude":"123.58833300","name":"Malaya"},{"id":"1848327","latitude":"12.83333300","longitude":"123.83333300","name":"Malbog"},{"id":"1848459","latitude":"13.01666700","longitude":"123.63333300","name":"Malinao"},{"id":"1848738","latitude":"12.54166700","longitude":"124.02277800","name":"Mambajog"},{"id":"1848872","latitude":"12.92277800","longitude":"123.85277800","name":"Manaba"},{"id":"1848938","latitude":"12.65000000","longitude":"124.06666700","name":"Manancas"},{"id":"1848954","latitude":"12.91666700","longitude":"123.73333300","name":"Mananteal"},{"id":"1848966","latitude":"13.00361100","longitude":"124.14500000","name":"Manao"},{"id":"1849286","latitude":"12.60000000","longitude":"124.08333300","name":"Manhumlad"},{"id":"1849351","latitude":"12.60000000","longitude":"124.08333300","name":"Manjumlad"},{"id":"1849359","latitude":"13.07083300","longitude":"124.15000000","name":"Manlabong"},{"id":"1849410","latitude":"12.55000000","longitude":"124.01666700","name":"Manorabe"},{"id":"1849442","latitude":"12.60000000","longitude":"124.05000000","name":"Mansibog"},{"id":"1849452","latitude":"13.07083300","longitude":"124.15000000","name":"Mantabong"},{"id":"1849525","latitude":"12.55000000","longitude":"124.01666700","name":"Manurabe"},{"id":"1849880","latitude":"12.60277800","longitude":"123.94638900","name":"Marinab"},{"id":"1850246","latitude":"12.68333300","longitude":"123.93333300","name":"Matarais"},{"id":"1850364","latitude":"12.58444400","longitude":"124.08388900","name":"Matnog"},{"id":"1850410","latitude":"12.73333300","longitude":"123.93333300","name":"Matutuyan"},{"id":"1850595","latitude":"12.96305600","longitude":"123.80083300","name":"Mayon"},{"id":"1850694","latitude":"13.01666700","longitude":"123.78333300","name":"Mercedes"},{"id":"1850749","latitude":"12.99444400","longitude":"123.65111100","name":"Migabod"},{"id":"1850750","latitude":"12.99444400","longitude":"123.65111100","name":"Migabud"},{"id":"1850789","latitude":"12.92944400","longitude":"123.81250000","name":"Milaya"},{"id":"1850798","latitude":"13.00000000","longitude":"123.68333300","name":"Millabas"},{"id":"1850801","latitude":"12.92944400","longitude":"123.81250000","name":"Miluya"},{"id":"1850957","latitude":"12.81361100","longitude":"124.02111100","name":"Mobini"},{"id":"1851050","latitude":"12.72694400","longitude":"124.01472200","name":"Monbon"},{"id":"1851074","latitude":"13.00361100","longitude":"124.14500000","name":"Monhao"},{"id":"1851112","latitude":"12.96666700","longitude":"123.85000000","name":"Monte Carmelo"},{"id":"1851169","latitude":"12.60277800","longitude":"123.94638900","name":"Morinab"},{"id":"1851170","latitude":"12.72083300","longitude":"123.98250000","name":"Moring"},{"id":"1851819","latitude":"12.72194400","longitude":"123.85222200","name":"Namo"},{"id":"1851977","latitude":"12.87555600","longitude":"123.70194400","name":"Napogan"},{"id":"1852003","latitude":"12.87555600","longitude":"123.70194400","name":"Napugan"},{"id":"1852074","latitude":"12.70000000","longitude":"123.85000000","name":"Nasuhi"},{"id":"1852121","latitude":"12.97166700","longitude":"124.10611100","name":"Nato"},{"id":"1852286","latitude":"12.69583300","longitude":"124.13083300","name":"New San Antonio"},{"id":"1852416","latitude":"12.87555600","longitude":"123.70194400","name":"Nopogan"},{"id":"1852498","latitude":"12.86666700","longitude":"123.73333300","name":"Nugboc"},{"id":"1852614","latitude":"12.96777800","longitude":"124.12833300","name":"Ogao"},{"id":"1852621","latitude":"12.90138900","longitude":"123.62222200","name":"Ogod"},{"id":"1852682","latitude":"12.69583300","longitude":"124.13083300","name":"Old San Antonio"},{"id":"1852812","latitude":"12.90000000","longitude":"123.58333300","name":"Orang\ufffdi"},{"id":"1852817","latitude":"12.91666700","longitude":"123.66666700","name":"Oras"},{"id":"1852848","latitude":"13.08972200","longitude":"123.97777800","name":"Osiao"},{"id":"1852870","latitude":"12.64944400","longitude":"123.92722200","name":"Otabe"},{"id":"1852873","latitude":"12.64944400","longitude":"123.92722200","name":"Otavi"},{"id":"1852994","latitude":"12.97750000","longitude":"124.12972200","name":"Paco"},{"id":"1853172","latitude":"12.82083300","longitude":"124.12416700","name":"Paghaluban"},{"id":"1853191","latitude":"13.00000000","longitude":"123.88333300","name":"Pagnanitojan"},{"id":"1853192","latitude":"12.65000000","longitude":"124.01666700","name":"Pagni"},{"id":"1853236","latitude":"12.91666700","longitude":"124.05000000","name":"Pagsanhan"},{"id":"1853276","latitude":"12.96666700","longitude":"124.03333300","name":"Pahal"},{"id":"1853422","latitude":"12.93333300","longitude":"123.66666700","name":"Palanas"},{"id":"1853483","latitude":"12.75000000","longitude":"123.91666700","name":"Palate"},{"id":"1853731","latitude":"12.96527800","longitude":"123.96222200","name":"Pamorayan"},{"id":"1853759","latitude":"12.96527800","longitude":"123.96222200","name":"Pamurayan"},{"id":"1853953","latitude":"12.95000000","longitude":"123.90000000","name":"Pandan"},{"id":"1854077","latitude":"12.63138900","longitude":"124.03638900","name":"Pa\ufffdge"},{"id":"1854162","latitude":"12.77777800","longitude":"123.84666700","name":"Pangpang"},{"id":"1854279","latitude":"12.87833300","longitude":"123.72305600","name":"Panlatuan"},{"id":"1854314","latitude":"12.81666700","longitude":"123.81666700","name":"Pansog"},{"id":"1854574","latitude":"12.91666700","longitude":"123.60000000","name":"Parina"},{"id":"1854734","latitude":"12.71500000","longitude":"124.05277800","name":"Patag"},{"id":"1854857","latitude":"12.71666700","longitude":"124.13333300","name":"Patubayan"},{"id":"1854874","latitude":"13.01666700","longitude":"123.58333300","name":"Pauala"},{"id":"1854896","latitude":"13.01666700","longitude":"123.58333300","name":"Pawala"},{"id":"1854906","latitude":"12.60750000","longitude":"124.06555600","name":"Pawa"},{"id":"1854911","latitude":"12.65666700","longitude":"123.95444400","name":"Pawic"},{"id":"1854916","latitude":"12.65666700","longitude":"123.95444400","name":"Pawio"},{"id":"1854953","latitude":"12.81666700","longitude":"124.00000000","name":"Paya"},{"id":"1854963","latitude":"12.94250000","longitude":"124.08805600","name":"Payauin"},{"id":"1854966","latitude":"12.94250000","longitude":"124.08805600","name":"Payawin"},{"id":"1855186","latitude":"13.05000000","longitude":"124.20000000","name":"Pigtaclaan"},{"id":"1855230","latitude":"12.92583300","longitude":"123.67611100","name":"Pilar"},{"id":"1855263","latitude":"12.82833300","longitude":"123.91111100","name":"Pili"},{"id":"1855336","latitude":"12.73333300","longitude":"123.90000000","name":"Pinagnomhan"},{"id":"1855343","latitude":"12.93333300","longitude":"123.66666700","name":"Pinagsalog"},{"id":"1855378","latitude":"12.91666700","longitude":"123.60000000","name":"Pinamanaan"},{"id":"1855381","latitude":"12.75000000","longitude":"123.91666700","name":"Pinamangonan"},{"id":"1855489","latitude":"12.93333300","longitude":"123.66666700","name":"Pineda"},{"id":"1855711","latitude":"12.93333300","longitude":"123.66666700","name":"Poctol"},{"id":"1855838","latitude":"12.63138900","longitude":"124.03638900","name":"Pongi"},{"id":"1855860","latitude":"12.67972200","longitude":"123.87083300","name":"Ponod"},{"id":"1855940","latitude":"12.80000000","longitude":"124.15000000","name":"Porog"},{"id":"1856016","latitude":"12.72472200","longitude":"123.90638900","name":"Potot"},{"id":"1856046","latitude":"13.04166700","longitude":"124.19388900","name":"Prieto Diaz"},{"id":"1856169","latitude":"12.84583300","longitude":"123.97944400","name":"Pulanduta"},{"id":"1856179","latitude":"12.84583300","longitude":"123.97944400","name":"Pulangduta"},{"id":"1856205","latitude":"12.90000000","longitude":"123.65000000","name":"Pula"},{"id":"1856355","latitude":"13.11444400","longitude":"123.93972200","name":"Punte de Jesus"},{"id":"1856415","latitude":"13.02027800","longitude":"123.71611100","name":"Putiao"},{"id":"1856433","latitude":"12.85000000","longitude":"123.98333300","name":"Putingsapa"},{"id":"1856496","latitude":"12.60000000","longitude":"123.95000000","name":"Quezon"},{"id":"1856530","latitude":"13.05666700","longitude":"124.19000000","name":"Quidolog"},{"id":"1856636","latitude":"12.99027800","longitude":"123.96611100","name":"Quinlahong"},{"id":"1856751","latitude":"12.81666700","longitude":"124.00000000","name":"Rangas"},{"id":"1856903","latitude":"12.89000000","longitude":"124.13611100","name":"Rizal"},{"id":"1856959","latitude":"12.96666700","longitude":"124.00000000","name":"Roro"},{"id":"1857011","latitude":"12.66666700","longitude":"123.88333300","name":"Rufino Gerona"},{"id":"1857075","latitude":"12.73333300","longitude":"123.93333300","name":"Sabang"},{"id":"1857100","latitude":"12.87444400","longitude":"123.89055600","name":"Sablayan"},{"id":"1857101","latitude":"12.87444400","longitude":"123.89055600","name":"Sablaya"},{"id":"1857178","latitude":"12.93888900","longitude":"123.86500000","name":"Sagasa"},{"id":"1857326","latitude":"12.87583300","longitude":"123.77916700","name":"Salangbuaya"},{"id":"1857511","latitude":"13.01666700","longitude":"123.60000000","name":"Salvacion"},{"id":"1857661","latitude":"12.70000000","longitude":"124.03333300","name":"San Agustin"},{"id":"1857750","latitude":"12.68333300","longitude":"124.13333300","name":"San Antonio"},{"id":"1857792","latitude":"12.68333300","longitude":"124.13333300","name":"San Bartolome"},{"id":"1857807","latitude":"12.70000000","longitude":"124.03333300","name":"San Benon"},{"id":"1857814","latitude":"12.73527800","longitude":"124.11888900","name":"San Bernardo"},{"id":"1857913","latitude":"12.65000000","longitude":"124.10000000","name":"San Eugenio"},{"id":"1857991","latitude":"12.72472200","longitude":"123.90638900","name":"San Francisco"},{"id":"1858086","latitude":"12.89694400","longitude":"123.68222200","name":"Saniepan"},{"id":"1858093","latitude":"12.91666700","longitude":"124.11666700","name":"San Ignacio"},{"id":"1858154","latitude":"12.97416700","longitude":"123.85722200","name":"San Isidro"},{"id":"1858276","latitude":"12.55000000","longitude":"124.08333300","name":"San Jose"},{"id":"1858309","latitude":"12.67972200","longitude":"123.88861100","name":"San Juan Bag-o"},{"id":"1858313","latitude":"12.69444400","longitude":"123.92527800","name":"San Juan Daan"},{"id":"1858319","latitude":"12.69444400","longitude":"123.92527800","name":"San Juan na Daan"},{"id":"1858357","latitude":"12.67972200","longitude":"123.88861100","name":"San Juan"},{"id":"1858385","latitude":"12.70000000","longitude":"124.03333300","name":"San Julian"},{"id":"1858402","latitude":"13.01666700","longitude":"124.00000000","name":"San Lorenzo"},{"id":"1858430","latitude":"13.03333300","longitude":"124.03333300","name":"San Luis"},{"id":"1858632","latitude":"13.01388900","longitude":"124.04888900","name":"San Pascual"},{"id":"1858672","latitude":"13.08972200","longitude":"123.97777800","name":"San Pedro"},{"id":"1858721","latitude":"12.88194400","longitude":"123.68888900","name":"San Rafael"},{"id":"1858743","latitude":"12.65222200","longitude":"123.97861100","name":"San Ramon"},{"id":"1858767","latitude":"13.01194400","longitude":"124.02361100","name":"San Rogue"},{"id":"1858809","latitude":"12.74138900","longitude":"124.08194400","name":"San Roque"},{"id":"1858859","latitude":"12.61666700","longitude":"124.10000000","name":"San Sebastian"},{"id":"1858883","latitude":"12.92194400","longitude":"124.07250000","name":"Santa Ana"},{"id":"1858900","latitude":"12.79833300","longitude":"124.12305600","name":"Santa Barbara"},{"id":"1858973","latitude":"12.90000000","longitude":"124.03333300","name":"Santa Cruz"},{"id":"1859016","latitude":"12.93694400","longitude":"123.65694400","name":"Santa F\ufffd"},{"id":"1859060","latitude":"12.86666700","longitude":"124.13333300","name":"Santa Lourdes"},{"id":"1859084","latitude":"12.64777800","longitude":"124.10583300","name":"Santa Magdalena"},{"id":"1859319","latitude":"13.03333300","longitude":"124.03333300","name":"Santo Domingo"},{"id":"1859378","latitude":"13.10472200","longitude":"123.96916700","name":"Santo Ni\ufffdo"},{"id":"1859457","latitude":"13.06666700","longitude":"124.00000000","name":"San Tuan"},{"id":"1859492","latitude":"12.97805600","longitude":"123.82222200","name":"San Vicente"},{"id":"1859510","latitude":"13.03055600","longitude":"123.65861100","name":"San Vincente Grande"},{"id":"1859611","latitude":"12.75000000","longitude":"124.13333300","name":"Sapgnan"},{"id":"1859713","latitude":"13.07111100","longitude":"124.12833300","name":"Sawanga"},{"id":"1859714","latitude":"13.07111100","longitude":"124.12833300","name":"Sawango"},{"id":"1859805","latitude":"12.89694400","longitude":"123.68222200","name":"Seniepan"},{"id":"1859845","latitude":"12.94027800","longitude":"123.63000000","name":"Sevilla"},{"id":"1859884","latitude":"12.94750000","longitude":"123.52638900","name":"Sibago"},{"id":"1860257","latitude":"12.53333300","longitude":"124.01666700","name":"Sinangatan"},{"id":"1860416","latitude":"12.96666700","longitude":"124.01666700","name":"Sipak"},{"id":"1860460","latitude":"12.65000000","longitude":"124.01666700","name":"Sisigon"},{"id":"1860499","latitude":"12.79500000","longitude":"123.87333300","name":"Siuton"},{"id":"1860520","latitude":"12.91666700","longitude":"123.66666700","name":"Socnognan"},{"id":"1860545","latitude":"12.98333300","longitude":"123.77805600","name":"Sogov"},{"id":"1860546","latitude":"12.98333300","longitude":"123.77805600","name":"Sogoy"},{"id":"1860561","latitude":"12.87583300","longitude":"123.77916700","name":"Solangbuaya"},{"id":"1860657","latitude":"12.97388900","longitude":"123.99333300","name":"Sorsogon"},{"id":"1860708","latitude":"12.55000000","longitude":"124.00000000","name":"Sua"},{"id":"1860745","latitude":"12.55000000","longitude":"124.11666700","name":"Subic"},{"id":"1860816","latitude":"12.98638900","longitude":"124.08111100","name":"Sugod"},{"id":"1860818","latitude":"12.98333300","longitude":"123.77805600","name":"Sugoy"},{"id":"1860829","latitude":"12.90000000","longitude":"123.58333300","name":"Suguian"},{"id":"1860839","latitude":"12.79500000","longitude":"123.87333300","name":"Suitan"},{"id":"1860841","latitude":"12.54916700","longitude":"123.99944400","name":"Sujac"},{"id":"1860842","latitude":"12.54916700","longitude":"123.99944400","name":"Suja"},{"id":"1861236","latitude":"12.84111100","longitude":"123.98138900","name":"Taboc"},{"id":"1861290","latitude":"12.70000000","longitude":"124.03333300","name":"Tabontabon"},{"id":"1861530","latitude":"12.83333300","longitude":"123.83333300","name":"Tagas"},{"id":"1861638","latitude":"12.84944400","longitude":"124.14472200","name":"Tagdon"},{"id":"1861935","latitude":"12.68583300","longitude":"124.12694400","name":"Talaonga"},{"id":"1862013","latitude":"12.85000000","longitude":"123.98333300","name":"Taligna"},{"id":"1862375","latitude":"12.85000000","longitude":"123.98333300","name":"Tampi"},{"id":"1862880","latitude":"12.77194400","longitude":"124.13666700","name":"Taug"},{"id":"1862892","latitude":"12.77194400","longitude":"124.13666700","name":"Tauog"},{"id":"1862933","latitude":"12.77194400","longitude":"124.13666700","name":"Tawog"},{"id":"1863039","latitude":"12.88444400","longitude":"123.73972200","name":"Tenagbac"},{"id":"1863060","latitude":"13.10000000","longitude":"123.98333300","name":"Teris"},{"id":"1863148","latitude":"12.98333300","longitude":"123.95000000","name":"Ticol"},{"id":"1863288","latitude":"12.88333300","longitude":"123.76666700","name":"Tiguib"},{"id":"1863473","latitude":"12.96333300","longitude":"123.53777800","name":"Tinanogan"},{"id":"1863650","latitude":"12.95527800","longitude":"124.12694400","name":"Tiris"},{"id":"1863731","latitude":"12.64944400","longitude":"123.88833300","name":"Togbongan"},{"id":"1863787","latitude":"12.87944400","longitude":"123.81027800","name":"Tomalaytay"},{"id":"1863796","latitude":"12.86666700","longitude":"123.65000000","name":"Tomaquip"},{"id":"1863816","latitude":"12.94888900","longitude":"123.83111100","name":"Tominhao"},{"id":"1863983","latitude":"12.91027800","longitude":"124.04222200","name":"Trece Martires"},{"id":"1863985","latitude":"12.91027800","longitude":"124.04222200","name":"Trece Martirez"},{"id":"1864043","latitude":"12.91666700","longitude":"123.60000000","name":"Tuba"},{"id":"1864115","latitude":"12.96666700","longitude":"124.00000000","name":"Tublihon"},{"id":"1864260","latitude":"12.60000000","longitude":"123.98333300","name":"Tugas"},{"id":"1864279","latitude":"12.64944400","longitude":"123.88833300","name":"Tughagnon"},{"id":"1864280","latitude":"12.85000000","longitude":"123.98333300","name":"Tughan"},{"id":"1864290","latitude":"12.96666700","longitude":"124.00000000","name":"Tugos"},{"id":"1864365","latitude":"12.83333300","longitude":"123.83333300","name":"Tulatula"},{"id":"1864422","latitude":"12.87944400","longitude":"123.81027800","name":"Tumalaytay"},{"id":"1864801","latitude":"13.00000000","longitude":"123.68333300","name":"Umapokapo"},{"id":"1864869","latitude":"12.90555600","longitude":"124.09055600","name":"Union"},{"id":"1864968","latitude":"12.64944400","longitude":"123.92722200","name":"Utabe"},{"id":"1864972","latitude":"12.64944400","longitude":"123.92722200","name":"Utavi"},{"id":"1865202","latitude":"12.81666700","longitude":"124.10000000","name":"Villanueva"},{"id":"1865210","latitude":"12.88333300","longitude":"124.11666700","name":"Villareal"},{"id":"1865252","latitude":"12.94250000","longitude":"123.56222200","name":"Vinisitahan"},{"id":"1865277","latitude":"13.03611100","longitude":"124.16222200","name":"Visitang-daan"},{"id":"1865537","latitude":"12.87305600","longitude":"124.08333300","name":"Zaragoza"}]