[{"id":"1824890","latitude":"9.23333300","longitude":"124.70000000","name":"Abu"},{"id":"1825216","latitude":"9.24222200","longitude":"124.66666700","name":"Agoho"},{"id":"1825223","latitude":"9.24222200","longitude":"124.66666700","name":"Agojo"},{"id":"1825340","latitude":"9.10000000","longitude":"124.75000000","name":"Aguran"},{"id":"1825453","latitude":"9.10444400","longitude":"124.74527800","name":"Alangilan"},{"id":"1825560","latitude":"9.12083300","longitude":"124.68250000","name":"Alga"},{"id":"1826269","latitude":"9.22888900","longitude":"124.74805600","name":"Anito"},{"id":"1827030","latitude":"9.13361100","longitude":"124.71972200","name":"Bacnit"},{"id":"1828014","latitude":"9.23750000","longitude":"124.74055600","name":"Balbagon"},{"id":"1828245","latitude":"9.08222200","longitude":"124.76111100","name":"Balite"},{"id":"1830040","latitude":"9.24916700","longitude":"124.69805600","name":"Baylao"},{"id":"1830204","latitude":"9.14666700","longitude":"124.79305600","name":"Benoni"},{"id":"1830565","latitude":"9.16333300","longitude":"124.79000000","name":"Binaliwan"},{"id":"1830714","latitude":"9.14666700","longitude":"124.79305600","name":"Binone"},{"id":"1830725","latitude":"9.14666700","longitude":"124.79305600","name":"Binoni"},{"id":"1831128","latitude":"9.25000000","longitude":"124.71666700","name":"Bokbok"},{"id":"1831283","latitude":"9.10527800","longitude":"124.73388900","name":"Bonbon"},{"id":"1831418","latitude":"9.19888900","longitude":"124.75000000","name":"Bonkaan"},{"id":"1831920","latitude":"9.10972200","longitude":"124.70166700","name":"Bugang"},{"id":"1831980","latitude":"9.24972200","longitude":"124.67527800","name":"Bug-ong"},{"id":"1832618","latitude":"9.17722200","longitude":"124.65166700","name":"Bura"},{"id":"1832803","latitude":"9.10527800","longitude":"124.76638900","name":"Butay"},{"id":"1833374","latitude":"9.11833300","longitude":"124.79666700","name":"Cabuan"},{"id":"1836205","latitude":"9.11250000","longitude":"124.79027800","name":"Cataan"},{"id":"1836308","latitude":"9.12555600","longitude":"124.67555600","name":"Catarman"},{"id":"1836333","latitude":"9.17666700","longitude":"124.63777800","name":"Catibac"},{"id":"1836350","latitude":"9.11527800","longitude":"124.71666700","name":"Catihan"},{"id":"1836385","latitude":"9.18555600","longitude":"124.78111100","name":"Catohugan"},{"id":"1836914","latitude":"9.14361100","longitude":"124.65500000","name":"Compol"},{"id":"1837335","latitude":"9.12722200","longitude":"124.75861100","name":"Cu\ufffda"},{"id":"1839349","latitude":"9.23083300","longitude":"124.69361100","name":"Esperanza"},{"id":"1839446","latitude":"9.08638900","longitude":"124.77250000","name":"Farrol"},{"id":"1840098","latitude":"9.09638900","longitude":"124.78277800","name":"Ginsiliban"},{"id":"1840469","latitude":"9.09638900","longitude":"124.78277800","name":"Guinciliban"},{"id":"1840502","latitude":"9.09638900","longitude":"124.78277800","name":"Guinisiliban"},{"id":"1840547","latitude":"9.09638900","longitude":"124.78277800","name":"Guinsilban"},{"id":"1840548","latitude":"9.09638900","longitude":"124.78277800","name":"Guinsiliban"},{"id":"1841218","latitude":"9.17194400","longitude":"124.78500000","name":"Hubangon"},{"id":"1842008","latitude":"9.21666700","longitude":"124.69500000","name":"Itum"},{"id":"1842459","latitude":"9.11833300","longitude":"124.79666700","name":"Kabuan"},{"id":"1843256","latitude":"9.17666700","longitude":"124.63777800","name":"Katibac"},{"id":"1843300","latitude":"9.18555600","longitude":"124.78111100","name":"Katuhogan"},{"id":"1843516","latitude":"9.18666700","longitude":"124.63666700","name":"Kilambon"},{"id":"1843791","latitude":"9.13333300","longitude":"124.66666700","name":"Kompol"},{"id":"1843834","latitude":"9.25055600","longitude":"124.69222200","name":"Kuguita"},{"id":"1845056","latitude":"9.16666700","longitude":"124.63888900","name":"Lawigan"},{"id":"1845516","latitude":"9.14722200","longitude":"124.67000000","name":"Liloan"},{"id":"1845754","latitude":"9.08527800","longitude":"124.78083300","name":"Liong"},{"id":"1846103","latitude":"9.13138900","longitude":"124.66694400","name":"Looc"},{"id":"1846825","latitude":"9.12722200","longitude":"124.79333300","name":"Maac"},{"id":"1847687","latitude":"9.21305600","longitude":"124.75750000","name":"Magting"},{"id":"1847813","latitude":"9.15777800","longitude":"124.78750000","name":"Mahinog"},{"id":"1847865","latitude":"9.15694400","longitude":"124.65888900","name":"Mainit"},{"id":"1848558","latitude":"9.15777800","longitude":"124.78750000","name":"Mallinog"},{"id":"1848692","latitude":"9.25027800","longitude":"124.71611100","name":"Mamajao"},{"id":"1848736","latitude":"9.25027800","longitude":"124.71611100","name":"Mambajao"},{"id":"1849527","latitude":"9.08277800","longitude":"124.76916700","name":"Manuyog"},{"id":"1849528","latitude":"9.08277800","longitude":"124.76916700","name":"Manuyong"},{"id":"1849722","latitude":"9.11666700","longitude":"124.71666700","name":"Maranding"},{"id":"1850509","latitude":"9.10722200","longitude":"124.71166700","name":"Mayana"},{"id":"1851335","latitude":"9.23027800","longitude":"124.64805600","name":"Naasag"},{"id":"1852902","latitude":"9.15500000","longitude":"124.76333300","name":"Owakan"},{"id":"1853027","latitude":"9.23694400","longitude":"124.72722200","name":"Padan"},{"id":"1853941","latitude":"9.23694400","longitude":"124.72722200","name":"Pandan"},{"id":"1854083","latitude":"9.14861100","longitude":"124.64666700","name":"Panghiawan"},{"id":"1856358","latitude":"9.15916700","longitude":"124.77277800","name":"Puntod"},{"id":"1856419","latitude":"9.21833300","longitude":"124.75277800","name":"Putingbalas"},{"id":"1857188","latitude":"9.10583300","longitude":"124.72472200","name":"Sagay"},{"id":"1858175","latitude":"9.18888900","longitude":"124.76444400","name":"San Isisdro"},{"id":"1858248","latitude":"9.16750000","longitude":"124.78555600","name":"San Jose"},{"id":"1858513","latitude":"9.13638900","longitude":"124.78916700","name":"San Miguel"},{"id":"1858788","latitude":"9.15166700","longitude":"124.79000000","name":"San Roque"},{"id":"1860653","latitude":"9.22111100","longitude":"124.72583300","name":"Sorosoro"},{"id":"1860750","latitude":"9.12833300","longitude":"124.75333300","name":"Subocan"},{"id":"1861520","latitude":"9.11388900","longitude":"124.68944400","name":"Tagaro"},{"id":"1861639","latitude":"9.23611100","longitude":"124.68805600","name":"Tagdo"},{"id":"1862522","latitude":"9.11388900","longitude":"124.68944400","name":"Tangaro"},{"id":"1864133","latitude":"9.16111100","longitude":"124.78388900","name":"Tubod"},{"id":"1864576","latitude":"9.20638900","longitude":"124.77416700","name":"Tupsan Grande"},{"id":"1864577","latitude":"9.19916700","longitude":"124.77694400","name":"Tupsan Pequeno"},{"id":"1864578","latitude":"9.19916700","longitude":"124.77694400","name":"Tupsan"},{"id":"1865305","latitude":"9.22305600","longitude":"124.65027800","name":"Volcan"},{"id":"1865487","latitude":"9.23750000","longitude":"124.65833300","name":"Yumbing"}]