[{"id":"1830318","latitude":"8.57550000","longitude":"123.37210000","name":"Bicayas"},{"id":"1836552","latitude":"8.61990000","longitude":"123.34960000","name":"Cayab"},{"id":"1836746","latitude":"8.45760000","longitude":"123.35580000","name":"Cogan"},{"id":"1837415","latitude":"8.51330000","longitude":"123.31230000","name":"Daang-Lunsod"},{"id":"1837423","latitude":"8.51330000","longitude":"123.31230000","name":"Daanlungsod"},{"id":"1838696","latitude":"8.58830000","longitude":"123.34090000","name":"Dipolog City"},{"id":"1838697","latitude":"8.58830000","longitude":"123.34090000","name":"Dipolog"},{"id":"1839671","latitude":"8.55980000","longitude":"123.33470000","name":"Galas"},{"id":"1845481","latitude":"8.43420000","longitude":"123.30620000","name":"Likayo"},{"id":"1846326","latitude":"8.56190000","longitude":"123.35420000","name":"Lubingogis"},{"id":"1850843","latitude":"8.59550000","longitude":"123.35640000","name":"Minaog"},{"id":"1850912","latitude":"8.58220000","longitude":"123.33720000","name":"Mipotak"},{"id":"1850913","latitude":"8.58220000","longitude":"123.33720000","name":"Miputak"},{"id":"1851480","latitude":"8.59530000","longitude":"123.37000000","name":"Nagas"},{"id":"1852356","latitude":"8.57940000","longitude":"123.36510000","name":"Nipaan"},{"id":"1852705","latitude":"8.53810000","longitude":"123.32160000","name":"Olingan"},{"id":"1856351","latitude":"8.51640000","longitude":"123.31320000","name":"Punta"},{"id":"1858059","latitude":"8.47660000","longitude":"123.34770000","name":"Sangkol"},{"id":"1863908","latitude":"8.40440000","longitude":"123.35270000","name":"Tookan"}]