[{"id":"1938977","latitude":"50.78333300","longitude":"16.68333300","name":"Albinow"},{"id":"1939096","latitude":"50.40000000","longitude":"16.53333300","name":"Altheide"},{"id":"1939097","latitude":"50.40000000","longitude":"16.53333300","name":"Altheide Bad"},{"id":"1939129","latitude":"50.36666700","longitude":"16.60000000","name":"Alt Lomnitz"},{"id":"1939590","latitude":"50.40000000","longitude":"16.53333300","name":"Bad Altheide"},{"id":"1939591","latitude":"50.73333300","longitude":"16.33333300","name":"Bad Charlottenbrunn"},{"id":"1939592","latitude":"50.68333300","longitude":"16.81666700","name":"Bad Dirsdorf"},{"id":"1939593","latitude":"50.68333300","longitude":"16.81666700","name":"Bad Dirsdorf Kreis Reichenbach"},{"id":"1939607","latitude":"50.45000000","longitude":"16.25000000","name":"Bad Kudowa"},{"id":"1939608","latitude":"50.35000000","longitude":"16.88333300","name":"Bad Landeck"},{"id":"1939609","latitude":"50.35000000","longitude":"16.88333300","name":"Bad Landeck in Schlesien"},{"id":"1939614","latitude":"50.40000000","longitude":"16.40000000","name":"Bad Reinerz"},{"id":"1939616","latitude":"50.81666700","longitude":"16.28333300","name":"Bad Salzbrunn"},{"id":"1939646","latitude":"50.90000000","longitude":"16.48333300","name":"Bagleniec"},{"id":"1939723","latitude":"50.63333300","longitude":"16.88333300","name":"Baldwinowice"},{"id":"1939871","latitude":"50.50000000","longitude":"16.73333300","name":"Bardo-Przylek"},{"id":"1940056","latitude":"50.30000000","longitude":"16.48333300","name":"Bator\ufffdw"},{"id":"1940069","latitude":"50.93333300","longitude":"16.50000000","name":"Bazanow"},{"id":"1940254","latitude":"50.65000000","longitude":"17.11666700","name":"Bergdorf"},{"id":"1940294","latitude":"50.65000000","longitude":"17.11666700","name":"Berzdorf"},{"id":"1940366","latitude":"50.88333300","longitude":"16.66666700","name":"Biala"},{"id":"1940404","latitude":"50.26666700","longitude":"16.78333300","name":"Biala Woda"},{"id":"1940552","latitude":"50.78333300","longitude":"16.25000000","name":"Bialy Kamien"},{"id":"1940563","latitude":"50.78333300","longitude":"16.25000000","name":"Bialy Ramien"},{"id":"1940625","latitude":"50.53333300","longitude":"16.50000000","name":"Biegane"},{"id":"1940630","latitude":"50.55000000","longitude":"16.55000000","name":"Biegan\ufffdw"},{"id":"1940791","latitude":"50.48333300","longitude":"16.61666700","name":"Bierkowice"},{"id":"1941145","latitude":"50.56666700","longitude":"16.45000000","name":"Blogocice"},{"id":"1941191","latitude":"50.46666700","longitude":"16.93333300","name":"Blotnice"},{"id":"1941238","latitude":"50.61666700","longitude":"16.83333300","name":"Bobolice"},{"id":"1941244","latitude":"50.10000000","longitude":"16.70000000","name":"Bobosz\ufffdw"},{"id":"1941289","latitude":"50.38333300","longitude":"16.48333300","name":"Bobrowniki"},{"id":"1941327","latitude":"50.11666700","longitude":"16.65000000","name":"Bochniak"},{"id":"1941426","latitude":"50.20000000","longitude":"16.70000000","name":"Bogl\ufffdw"},{"id":"1941509","latitude":"50.75000000","longitude":"16.20000000","name":"Bogusz\ufffdw"},{"id":"1941510","latitude":"50.75000000","longitude":"16.20000000","name":"Bogusz\ufffdw-Gorce"},{"id":"1941561","latitude":"50.78333300","longitude":"16.50000000","name":"Bojanice"},{"id":"1941608","latitude":"50.81666700","longitude":"16.53333300","name":"Bolescin"},{"id":"1941621","latitude":"50.25000000","longitude":"16.90000000","name":"Boleslawow"},{"id":"1941721","latitude":"50.73333300","longitude":"16.46666700","name":"Boreczna"},{"id":"1941747","latitude":"50.43333300","longitude":"16.46666700","name":"Borek"},{"id":"1941882","latitude":"50.98333300","longitude":"16.25000000","name":"Bor\ufffdw"},{"id":"1941902","latitude":"50.76666700","longitude":"16.68333300","name":"Borowica"},{"id":"1941945","latitude":"50.48333300","longitude":"16.48333300","name":"Borowni"},{"id":"1942142","latitude":"50.98333300","longitude":"16.20000000","name":"Bowowice"},{"id":"1942174","latitude":"50.51666700","longitude":"16.58333300","name":"Bozkow"},{"id":"1942175","latitude":"50.51666700","longitude":"16.60000000","name":"Bozkower"},{"id":"1942179","latitude":"50.65000000","longitude":"17.11666700","name":"Boznowice"},{"id":"1942253","latitude":"50.55000000","longitude":"16.78333300","name":"Braszowice"},{"id":"1942264","latitude":"50.75000000","longitude":"16.58333300","name":"Bratoszow"},{"id":"1942287","latitude":"50.76666700","longitude":"16.43333300","name":"Breitenhain"},{"id":"1942331","latitude":"50.70000000","longitude":"16.91666700","name":"Brochocin"},{"id":"1942400","latitude":"50.63333300","longitude":"16.78333300","name":"Brodzisz\ufffdw"},{"id":"1942485","latitude":"50.93333300","longitude":"16.21666700","name":"Bron\ufffdw"},{"id":"1942486","latitude":"50.91666700","longitude":"16.21666700","name":"Bronowek"},{"id":"1942534","latitude":"50.81666700","longitude":"16.48333300","name":"Brsirzyca Dolna"},{"id":"1942811","latitude":"50.53333300","longitude":"16.73333300","name":"Brzeznica"},{"id":"1942942","latitude":"50.41666700","longitude":"16.23333300","name":"Brzozowie"},{"id":"1943134","latitude":"50.31666700","longitude":"16.71666700","name":"Budnica G\ufffdrna"},{"id":"1943300","latitude":"50.58333300","longitude":"16.70000000","name":"Budz\ufffdw"},{"id":"1943301","latitude":"50.56666700","longitude":"16.68333300","name":"Budz\ufffdw-Kolonia"},{"id":"1943375","latitude":"50.98333300","longitude":"16.58333300","name":"Buk\ufffdw"},{"id":"1943511","latitude":"50.80000000","longitude":"16.46666700","name":"Burkat\ufffdw"},{"id":"1943593","latitude":"50.51666700","longitude":"16.90000000","name":"Byczon"},{"id":"1943622","latitude":"50.50000000","longitude":"16.73333300","name":"Byrdo"},{"id":"1943631","latitude":"50.40000000","longitude":"16.48333300","name":"Bystra"},{"id":"1943660","latitude":"50.30000000","longitude":"16.65000000","name":"Bystrzyca"},{"id":"1943662","latitude":"50.81666700","longitude":"16.48333300","name":"Bystrzyca Dolna"},{"id":"1943663","latitude":"50.78333300","longitude":"16.45000000","name":"Bystrzyca G\ufffdrna"},{"id":"1943678","latitude":"50.73333300","longitude":"16.73333300","name":"Byszow"},{"id":"1943684","latitude":"50.61666700","longitude":"16.46666700","name":"Bytkowice"},{"id":"1943729","latitude":"50.51666700","longitude":"16.86666700","name":"Camenz"},{"id":"1943803","latitude":"50.96666700","longitude":"16.18333300","name":"Cel\ufffdw"},{"id":"1943871","latitude":"50.28333300","longitude":"17.50000000","name":"Chalupki"},{"id":"1943901","latitude":"50.73333300","longitude":"16.33333300","name":"Charlottenbrunn-Zdr\ufffdj"},{"id":"1943967","latitude":"50.76666700","longitude":"16.18333300","name":"Chelmiec"},{"id":"1944124","latitude":"50.46666700","longitude":"16.30000000","name":"Chocieszow"},{"id":"1944527","latitude":"50.35000000","longitude":"16.78333300","name":"Chrzczon\ufffdw"},{"id":"1944565","latitude":"50.75000000","longitude":"16.88333300","name":"Chwalecin"},{"id":"1944579","latitude":"50.86666700","longitude":"16.23333300","name":"Chwaliszow"},{"id":"1944719","latitude":"50.45000000","longitude":"16.50000000","name":"Ciecierzyce"},{"id":"1944792","latitude":"50.66666700","longitude":"16.93333300","name":"Cienkowice"},{"id":"1944816","latitude":"50.66666700","longitude":"16.90000000","name":"Cieplowody"},{"id":"1944821","latitude":"50.88333300","longitude":"16.35000000","name":"Ciernie"},{"id":"1944827","latitude":"50.66666700","longitude":"17.16666700","name":"Cierpice"},{"id":"1944882","latitude":"50.86666700","longitude":"16.26666700","name":"Ciesz\ufffdw"},{"id":"1944961","latitude":"50.86666700","longitude":"16.26666700","name":"Cis\ufffdw"},{"id":"1945314","latitude":"50.76666700","longitude":"16.13333300","name":"Czarny B\ufffdr"},{"id":"1945371","latitude":"50.28333300","longitude":"16.80000000","name":"Czatk\ufffdw"},{"id":"1945401","latitude":"50.95000000","longitude":"16.41666700","name":"Czechy"},{"id":"1945465","latitude":"50.45000000","longitude":"16.25000000","name":"Czermna"},{"id":"1945479","latitude":"50.61666700","longitude":"16.96666700","name":"Czernczyce"},{"id":"1945521","latitude":"50.78333300","longitude":"16.36666700","name":"Czernik"},{"id":"1945553","latitude":"50.53333300","longitude":"16.63333300","name":"Czerwieczyce"},{"id":"1945602","latitude":"50.11666700","longitude":"16.61666700","name":"Czerwony Strumien"},{"id":"1945661","latitude":"50.65000000","longitude":"16.98333300","name":"Czoslawice"},{"id":"1945775","latitude":"50.66666700","longitude":"17.21666700","name":"Dabkowice"},{"id":"1946060","latitude":"50.65000000","longitude":"16.46666700","name":"Daleszyn"},{"id":"1946102","latitude":"50.41666700","longitude":"16.30000000","name":"Danczow"},{"id":"1946164","latitude":"50.45000000","longitude":"16.31666700","name":"Darnkow"},{"id":"1946329","latitude":"50.53333300","longitude":"16.86666700","name":"Deborog"},{"id":"1946351","latitude":"50.60000000","longitude":"17.10000000","name":"Debowice"},{"id":"1946372","latitude":"50.48333300","longitude":"16.71666700","name":"Debowina"},{"id":"1946392","latitude":"50.81666700","longitude":"16.05000000","name":"Debrznik"},{"id":"1946519","latitude":"50.68333300","longitude":"16.81666700","name":"Dirsdorf Bad"},{"id":"1946520","latitude":"50.68333300","longitude":"16.81666700","name":"Dirsdorf Kreis Reichenbach"},{"id":"1946593","latitude":"50.25000000","longitude":"16.63333300","name":"Dlugopole Dolne"},{"id":"1946594","latitude":"50.23333300","longitude":"16.65000000","name":"Dlugopole Gorne"},{"id":"1946595","latitude":"50.23333300","longitude":"16.63333300","name":"Dlugopole-Zdroj"},{"id":"1946706","latitude":"50.51666700","longitude":"16.95000000","name":"Doboszowice"},{"id":"1946752","latitude":"50.73333300","longitude":"16.71666700","name":"Dobrocin"},{"id":"1946754","latitude":"50.73333300","longitude":"16.75000000","name":"Dobrocinek"},{"id":"1946778","latitude":"50.68333300","longitude":"16.13333300","name":"Dobromysl"},{"id":"1946951","latitude":"50.13333300","longitude":"16.70000000","name":"Dolnik"},{"id":"1946975","latitude":"50.70000000","longitude":"16.45000000","name":"Domach\ufffdw"},{"id":"1946982","latitude":"50.95000000","longitude":"16.60000000","name":"Domanice"},{"id":"1947009","latitude":"50.20000000","longitude":"16.68333300","name":"Domask\ufffdw"},{"id":"1947018","latitude":"50.21666700","longitude":"16.68333300","name":"Domaszk\ufffdw"},{"id":"1947066","latitude":"50.70000000","longitude":"16.35000000","name":"Donnerau"},{"id":"1947088","latitude":"50.73333300","longitude":"16.56666700","name":"Dorotka"},{"id":"1947219","latitude":"50.35000000","longitude":"16.75000000","name":"Drogoslaw"},{"id":"1947242","latitude":"50.38333300","longitude":"16.80000000","name":"Droszk\ufffdw"},{"id":"1947244","latitude":"50.60000000","longitude":"16.50000000","name":"Drotoslaw"},{"id":"1947313","latitude":"50.63333300","longitude":"16.48333300","name":"Drzazgi"},{"id":"1947453","latitude":"50.38333300","longitude":"16.56666700","name":"Dunaj"},{"id":"1947500","latitude":"50.40000000","longitude":"16.40000000","name":"Duszniki"},{"id":"1947502","latitude":"50.40000000","longitude":"16.40000000","name":"Duszniki Zdr\ufffdj"},{"id":"1947583","latitude":"50.81666700","longitude":"16.26666700","name":"Dworzysko"},{"id":"1947656","latitude":"50.50000000","longitude":"16.80000000","name":"Dzbanow"},{"id":"1947845","latitude":"50.68333300","longitude":"17.15000000","name":"Dzierzkowa"},{"id":"1947847","latitude":"50.98333300","longitude":"16.23333300","name":"Dzierzk\ufffdw"},{"id":"1947904","latitude":"50.58333300","longitude":"16.60000000","name":"Dzikowiec"},{"id":"1947945","latitude":"50.78333300","longitude":"16.38333300","name":"Dzrocmorowice"},{"id":"1947974","latitude":"50.21666700","longitude":"16.68333300","name":"Ebersdorf"},{"id":"1948014","latitude":"50.53333300","longitude":"16.86666700","name":"Eichvorwerk"},{"id":"1948026","latitude":"50.38333300","longitude":"16.66666700","name":"Eisersdorf"},{"id":"1948255","latitude":"50.73333300","longitude":"16.23333300","name":"Fellhammer"},{"id":"1948379","latitude":"50.76666700","longitude":"16.10000000","name":"Forst"},{"id":"1948410","latitude":"50.51666700","longitude":"16.78333300","name":"Frankenberg"},{"id":"1948411","latitude":"50.58333300","longitude":"16.80000000","name":"Frankenstein"},{"id":"1948412","latitude":"50.58333300","longitude":"16.80000000","name":"Frankenstein in Schlesien"},{"id":"1948433","latitude":"50.86666700","longitude":"16.33333300","name":"Freiburg"},{"id":"1948434","latitude":"50.86666700","longitude":"16.33333300","name":"Freiburg in Schlesien"},{"id":"1948473","latitude":"50.66666700","longitude":"16.18333300","name":"Friedland"},{"id":"1948475","latitude":"50.66666700","longitude":"16.18333300","name":"Friedland in Schlesien"},{"id":"1948509","latitude":"50.86666700","longitude":"16.33333300","name":"Frybork"},{"id":"1948545","latitude":"50.66666700","longitude":"16.18333300","name":"Fyrlad"},{"id":"1949102","latitude":"50.48333300","longitude":"16.60000000","name":"Gietcz\ufffdw"},{"id":"1949123","latitude":"50.73333300","longitude":"16.76666700","name":"Gilow"},{"id":"1949189","latitude":"50.43333300","longitude":"16.65000000","name":"Glatz"},{"id":"1949232","latitude":"50.51666700","longitude":"17.06666700","name":"Gleboka"},{"id":"1949291","latitude":"50.73333300","longitude":"16.33333300","name":"Glinica"},{"id":"1949305","latitude":"50.73333300","longitude":"16.28333300","name":"Glinik"},{"id":"1949313","latitude":"50.71666700","longitude":"16.33333300","name":"Gliniozka"},{"id":"1949353","latitude":"50.71666700","longitude":"16.40000000","name":"Glinno"},{"id":"1949470","latitude":"50.25000000","longitude":"16.55000000","name":"Glozyn\ufffd"},{"id":"1949518","latitude":"50.66666700","longitude":"16.38333300","name":"Gluszyca Gorna"},{"id":"1949565","latitude":"51.00000000","longitude":"16.23333300","name":"Gniewk\ufffdw"},{"id":"1949573","latitude":"50.21666700","longitude":"16.60000000","name":"Gniewosz\ufffdw"},{"id":"1949607","latitude":"51.00000000","longitude":"16.31666700","name":"Goczalkow"},{"id":"1949624","latitude":"50.90000000","longitude":"16.56666700","name":"Godkowice"},{"id":"1949666","latitude":"50.96666700","longitude":"16.23333300","name":"Godziesz\ufffdwek"},{"id":"1949703","latitude":"50.83333300","longitude":"16.60000000","name":"Gogolow"},{"id":"1949723","latitude":"50.43333300","longitude":"16.31666700","name":"Golaczow"},{"id":"1949728","latitude":"50.73333300","longitude":"16.78333300","name":"Gola"},{"id":"1949743","latitude":"50.91666700","longitude":"16.61666700","name":"Gola Swidnicka"},{"id":"1949755","latitude":"50.91666700","longitude":"16.56666700","name":"Golaszyce"},{"id":"1949829","latitude":"50.53333300","longitude":"16.90000000","name":"Goleniow Slaski"},{"id":"1949847","latitude":"50.48333300","longitude":"17.05000000","name":"Golina"},{"id":"1949857","latitude":"50.65000000","longitude":"16.51666700","name":"Goliszyn"},{"id":"1949888","latitude":"50.46666700","longitude":"16.66666700","name":"Goloqlowy"},{"id":"1950014","latitude":"50.68333300","longitude":"16.23333300","name":"G\ufffdrbersdorf"},{"id":"1950015","latitude":"50.76666700","longitude":"16.16666700","name":"Gorce"},{"id":"1950150","latitude":"50.60000000","longitude":"17.08333300","name":"Gorniak"},{"id":"1950239","latitude":"50.35000000","longitude":"16.63333300","name":"Gorzan\ufffdw"},{"id":"1950240","latitude":"50.95000000","longitude":"16.08333300","name":"Gorzanowice"},{"id":"1950285","latitude":"50.48333300","longitude":"16.50000000","name":"Gorzuch\ufffdwek"},{"id":"1950286","latitude":"50.48333300","longitude":"16.58333300","name":"Gorzuch\ufffdw"},{"id":"1950398","latitude":"50.85000000","longitude":"16.10000000","name":"Gostkow"},{"id":"1950446","latitude":"50.28333300","longitude":"16.88333300","name":"Gosz\ufffdw"},{"id":"1950449","latitude":"50.46666700","longitude":"16.70000000","name":"Goszyce"},{"id":"1950458","latitude":"50.75000000","longitude":"16.20000000","name":"Gottesberg"},{"id":"1950472","latitude":"50.15000000","longitude":"16.71666700","name":"Gowor\ufffdw"},{"id":"1950583","latitude":"50.96666700","longitude":"16.33333300","name":"Grabina"},{"id":"1950828","latitude":"50.93333300","longitude":"16.31666700","name":"Granica"},{"id":"1950844","latitude":"50.13333300","longitude":"16.61666700","name":"Graniczna"},{"id":"1950930","latitude":"50.45000000","longitude":"16.25000000","name":"Grenzeck"},{"id":"1950952","latitude":"50.98333300","longitude":"16.11666700","name":"Grobia"},{"id":"1950965","latitude":"50.56666700","longitude":"16.76666700","name":"Grochau"},{"id":"1950972","latitude":"50.91666700","longitude":"16.36666700","name":"Grocholow"},{"id":"1950975","latitude":"50.56666700","longitude":"16.76666700","name":"Grochowa"},{"id":"1950988","latitude":"50.55000000","longitude":"16.83333300","name":"Grochowiska"},{"id":"1950992","latitude":"50.56666700","longitude":"16.75000000","name":"Groch\ufffdwka"},{"id":"1951064","latitude":"50.40000000","longitude":"16.33333300","name":"Grodziec"},{"id":"1951099","latitude":"50.81666700","longitude":"16.56666700","name":"Grodziszce Dolne"},{"id":"1951102","latitude":"50.63333300","longitude":"16.63333300","name":"Grodziszcze"},{"id":"1951359","latitude":"51.01666700","longitude":"16.30000000","name":"Gross Rosen"},{"id":"1951469","latitude":"50.96666700","longitude":"16.03333300","name":"Grudno"},{"id":"1951546","latitude":"50.88333300","longitude":"16.56666700","name":"Grusz\ufffdw"},{"id":"1951594","latitude":"50.73333300","longitude":"16.15000000","name":"Grzedy Gorne"},{"id":"1951596","latitude":"50.73333300","longitude":"16.15000000","name":"Grzedy"},{"id":"1951623","latitude":"50.70000000","longitude":"16.35000000","name":"Grzmiaca"},{"id":"1951678","latitude":"50.63333300","longitude":"16.48333300","name":"Grzymk\ufffdw"},{"id":"1951759","latitude":"50.71666700","longitude":"16.83333300","name":"Gunice"},{"id":"1951900","latitude":"50.30000000","longitude":"16.65000000","name":"Habelschwerdt"},{"id":"1951953","latitude":"50.30000000","longitude":"16.53333300","name":"Hammer"},{"id":"1952006","latitude":"50.98333300","longitude":"16.26666700","name":"H\ufffdslicht"},{"id":"1952010","latitude":"50.73333300","longitude":"16.40000000","name":"Hausdorf"},{"id":"1952044","latitude":"50.76666700","longitude":"16.23333300","name":"Heimsdorf"},{"id":"1952047","latitude":"50.65000000","longitude":"17.00000000","name":"Heinrichau"},{"id":"1952110","latitude":"50.65000000","longitude":"17.00000000","name":"Henryk\ufffdw"},{"id":"1952154","latitude":"50.41666700","longitude":"16.40000000","name":"Hermsdorf"},{"id":"1952247","latitude":"50.91666700","longitude":"16.25000000","name":"Hohen-Frieberg"},{"id":"1952248","latitude":"50.91666700","longitude":"16.25000000","name":"Hohenfriedberg"},{"id":"1952249","latitude":"50.91666700","longitude":"16.25000000","name":"Hohen-Friedeberg"},{"id":"1952368","latitude":"50.51666700","longitude":"16.40000000","name":"Hradek"},{"id":"1952430","latitude":"50.40000000","longitude":"16.30000000","name":"Hummelstadt"},{"id":"1952490","latitude":"50.30000000","longitude":"16.55000000","name":"Huta"},{"id":"1952587","latitude":"50.26666700","longitude":"16.70000000","name":"Idzik\ufffdw"},{"id":"1952854","latitude":"50.80000000","longitude":"16.18333300","name":"Jablow"},{"id":"1952891","latitude":"50.81666700","longitude":"16.08333300","name":"Jaczk\ufffdw"},{"id":"1952935","latitude":"50.65000000","longitude":"17.23333300","name":"Jagielnica"},{"id":"1952936","latitude":"50.63333300","longitude":"17.21666700","name":"Jagielno"},{"id":"1952962","latitude":"50.85000000","longitude":"16.55000000","name":"Jagodnik"},{"id":"1952972","latitude":"50.40000000","longitude":"16.26666700","name":"Jaik\ufffdw"},{"id":"1953013","latitude":"50.45000000","longitude":"16.28333300","name":"Jakubowice"},{"id":"1953023","latitude":"50.68333300","longitude":"16.93333300","name":"Jakubow"},{"id":"1953192","latitude":"50.68333300","longitude":"16.95000000","name":"Jank\ufffdwka"},{"id":"1953265","latitude":"50.50000000","longitude":"16.70000000","name":"Janowiec"},{"id":"1953349","latitude":"50.45000000","longitude":"16.36666700","name":"Janusz\ufffdw"},{"id":"1953467","latitude":"50.36666700","longitude":"16.76666700","name":"Jasiedica"},{"id":"1953479","latitude":"50.66666700","longitude":"17.10000000","name":"Jasienica"},{"id":"1953517","latitude":"50.73333300","longitude":"16.80000000","name":"Jasin"},{"id":"1953570","latitude":"50.90000000","longitude":"16.26666700","name":"Jaskulin"},{"id":"1953593","latitude":"50.96666700","longitude":"16.05000000","name":"Jastrowiec"},{"id":"1953682","latitude":"50.40000000","longitude":"16.75000000","name":"Jaszkowa G\ufffdrna"},{"id":"1953685","latitude":"50.45000000","longitude":"16.71666700","name":"Jaszk\ufffdwka"},{"id":"1953703","latitude":"50.70000000","longitude":"16.06666700","name":"Jawisz\ufffdw"},{"id":"1953709","latitude":"50.21666700","longitude":"16.73333300","name":"Jaworek"},{"id":"1953717","latitude":"50.38333300","longitude":"16.33333300","name":"Jawornica"},{"id":"1953723","latitude":"50.71666700","longitude":"16.41666700","name":"Jawornik"},{"id":"1953730","latitude":"50.68333300","longitude":"16.93333300","name":"Jaworowice"},{"id":"1953810","latitude":"50.71666700","longitude":"16.36666700","name":"Jedinka"},{"id":"1953825","latitude":"50.73333300","longitude":"16.33333300","name":"Jedlina-Zdr\ufffdj"},{"id":"1953846","latitude":"50.83333300","longitude":"16.66666700","name":"Jedrzejowice"},{"id":"1953876","latitude":"50.73333300","longitude":"17.16666700","name":"Jeglowa"},{"id":"1953888","latitude":"50.46666700","longitude":"16.43333300","name":"Jelenia Glowa"},{"id":"1953907","latitude":"50.41666700","longitude":"16.26666700","name":"Jeleni\ufffdw"},{"id":"1953952","latitude":"50.58333300","longitude":"16.63333300","name":"Jemna"},{"id":"1953983","latitude":"50.43333300","longitude":"16.26666700","name":"Jerzykowice"},{"id":"1954112","latitude":"50.93333300","longitude":"16.05000000","name":"Jezow"},{"id":"1954139","latitude":"50.15000000","longitude":"16.75000000","name":"Jodlow"},{"id":"1954145","latitude":"50.65000000","longitude":"16.61666700","name":"Jodlownk"},{"id":"1954210","latitude":"50.65000000","longitude":"16.63333300","name":"J\ufffdzef\ufffdwek"},{"id":"1954272","latitude":"50.95000000","longitude":"16.25000000","name":"Jugowa"},{"id":"1954273","latitude":"50.73333300","longitude":"16.40000000","name":"Jugowice"},{"id":"1954274","latitude":"50.63333300","longitude":"16.53333300","name":"Jug\ufffdw"},{"id":"1954402","latitude":"50.61666700","longitude":"16.58333300","name":"Jutrosz\ufffdw"},{"id":"1954466","latitude":"50.73333300","longitude":"17.11666700","name":"Kacz\ufffdw"},{"id":"1954638","latitude":"50.68333300","longitude":"16.76666700","name":"Kalin\ufffdw"},{"id":"1954711","latitude":"50.93333300","longitude":"16.53333300","name":"Kalno"},{"id":"1954734","latitude":"50.63333300","longitude":"16.86666700","name":"Kaluza"},{"id":"1954754","latitude":"50.51666700","longitude":"16.86666700","name":"Kamenz"},{"id":"1954775","latitude":"50.10000000","longitude":"16.65000000","name":"Kamienczyk"},{"id":"1954798","latitude":"50.68333300","longitude":"16.56666700","name":"Kamieniczki"},{"id":"1954807","latitude":"50.51666700","longitude":"16.86666700","name":"Kamieniec"},{"id":"1954854","latitude":"50.28333300","longitude":"16.75000000","name":"Kamienna"},{"id":"1954898","latitude":"50.73333300","longitude":"16.36666700","name":"Kamiersk"},{"id":"1954903","latitude":"50.71666700","longitude":"16.28333300","name":"Kaminoka"},{"id":"1954965","latitude":"50.68333300","longitude":"16.55000000","name":"Kamionk"},{"id":"1954976","latitude":"50.68333300","longitude":"17.21666700","name":"Kamk\ufffdw"},{"id":"1955174","latitude":"50.46666700","longitude":"16.33333300","name":"Karlow"},{"id":"1955268","latitude":"50.35000000","longitude":"16.93333300","name":"Karpno"},{"id":"1955384","latitude":"50.71666700","longitude":"17.18333300","name":"Kasz\ufffdwka"},{"id":"1955409","latitude":"50.86666700","longitude":"16.61666700","name":"Katki"},{"id":"1955410","latitude":"50.23333300","longitude":"16.91666700","name":"Katliske"},{"id":"1955429","latitude":"50.30000000","longitude":"16.81666700","name":"Katy Bystrzyckie"},{"id":"1955613","latitude":"50.68333300","longitude":"17.16666700","name":"Keczowice"},{"id":"1955633","latitude":"50.60000000","longitude":"17.51666700","name":"Kelno"},{"id":"1955774","latitude":"50.81666700","longitude":"16.65000000","name":"Kiekzyn"},{"id":"1955900","latitude":"50.68333300","longitude":"16.68333300","name":"Kietlice"},{"id":"1955902","latitude":"50.75000000","longitude":"16.81666700","name":"Kietlin"},{"id":"1956008","latitude":"50.95000000","longitude":"16.20000000","name":"Klaczyna"},{"id":"1956011","latitude":"50.43333300","longitude":"16.65000000","name":"Kladzko"},{"id":"1956066","latitude":"50.25000000","longitude":"16.85000000","name":"Klecienko"},{"id":"1956068","latitude":"50.91666700","longitude":"16.56666700","name":"Klecin"},{"id":"1956373","latitude":"50.25000000","longitude":"16.88333300","name":"Kletno"},{"id":"1956474","latitude":"50.31666700","longitude":"16.81666700","name":"Klodno"},{"id":"1956482","latitude":"50.61666700","longitude":"16.46666700","name":"Klodzkie"},{"id":"1956495","latitude":"51.00000000","longitude":"16.15000000","name":"Klonice"},{"id":"1956577","latitude":"50.65000000","longitude":"16.75000000","name":"Kluczowa"},{"id":"1956738","latitude":"50.65000000","longitude":"16.88333300","name":"Kobyle Glowa"},{"id":"1956814","latitude":"50.70000000","longitude":"16.15000000","name":"Kochan\ufffdw"},{"id":"1956842","latitude":"50.86666700","longitude":"16.10000000","name":"Kocik\ufffdw"},{"id":"1956980","latitude":"50.68333300","longitude":"16.40000000","name":"Kolce"},{"id":"1957009","latitude":"50.61666700","longitude":"17.06666700","name":"Kolinowice Dolne"},{"id":"1957010","latitude":"50.65000000","longitude":"17.08333300","name":"Kolinowice G\ufffdrne"},{"id":"1958321","latitude":"50.86666700","longitude":"16.41666700","name":"Komorow"},{"id":"1958365","latitude":"50.66666700","longitude":"17.16666700","name":"Konary"},{"id":"1958460","latitude":"50.91666700","longitude":"16.46666700","name":"K\ufffdnigszelt"},{"id":"1958525","latitude":"50.30000000","longitude":"16.78333300","name":"Konradow"},{"id":"1958596","latitude":"50.66666700","longitude":"16.76666700","name":"Kopanica"},{"id":"1958793","latitude":"50.46666700","longitude":"16.60000000","name":"Koryt\ufffdw"},{"id":"1958964","latitude":"50.70000000","longitude":"16.78333300","name":"Kosmin"},{"id":"1959051","latitude":"50.98333300","longitude":"16.26666700","name":"Kostrza"},{"id":"1959143","latitude":"50.93333300","longitude":"16.21666700","name":"Kotlina"},{"id":"1959368","latitude":"50.78333300","longitude":"16.35000000","name":"Kozice"},{"id":"1959408","latitude":"50.61666700","longitude":"16.75000000","name":"Koziniec"},{"id":"1959480","latitude":"50.65000000","longitude":"16.83333300","name":"Kozmice"},{"id":"1959677","latitude":"50.91666700","longitude":"16.58333300","name":"Krask\ufffdw"},{"id":"1959959","latitude":"50.70000000","longitude":"17.21666700","name":"Kr\ufffdlewiec"},{"id":"1960059","latitude":"50.38333300","longitude":"16.61666700","name":"Krosnowice"},{"id":"1960068","latitude":"50.31666700","longitude":"16.65000000","name":"Krotenpfuhl"},{"id":"1960136","latitude":"50.96666700","longitude":"16.50000000","name":"Krukow"},{"id":"1960268","latitude":"50.68333300","longitude":"17.18333300","name":"Krynke"},{"id":"1960318","latitude":"50.83333300","longitude":"16.56666700","name":"Krzczon\ufffdw"},{"id":"1960404","latitude":"50.71666700","longitude":"17.10000000","name":"Krzesz\ufffdwe"},{"id":"1960436","latitude":"50.61666700","longitude":"16.56666700","name":"Krz\ufffdw"},{"id":"1960528","latitude":"50.71666700","longitude":"17.16666700","name":"Krzywina"},{"id":"1960600","latitude":"50.80000000","longitude":"16.55000000","name":"Krzyzowa"},{"id":"1960690","latitude":"50.61666700","longitude":"16.86666700","name":"Kubice"},{"id":"1960766","latitude":"50.45000000","longitude":"16.25000000","name":"Kudowa"},{"id":"1960767","latitude":"50.45000000","longitude":"16.25000000","name":"Kudowa-Zdr\ufffdj"},{"id":"1960857","latitude":"50.41666700","longitude":"16.35000000","name":"Kulin"},{"id":"1960923","latitude":"50.35000000","longitude":"16.76666700","name":"Kunzendorf"},{"id":"1961050","latitude":"50.60000000","longitude":"16.50000000","name":"Kurzendorf"},{"id":"1961143","latitude":"50.56666700","longitude":"16.55000000","name":"Kuznica"},{"id":"1961174","latitude":"50.73333300","longitude":"16.23333300","name":"Kuznice Swidnickie"},{"id":"1961248","latitude":"50.81666700","longitude":"16.61666700","name":"Kziaznica"},{"id":"1961268","latitude":"50.48333300","longitude":"16.66666700","name":"Labicz"},{"id":"1961271","latitude":"50.48333300","longitude":"16.66666700","name":"Labitsch"},{"id":"1961333","latitude":"50.50000000","longitude":"16.65000000","name":"Laczna"},{"id":"1961354","latitude":"50.35000000","longitude":"16.88333300","name":"Ladek-Zdroj"},{"id":"1961450","latitude":"50.20000000","longitude":"16.75000000","name":"Laki"},{"id":"1961487","latitude":"50.35000000","longitude":"16.88333300","name":"Landeck in Schlesien"},{"id":"1961490","latitude":"50.35000000","longitude":"16.88333300","name":"Landeck"},{"id":"1961507","latitude":"50.68333300","longitude":"16.61666700","name":"Langenbielau"},{"id":"1961643","latitude":"50.46666700","longitude":"16.80000000","name":"Laski"},{"id":"1961688","latitude":"50.48333300","longitude":"16.78333300","name":"Lask\ufffdwka"},{"id":"1961719","latitude":"50.70000000","longitude":"16.55000000","name":"Lasocin"},{"id":"1961794","latitude":"50.66666700","longitude":"16.90000000","name":"Lauenbrunn"},{"id":"1961822","latitude":"50.48333300","longitude":"16.66666700","name":"Lawica"},{"id":"1961844","latitude":"50.95000000","longitude":"16.48333300","name":"Lazany"},{"id":"1962257","latitude":"50.75000000","longitude":"16.18333300","name":"Lesieniec"},{"id":"1962281","latitude":"50.41666700","longitude":"16.31666700","name":"Lesna"},{"id":"1962398","latitude":"50.45000000","longitude":"16.63333300","name":"Leszczyny"},{"id":"1962465","latitude":"50.40000000","longitude":"16.30000000","name":"Lewin Klodzki"},{"id":"1962468","latitude":"50.40000000","longitude":"16.30000000","name":"Lewin"},{"id":"1962510","latitude":"50.45000000","longitude":"16.35000000","name":"Lezno"},{"id":"1962515","latitude":"50.43333300","longitude":"16.38333300","name":"Lezyce"},{"id":"1962624","latitude":"50.66666700","longitude":"16.81666700","name":"Ligota Mala"},{"id":"1962908","latitude":"50.96666700","longitude":"16.01666700","name":"Lipo"},{"id":"1963206","latitude":"50.68333300","longitude":"16.33333300","name":"Lomnica"},{"id":"1963385","latitude":"50.51666700","longitude":"16.85000000","name":"Lstebke"},{"id":"1963386","latitude":"50.76666700","longitude":"16.43333300","name":"Lubach\ufffdw"},{"id":"1963392","latitude":"50.53333300","longitude":"16.88333300","name":"Lubanice"},{"id":"1963469","latitude":"50.83333300","longitude":"16.28333300","name":"Lubiech\ufffdw"},{"id":"1963590","latitude":"50.51666700","longitude":"17.03333300","name":"Lubn\ufffdw"},{"id":"1963622","latitude":"50.80000000","longitude":"16.18333300","name":"Lubominek"},{"id":"1963757","latitude":"50.38333300","longitude":"16.35000000","name":"Ludow"},{"id":"1963767","latitude":"50.61666700","longitude":"16.48333300","name":"Ludwigsdorf"},{"id":"1963771","latitude":"50.61666700","longitude":"16.48333300","name":"Ludwikowice Klodzkie"},{"id":"1963781","latitude":"50.61666700","longitude":"16.48333300","name":"Ludwikow"},{"id":"1963789","latitude":"50.61666700","longitude":"16.48333300","name":"Ludwikowo"},{"id":"1963939","latitude":"50.35000000","longitude":"16.90000000","name":"Lurynia"},{"id":"1963998","latitude":"50.78333300","longitude":"16.53333300","name":"Lutomia"},{"id":"1964001","latitude":"50.60000000","longitude":"16.71666700","name":"Lutomierz"},{"id":"1964195","latitude":"50.70000000","longitude":"16.48333300","name":"Madlecin"},{"id":"1964375","latitude":"50.46666700","longitude":"16.83333300","name":"Makolno"},{"id":"1964396","latitude":"50.80000000","longitude":"16.51666700","name":"Makowice"},{"id":"1964809","latitude":"50.30000000","longitude":"16.78333300","name":"Marcink\ufffdw"},{"id":"1964816","latitude":"50.90000000","longitude":"16.56666700","name":"Marcinowice"},{"id":"1964817","latitude":"50.96666700","longitude":"16.55000000","name":"Marcinowiczki"},{"id":"1964823","latitude":"50.33333300","longitude":"16.68333300","name":"Marcin\ufffdw"},{"id":"1964827","latitude":"50.85000000","longitude":"16.01666700","name":"Marcisz\ufffdw Dolny"},{"id":"1964828","latitude":"50.83333300","longitude":"16.06666700","name":"Marcisz\ufffdw G\ufffdrny"},{"id":"1964900","latitude":"50.25000000","longitude":"16.73333300","name":"Marian\ufffdwka"},{"id":"1965500","latitude":"50.75000000","longitude":"16.45000000","name":"Michalkowa"},{"id":"1965504","latitude":"50.58333300","longitude":"16.65000000","name":"Michalkow"},{"id":"1965521","latitude":"50.16666700","longitude":"16.71666700","name":"Michalowice"},{"id":"1965648","latitude":"50.23333300","longitude":"16.78333300","name":"Miedzgorze"},{"id":"1965700","latitude":"50.96666700","longitude":"16.36666700","name":"Miedzyrzecze"},{"id":"1965777","latitude":"50.66666700","longitude":"16.18333300","name":"Mierosz\ufffdw"},{"id":"1965912","latitude":"50.55000000","longitude":"16.68333300","name":"Mikolajow"},{"id":"1965928","latitude":"50.96666700","longitude":"16.45000000","name":"Mikoszowa"},{"id":"1965931","latitude":"50.45000000","longitude":"16.60000000","name":"Mikowice"},{"id":"1966006","latitude":"50.88333300","longitude":"16.41666700","name":"Milikowice"},{"id":"1966037","latitude":"50.83333300","longitude":"16.55000000","name":"Milochow"},{"id":"1966040","latitude":"50.70000000","longitude":"17.13333300","name":"Milocice"},{"id":"1966221","latitude":"50.51666700","longitude":"16.48333300","name":"Mittelsteine"},{"id":"1966222","latitude":"50.15000000","longitude":"16.66666700","name":"Mittelwalde"},{"id":"1966267","latitude":"50.36666700","longitude":"16.60000000","name":"Mlodoein"},{"id":"1966285","latitude":"50.61666700","longitude":"16.71666700","name":"Mlodziejow"},{"id":"1966299","latitude":"50.30000000","longitude":"16.53333300","name":"Mloty"},{"id":"1966339","latitude":"50.26666700","longitude":"16.90000000","name":"Mlynowiec"},{"id":"1966342","latitude":"50.50000000","longitude":"16.66666700","name":"Mlynow"},{"id":"1966368","latitude":"50.63333300","longitude":"17.15000000","name":"Mnik\ufffdw"},{"id":"1966477","latitude":"50.80000000","longitude":"16.40000000","name":"Modlisz\ufffdw"},{"id":"1966616","latitude":"50.86666700","longitude":"16.38333300","name":"Mokrzesz\ufffdw"},{"id":"1966700","latitude":"50.96666700","longitude":"16.40000000","name":"Morawa"},{"id":"1966764","latitude":"50.50000000","longitude":"16.70000000","name":"Morzysz\ufffdw"},{"id":"1966790","latitude":"50.76666700","longitude":"16.60000000","name":"Moscisko"},{"id":"1966930","latitude":"50.95000000","longitude":"16.51666700","name":"Mrowiny"},{"id":"1966992","latitude":"50.98333300","longitude":"16.00000000","name":"Much\ufffdwek"},{"id":"1967030","latitude":"50.60000000","longitude":"17.03333300","name":"M\ufffdnsterberg"},{"id":"1967066","latitude":"50.65000000","longitude":"16.96666700","name":"Muszkowice"},{"id":"1967108","latitude":"50.86666700","longitude":"16.65000000","name":"Myslakow"},{"id":"1967114","latitude":"50.76666700","longitude":"16.41666700","name":"Myslecin"},{"id":"1967135","latitude":"50.68333300","longitude":"16.68333300","name":"Mysliszow"},{"id":"1967259","latitude":"50.16666700","longitude":"16.66666700","name":"Nagodzice"},{"id":"1967261","latitude":"50.55000000","longitude":"16.58333300","name":"Nag\ufffdra"},{"id":"1967269","latitude":"50.86666700","longitude":"16.11666700","name":"Nag\ufffdrnik"},{"id":"1967467","latitude":"50.48333300","longitude":"16.66666700","name":"Neibenfels"},{"id":"1967470","latitude":"50.48333300","longitude":"16.66666700","name":"Neissenfels"},{"id":"1967596","latitude":"50.36666700","longitude":"16.56666700","name":"Neu Lommnitz"},{"id":"1967597","latitude":"50.36666700","longitude":"16.56666700","name":"Neu Lomnitz"},{"id":"1967627","latitude":"50.58333300","longitude":"16.50000000","name":"Neurode"},{"id":"1967710","latitude":"50.48333300","longitude":"16.66666700","name":"Niebenfels"},{"id":"1967780","latitude":"50.81666700","longitude":"16.30000000","name":"Nieder Bad Salzbrunn"},{"id":"1967794","latitude":"50.81666700","longitude":"16.30000000","name":"Nieder Salzbrunn"},{"id":"1967796","latitude":"50.41666700","longitude":"16.60000000","name":"Niederschwedeldorf"},{"id":"1967799","latitude":"50.51666700","longitude":"16.50000000","name":"Niedersteine"},{"id":"1967801","latitude":"50.68333300","longitude":"16.38333300","name":"Nieder W\ufffdstegiersdorf"},{"id":"1967854","latitude":"50.28333300","longitude":"16.63333300","name":"Niedzwiedna"},{"id":"1967855","latitude":"50.58333300","longitude":"16.95000000","name":"Niedzwiednik"},{"id":"1967859","latitude":"50.73333300","longitude":"16.36666700","name":"Niedzwiedzice"},{"id":"1967876","latitude":"50.28333300","longitude":"17.55000000","name":"Niedzwiedz"},{"id":"1967892","latitude":"50.88333300","longitude":"16.51666700","name":"Niegoszow"},{"id":"1967935","latitude":"50.71666700","longitude":"16.85000000","name":"Niemcz"},{"id":"1968063","latitude":"50.58333300","longitude":"17.05000000","name":"Nieszk\ufffdw"},{"id":"1968147","latitude":"50.71666700","longitude":"16.85000000","name":"Nimptsch"},{"id":"1968273","latitude":"50.28333300","longitude":"17.25000000","name":"Nowa Biela"},{"id":"1968274","latitude":"50.68333300","longitude":"16.60000000","name":"Nowa Bielawa"},{"id":"1968281","latitude":"50.30000000","longitude":"16.61666700","name":"Nowa Bystrzyca"},{"id":"1968332","latitude":"50.36666700","longitude":"16.56666700","name":"Nowa Lomnica"},{"id":"1968333","latitude":"50.23333300","longitude":"16.90000000","name":"Nowa Morawa"},{"id":"1968354","latitude":"50.38333300","longitude":"16.51666700","name":"Nowa Sokolowka"},{"id":"1968374","latitude":"50.56666700","longitude":"16.61666700","name":"Nowa Wies Klodzka"},{"id":"1968386","latitude":"50.98333300","longitude":"16.05000000","name":"Nowa Wies Mala"},{"id":"1968388","latitude":"50.68333300","longitude":"16.81666700","name":"Nowa Wies Niemczanska"},{"id":"1968428","latitude":"50.20000000","longitude":"16.73333300","name":"Nowa Wies"},{"id":"1968445","latitude":"51.00000000","longitude":"16.00000000","name":"Nowa Wies Wielka"},{"id":"1968473","latitude":"50.85000000","longitude":"16.13333300","name":"Nowe Bogaczowice"},{"id":"1968578","latitude":"50.95000000","longitude":"16.05000000","name":"Nowe Rochowice"},{"id":"1968585","latitude":"50.66666700","longitude":"16.18333300","name":"Nowe Siodlo"},{"id":"1968593","latitude":"50.80000000","longitude":"16.20000000","name":"Nowe Szczawno"},{"id":"1968605","latitude":"50.91666700","longitude":"16.46666700","name":"Nowice"},{"id":"1968615","latitude":"50.68333300","longitude":"17.10000000","name":"Nowina"},{"id":"1968662","latitude":"50.76666700","longitude":"16.61666700","name":"Nowizno"},{"id":"1968766","latitude":"50.65000000","longitude":"17.03333300","name":"Nowy Dw\ufffdr"},{"id":"1968785","latitude":"50.30000000","longitude":"16.96666700","name":"Nowy Gieraltow"},{"id":"1968795","latitude":"50.91666700","longitude":"16.41666700","name":"Nowy Jawor\ufffdw"},{"id":"1968832","latitude":"50.90000000","longitude":"16.21666700","name":"Nowy Pietrzyk\ufffdw"},{"id":"1968841","latitude":"50.58333300","longitude":"16.50000000","name":"Nowy Ruda"},{"id":"1968866","latitude":"50.41666700","longitude":"16.70000000","name":"Nowy Swiat"},{"id":"1968874","latitude":"50.31666700","longitude":"16.73333300","name":"Nowy Waliszow"},{"id":"1968876","latitude":"50.38333300","longitude":"16.51666700","name":"Nowy Wielislaw"},{"id":"1968942","latitude":"50.81666700","longitude":"16.28333300","name":"Ober Salzbrunn"},{"id":"1968943","latitude":"50.43333300","longitude":"16.55000000","name":"Oberschwedeldorf"},{"id":"1968944","latitude":"50.43333300","longitude":"16.55000000","name":"Oberschwedelsdorf"},{"id":"1968948","latitude":"50.55000000","longitude":"16.48333300","name":"Obersteine"},{"id":"1968953","latitude":"50.66666700","longitude":"16.38333300","name":"Ober W\ufffdstegiersdorf"},{"id":"1969112","latitude":"50.43333300","longitude":"16.43333300","name":"Ociesz\ufffdw"},{"id":"1969358","latitude":"50.60000000","longitude":"16.76666700","name":"Olbrachcice Wielkie"},{"id":"1969384","latitude":"50.35000000","longitude":"16.73333300","name":"Oldrzychowice Klodzkie"},{"id":"1969512","latitude":"50.91666700","longitude":"16.35000000","name":"Olszany"},{"id":"1969572","latitude":"50.63333300","longitude":"16.55000000","name":"Olszowiec"},{"id":"1969588","latitude":"50.71666700","longitude":"16.36666700","name":"Olszyniec"},{"id":"1969605","latitude":"50.68333300","longitude":"16.06666700","name":"Olszyny"},{"id":"1969617","latitude":"50.78333300","longitude":"16.48333300","name":"Omieciny"},{"id":"1969683","latitude":"50.30000000","longitude":"16.53333300","name":"Opoczka"},{"id":"1969689","latitude":"50.80000000","longitude":"16.25000000","name":"Opoka"},{"id":"1969700","latitude":"50.50000000","longitude":"16.71666700","name":"Opolnic"},{"id":"1969743","latitude":"50.61666700","longitude":"16.50000000","name":"Orkany"},{"id":"1969776","latitude":"50.38333300","longitude":"16.83333300","name":"Orlowiec"},{"id":"1969808","latitude":"51.58333300","longitude":"16.35000000","name":"Orsk"},{"id":"1969979","latitude":"50.58333300","longitude":"17.15000000","name":"Osina Mala"},{"id":"1969987","latitude":"50.58333300","longitude":"17.06666700","name":"Osinka"},{"id":"1970169","latitude":"50.68333300","longitude":"17.11666700","name":"Ostrezna"},{"id":"1970368","latitude":"50.35000000","longitude":"16.73333300","name":"Otdrzychowice Klodzkie"},{"id":"1970452","latitude":"50.65000000","longitude":"16.68333300","name":"Owiesno"},{"id":"1970479","latitude":"50.48333300","longitude":"16.81666700","name":"Ozary"},{"id":"1970554","latitude":"50.50000000","longitude":"16.61666700","name":"Pag\ufffdrek"},{"id":"1970665","latitude":"50.90000000","longitude":"16.55000000","name":"Pank\ufffdw"},{"id":"1970839","latitude":"50.91666700","longitude":"16.40000000","name":"Pasieczna"},{"id":"1970887","latitude":"50.88333300","longitude":"16.03333300","name":"Pastewnik"},{"id":"1970888","latitude":"50.95000000","longitude":"16.45000000","name":"Pastuch\ufffdw"},{"id":"1970905","latitude":"50.36666700","longitude":"16.51666700","name":"Paszk\ufffdw"},{"id":"1970986","latitude":"50.53333300","longitude":"16.83333300","name":"Pawlowice"},{"id":"1971090","latitude":"50.86666700","longitude":"16.30000000","name":"Pelcznica"},{"id":"1971247","latitude":"50.51666700","longitude":"16.78333300","name":"Piasek"},{"id":"1971361","latitude":"50.96666700","longitude":"16.23333300","name":"Piechow"},{"id":"1971604","latitude":"50.90000000","longitude":"16.21666700","name":"Pieuzyk\ufffdw"},{"id":"1971635","latitude":"50.70000000","longitude":"16.73333300","name":"Pilawa Gorna"},{"id":"1971637","latitude":"50.70000000","longitude":"16.70000000","name":"Pilawa"},{"id":"1971640","latitude":"50.71666700","longitude":"16.68333300","name":"Pilaway Dolna"},{"id":"1971643","latitude":"50.51666700","longitude":"16.81666700","name":"Pilce"},{"id":"1971645","latitude":"50.56666700","longitude":"16.91666700","name":"Pilchowek"},{"id":"1971653","latitude":"50.38333300","longitude":"16.63333300","name":"Pilcza"},{"id":"1971685","latitude":"50.81666700","longitude":"16.53333300","name":"Pilzen"},{"id":"1971763","latitude":"50.63333300","longitude":"16.90000000","name":"Piotrowice Polskie"},{"id":"1971764","latitude":"50.93333300","longitude":"16.45000000","name":"Piotrowice Swidnickie"},{"id":"1971812","latitude":"50.11666700","longitude":"16.71666700","name":"Pisary"},{"id":"1971819","latitude":"50.60000000","longitude":"16.70000000","name":"Pisarz\ufffdw"},{"id":"1971839","latitude":"50.73333300","longitude":"16.56666700","name":"Piskorz\ufffdw"},{"id":"1971928","latitude":"50.28333300","longitude":"16.65000000","name":"Plawnica"},{"id":"1972027","latitude":"50.48333300","longitude":"16.85000000","name":"Plonica"},{"id":"1972050","latitude":"50.68333300","longitude":"17.10000000","name":"Plose"},{"id":"1972070","latitude":"50.71666700","longitude":"16.91666700","name":"Plotrk\ufffdw"},{"id":"1972086","latitude":"50.46666700","longitude":"16.60000000","name":"Plszkowice"},{"id":"1972280","latitude":"50.38333300","longitude":"16.36666700","name":"Podg\ufffdrze"},{"id":"1972382","latitude":"50.58333300","longitude":"16.60000000","name":"Podlesie"},{"id":"1972525","latitude":"50.50000000","longitude":"16.71666700","name":"Podtynje"},{"id":"1972557","latitude":"50.43333300","longitude":"16.75000000","name":"Podzamek"},{"id":"1972575","latitude":"50.81666700","longitude":"16.36666700","name":"Pogorzala"},{"id":"1972662","latitude":"50.36666700","longitude":"16.51666700","name":"Pokrzywna"},{"id":"1972694","latitude":"50.40000000","longitude":"16.53333300","name":"Polanica-Zdr\ufffdj"},{"id":"1972901","latitude":"50.88333300","longitude":"16.10000000","name":"Polwsie"},{"id":"1972910","latitude":"50.50000000","longitude":"16.95000000","name":"Pomianow G\ufffdrny"},{"id":"1972968","latitude":"50.21666700","longitude":"16.56666700","name":"Poniat\ufffdw"},{"id":"1972997","latitude":"50.25000000","longitude":"16.61666700","name":"Ponikwa"},{"id":"1973064","latitude":"50.98333300","longitude":"16.48333300","name":"Popowice"},{"id":"1973105","latitude":"50.56666700","longitude":"16.53333300","name":"Porabka"},{"id":"1973143","latitude":"50.23333300","longitude":"16.58333300","name":"Poreba"},{"id":"1973292","latitude":"50.13333300","longitude":"16.75000000","name":"Potoczek"},{"id":"1973374","latitude":"50.95000000","longitude":"16.55000000","name":"Pozarzysko"},{"id":"1973447","latitude":"50.80000000","longitude":"16.05000000","name":"Praszk\ufffdw"},{"id":"1973523","latitude":"50.68333300","longitude":"17.16666700","name":"Prieborn"},{"id":"1973710","latitude":"50.75000000","longitude":"16.03333300","name":"Przeawojow"},{"id":"1973748","latitude":"50.63333300","longitude":"16.73333300","name":"Przedborowa"},{"id":"1973793","latitude":"50.60000000","longitude":"16.63333300","name":"Przegorzaly"},{"id":"1973860","latitude":"50.68333300","longitude":"16.81666700","name":"Przerzeczyn-Zdr\ufffdj"},{"id":"1973894","latitude":"50.68333300","longitude":"17.16666700","name":"Przeworno"},{"id":"1974027","latitude":"50.61666700","longitude":"16.56666700","name":"Przyg\ufffdrze"},{"id":"1974055","latitude":"50.95000000","longitude":"16.45000000","name":"Przylegow"},{"id":"1974069","latitude":"50.51666700","longitude":"16.78333300","name":"Przylek"},{"id":"1974380","latitude":"50.86666700","longitude":"16.05000000","name":"Pustelnik"},{"id":"1974453","latitude":"50.98333300","longitude":"16.55000000","name":"Pyszczyn"},{"id":"1974582","latitude":"50.66666700","longitude":"17.05000000","name":"Raczyce"},{"id":"1974632","latitude":"50.51666700","longitude":"16.40000000","name":"Radk\ufffdw"},{"id":"1974653","latitude":"50.35000000","longitude":"16.83333300","name":"Radoch\ufffdw"},{"id":"1974937","latitude":"50.65000000","longitude":"16.85000000","name":"Rakowice"},{"id":"1975034","latitude":"50.48333300","longitude":"16.50000000","name":"Raszk\ufffdw"},{"id":"1975062","latitude":"50.50000000","longitude":"16.43333300","name":"Ratno Dolne"},{"id":"1975219","latitude":"50.38333300","longitude":"16.61666700","name":"Regersdorf"},{"id":"1975252","latitude":"50.71666700","longitude":"16.65000000","name":"Reichenbach in Schlesien"},{"id":"1975254","latitude":"50.71666700","longitude":"16.65000000","name":"Reichenbach"},{"id":"1975260","latitude":"50.43333300","longitude":"16.86666700","name":"Reichenstein"},{"id":"1975282","latitude":"50.40000000","longitude":"16.40000000","name":"Reinerz"},{"id":"1975304","latitude":"50.53333300","longitude":"16.55000000","name":"Rekawczyn"},{"id":"1975359","latitude":"50.38333300","longitude":"16.61666700","name":"Rengersdorf"},{"id":"1975442","latitude":"50.53333300","longitude":"16.75000000","name":"Rietk\ufffdw"},{"id":"1975446","latitude":"50.31666700","longitude":"16.73333300","name":"Riotrowice"},{"id":"1975576","latitude":"50.36666700","longitude":"16.73333300","name":"Rog\ufffdwka"},{"id":"1975609","latitude":"50.50000000","longitude":"16.86666700","name":"Rogow"},{"id":"1975632","latitude":"51.01666700","longitude":"16.30000000","name":"Rogoznica"},{"id":"1975660","latitude":"50.96666700","longitude":"16.23333300","name":"Rohnstock"},{"id":"1975813","latitude":"50.71666700","longitude":"16.51666700","name":"Roscisz\ufffdw"},{"id":"1975874","latitude":"50.60000000","longitude":"16.95000000","name":"Rososznica"},{"id":"1975920","latitude":"50.96666700","longitude":"16.23333300","name":"Rostoka"},{"id":"1975923","latitude":"50.28333300","longitude":"17.06666700","name":"Rost\ufffdw"},{"id":"1975948","latitude":"50.45000000","longitude":"16.60000000","name":"Roszyce"},{"id":"1975957","latitude":"50.76666700","longitude":"16.16666700","name":"Rothenbach in Schlesien"},{"id":"1975958","latitude":"50.76666700","longitude":"16.16666700","name":"Rothenbach"},{"id":"1975979","latitude":"50.43333300","longitude":"16.86666700","name":"R\ufffdwne"},{"id":"1976005","latitude":"50.63333300","longitude":"16.68333300","name":"Rozana"},{"id":"1976011","latitude":"50.18333300","longitude":"16.63333300","name":"Rozanka"},{"id":"1976125","latitude":"50.75000000","longitude":"16.73333300","name":"Roztocznik"},{"id":"1976130","latitude":"50.96666700","longitude":"16.23333300","name":"Roztoka"},{"id":"1976136","latitude":"50.18333300","longitude":"16.66666700","name":"Roztoki"},{"id":"1976253","latitude":"50.23333300","longitude":"16.55000000","name":"Rudawa"},{"id":"1976330","latitude":"50.61666700","longitude":"16.66666700","name":"Rudnica"},{"id":"1976331","latitude":"50.33333300","longitude":"16.68333300","name":"Rudnice Dolna"},{"id":"1976541","latitude":"51.00000000","longitude":"16.43333300","name":"Rusko"},{"id":"1976547","latitude":"50.75000000","longitude":"16.33333300","name":"Rusnowa"},{"id":"1976575","latitude":"50.68333300","longitude":"16.88333300","name":"Ruszkowice"},{"id":"1976660","latitude":"50.70000000","longitude":"16.28333300","name":"Rybnica Lesna"},{"id":"1976678","latitude":"50.58333300","longitude":"16.48333300","name":"Rybno"},{"id":"1976695","latitude":"50.71666700","longitude":"16.65000000","name":"Rychbach"},{"id":"1976801","latitude":"50.71666700","longitude":"16.31666700","name":"Ryonica Mala"},{"id":"1976886","latitude":"50.68333300","longitude":"16.43333300","name":"Rzeczka"},{"id":"1976927","latitude":"50.58333300","longitude":"17.46666700","name":"Rzedzma"},{"id":"1976928","latitude":"50.90000000","longitude":"16.30000000","name":"Rzedzny"},{"id":"1977049","latitude":"50.95000000","longitude":"16.50000000","name":"Saarau"},{"id":"1977051","latitude":"50.95000000","longitude":"16.50000000","name":"Saaru"},{"id":"1977109","latitude":"50.58333300","longitude":"16.81666700","name":"Sadlno"},{"id":"1977154","latitude":"50.90000000","longitude":"16.18333300","name":"Sady Dolne"},{"id":"1977155","latitude":"50.88333300","longitude":"16.16666700","name":"Sady G\ufffdrne"},{"id":"1977170","latitude":"50.88333300","longitude":"16.66666700","name":"Sady"},{"id":"1977191","latitude":"50.58333300","longitude":"16.48333300","name":"Sakobca"},{"id":"1977234","latitude":"50.70000000","longitude":"17.15000000","name":"Samborowiczki"},{"id":"1977391","latitude":"50.55000000","longitude":"16.46666700","name":"Sarny"},{"id":"1977410","latitude":"50.48333300","longitude":"16.85000000","name":"Sasnowa"},{"id":"1977552","latitude":"50.90000000","longitude":"16.55000000","name":"Schmellwitz"},{"id":"1977664","latitude":"50.30000000","longitude":"16.86666700","name":"Schreckendorf"},{"id":"1977714","latitude":"50.85000000","longitude":"16.50000000","name":"Schweidnitz-Schlesian"},{"id":"1977715","latitude":"50.85000000","longitude":"16.50000000","name":"Schweidnitz"},{"id":"1977717","latitude":"50.85000000","longitude":"16.50000000","name":"Schweinitz"},{"id":"1977748","latitude":"50.58333300","longitude":"16.58333300","name":"Sciborow"},{"id":"1977771","latitude":"50.48333300","longitude":"16.63333300","name":"Scinawica"},{"id":"1977772","latitude":"50.51666700","longitude":"16.50000000","name":"Scinawka Dolna"},{"id":"1977773","latitude":"50.55000000","longitude":"16.48333300","name":"Scinawka Gorna"},{"id":"1977818","latitude":"50.71666700","longitude":"16.41666700","name":"Sedzimierz"},{"id":"1977864","latitude":"50.30000000","longitude":"16.88333300","name":"Seitenberg Grafschaft Glatz"},{"id":"1977865","latitude":"50.30000000","longitude":"16.88333300","name":"Seitenberg"},{"id":"1978092","latitude":"50.70000000","longitude":"16.45000000","name":"Siedlik\ufffdw"},{"id":"1978094","latitude":"50.93333300","longitude":"16.56666700","name":"Siedlimowice"},{"id":"1978134","latitude":"50.98333300","longitude":"16.10000000","name":"Siedmica"},{"id":"1978209","latitude":"50.48333300","longitude":"16.45000000","name":"Siematkow"},{"id":"1978250","latitude":"50.68333300","longitude":"17.15000000","name":"Siemislawice"},{"id":"1978302","latitude":"50.26666700","longitude":"16.83333300","name":"Sienna"},{"id":"1978375","latitude":"50.66666700","longitude":"16.43333300","name":"Sieronice"},{"id":"1978387","latitude":"50.61666700","longitude":"16.90000000","name":"Sierosz\ufffdw"},{"id":"1978452","latitude":"50.56666700","longitude":"16.65000000","name":"Silberberg"},{"id":"1978488","latitude":"50.90000000","longitude":"16.26666700","name":"Siodikowice"},{"id":"1978492","latitude":"50.61666700","longitude":"16.83333300","name":"Siodlowice"},{"id":"1978557","latitude":"50.65000000","longitude":"17.03333300","name":"Skalice"},{"id":"1978624","latitude":"50.96666700","longitude":"16.41666700","name":"Skarzyce"},{"id":"1978831","latitude":"50.33333300","longitude":"16.81666700","name":"Skowronki"},{"id":"1978837","latitude":"50.36666700","longitude":"16.63333300","name":"Skprz\ufffdw"},{"id":"1979010","latitude":"50.48333300","longitude":"16.90000000","name":"Slawecin"},{"id":"1979210","latitude":"50.86666700","longitude":"16.78333300","name":"Slotwina"},{"id":"1979229","latitude":"50.90000000","longitude":"16.03333300","name":"Slowikow"},{"id":"1979302","latitude":"50.58333300","longitude":"17.28333300","name":"Sluzejowek"},{"id":"1979303","latitude":"50.58333300","longitude":"16.98333300","name":"Sluzejow"},{"id":"1979346","latitude":"50.90000000","longitude":"16.55000000","name":"Smialowice"},{"id":"1979480","latitude":"50.11666700","longitude":"16.66666700","name":"Smreczyna"},{"id":"1979684","latitude":"50.98333300","longitude":"16.16666700","name":"Sokola"},{"id":"1979687","latitude":"50.65000000","longitude":"16.46666700","name":"Sokolec"},{"id":"1979738","latitude":"50.36666700","longitude":"16.51666700","name":"Sokolowka"},{"id":"1979809","latitude":"50.81666700","longitude":"16.28333300","name":"Solice Zdroj"},{"id":"1979912","latitude":"50.56666700","longitude":"16.66666700","name":"Sosnina"},{"id":"1979949","latitude":"50.93333300","longitude":"16.68333300","name":"Sosn\ufffdw"},{"id":"1979974","latitude":"50.63333300","longitude":"16.48333300","name":"Sowki"},{"id":"1979985","latitude":"50.28333300","longitude":"16.53333300","name":"Spalona"},{"id":"1980052","latitude":"50.56666700","longitude":"16.65000000","name":"Srebrna G\ufffdra"},{"id":"1980083","latitude":"50.50000000","longitude":"16.90000000","name":"Srem"},{"id":"1980129","latitude":"50.75000000","longitude":"16.55000000","name":"Stachowice"},{"id":"1980130","latitude":"50.75000000","longitude":"16.50000000","name":"Stachowiczki"},{"id":"1980183","latitude":"50.65000000","longitude":"17.18333300","name":"Stanica"},{"id":"1980304","latitude":"50.36666700","longitude":"16.60000000","name":"Stara Lomnica"},{"id":"1980307","latitude":"50.28333300","longitude":"16.88333300","name":"Stara Morawa"},{"id":"1980372","latitude":"50.55000000","longitude":"16.93333300","name":"Starcz\ufffdw"},{"id":"1980374","latitude":"50.56666700","longitude":"17.06666700","name":"Stardzowek"},{"id":"1980382","latitude":"50.85000000","longitude":"16.16666700","name":"Stare Bogaczowice"},{"id":"1980470","latitude":"50.91666700","longitude":"16.05000000","name":"Stare Rochowice"},{"id":"1980498","latitude":"50.36666700","longitude":"16.53333300","name":"Stark\ufffdwek"},{"id":"1980504","latitude":"50.38333300","longitude":"16.56666700","name":"Stark\ufffdw"},{"id":"1980575","latitude":"50.30000000","longitude":"16.93333300","name":"Stary Gieralt\ufffdw"},{"id":"1980582","latitude":"50.66666700","longitude":"16.98333300","name":"Stary Henryk"},{"id":"1980585","latitude":"50.80000000","longitude":"16.36666700","name":"Stary Julianow"},{"id":"1980598","latitude":"50.90000000","longitude":"16.41666700","name":"Stary Laworow"},{"id":"1980632","latitude":"50.75000000","longitude":"16.18333300","name":"Stary"},{"id":"1980645","latitude":"50.38333300","longitude":"16.56666700","name":"Stary Wielislaw"},{"id":"1980774","latitude":"50.90000000","longitude":"16.56666700","name":"Stefanowice"},{"id":"1980842","latitude":"50.50000000","longitude":"16.48333300","name":"Stemk\ufffdw"},{"id":"1980984","latitude":"50.31666700","longitude":"16.88333300","name":"Stojk\ufffdw"},{"id":"1981018","latitude":"50.58333300","longitude":"16.88333300","name":"Stolec"},{"id":"1981052","latitude":"50.40000000","longitude":"16.36666700","name":"Stosrow"},{"id":"1981054","latitude":"50.60000000","longitude":"16.73333300","name":"Stoszowice"},{"id":"1981076","latitude":"50.30000000","longitude":"16.86666700","name":"Strachocin"},{"id":"1981113","latitude":"50.56666700","longitude":"16.85000000","name":"Strakowa"},{"id":"1981132","latitude":"50.53333300","longitude":"16.58333300","name":"Straszk\ufffdw"},{"id":"1981165","latitude":"50.96666700","longitude":"16.35000000","name":"Striegau"},{"id":"1981221","latitude":"50.83333300","longitude":"16.21666700","name":"Struga"},{"id":"1981254","latitude":"50.70000000","longitude":"17.20000000","name":"Struzyna"},{"id":"1981355","latitude":"50.91666700","longitude":"16.66666700","name":"Strzelce"},{"id":"1981435","latitude":"50.96666700","longitude":"16.35000000","name":"Strzyglow"},{"id":"1981515","latitude":"50.46666700","longitude":"16.46666700","name":"Studzienno"},{"id":"1981527","latitude":"50.55000000","longitude":"16.56666700","name":"Stupiec"},{"id":"1981561","latitude":"50.26666700","longitude":"16.88333300","name":"Sucha G\ufffdra"},{"id":"1981642","latitude":"50.91666700","longitude":"16.31666700","name":"Suchowala"},{"id":"1981699","latitude":"50.71666700","longitude":"16.35000000","name":"Suisz\ufffdw"},{"id":"1981763","latitude":"50.65000000","longitude":"16.81666700","name":"Sulislawice"},{"id":"1981905","latitude":"50.53333300","longitude":"16.83333300","name":"Suszka"},{"id":"1981911","latitude":"50.46666700","longitude":"16.53333300","name":"Suszyn"},{"id":"1982057","latitude":"50.50000000","longitude":"16.58333300","name":"Swiecko"},{"id":"1982061","latitude":"50.93333300","longitude":"16.26666700","name":"Swiec"},{"id":"1982366","latitude":"50.41666700","longitude":"16.60000000","name":"Szalej\ufffdw Dolny"},{"id":"1982367","latitude":"50.43333300","longitude":"16.55000000","name":"Szalej\ufffdw G\ufffdrny"},{"id":"1982447","latitude":"50.81666700","longitude":"16.30000000","name":"Szczawienko"},{"id":"1982448","latitude":"50.33333300","longitude":"16.56666700","name":"Szczawina"},{"id":"1982465","latitude":"50.81666700","longitude":"16.28333300","name":"Szczawno-Zdr\ufffdj"},{"id":"1982544","latitude":"50.90000000","longitude":"16.63333300","name":"Szczepan\ufffdw"},{"id":"1982766","latitude":"50.30000000","longitude":"16.60000000","name":"Szklarka"},{"id":"1982773","latitude":"50.15000000","longitude":"16.70000000","name":"Szklarnia"},{"id":"1982784","latitude":"50.65000000","longitude":"16.83333300","name":"Szklary"},{"id":"1982861","latitude":"50.26666700","longitude":"16.58333300","name":"Szozepkow"},{"id":"1982992","latitude":"50.31666700","longitude":"16.58333300","name":"Szych\ufffdw"},{"id":"1983040","latitude":"50.90000000","longitude":"16.26666700","name":"Szyman\ufffdw"},{"id":"1983228","latitude":"50.68333300","longitude":"16.96666700","name":"Targowica"},{"id":"1983265","latitude":"50.96666700","longitude":"16.55000000","name":"Tarnawa"},{"id":"1983327","latitude":"50.56666700","longitude":"16.78333300","name":"Tarn\ufffdw"},{"id":"1983438","latitude":"50.66666700","longitude":"16.90000000","name":"Tepliwoda"},{"id":"1983498","latitude":"50.53333300","longitude":"16.55000000","name":"Theresienfeld"},{"id":"1983676","latitude":"50.65000000","longitude":"16.85000000","name":"Tomice"},{"id":"1983684","latitude":"50.88333300","longitude":"16.46666700","name":"Tomkawa"},{"id":"1983715","latitude":"50.50000000","longitude":"16.91666700","name":"Topola"},{"id":"1984083","latitude":"50.35000000","longitude":"16.76666700","name":"Trzebieszowice"},{"id":"1984209","latitude":"50.45000000","longitude":"16.25000000","name":"Tscherbenei"},{"id":"1984210","latitude":"50.45000000","longitude":"16.25000000","name":"Tscherbeney"},{"id":"1984476","latitude":"50.46666700","longitude":"16.55000000","name":"Tworow"},{"id":"1984588","latitude":"50.61666700","longitude":"16.46666700","name":"Uawolow"},{"id":"1984614","latitude":"50.75000000","longitude":"16.68333300","name":"Uciech\ufffdw"},{"id":"1984802","latitude":"50.71666700","longitude":"16.23333300","name":"Unislaw Slaski"},{"id":"1984897","latitude":"50.46666700","longitude":"16.66666700","name":"Ustronie"},{"id":"1985003","latitude":"50.66666700","longitude":"17.03333300","name":"Wadochowice"},{"id":"1985072","latitude":"50.76666700","longitude":"16.28333300","name":"Waldenburg in Schlesien"},{"id":"1985073","latitude":"50.76666700","longitude":"16.28333300","name":"Waldenburg"},{"id":"1985131","latitude":"50.70000000","longitude":"16.43333300","name":"Walim"},{"id":"1985185","latitude":"50.48333300","longitude":"16.43333300","name":"Wambierzyce"},{"id":"1985329","latitude":"50.50000000","longitude":"16.73333300","name":"Wartha Frankenberg"},{"id":"1985330","latitude":"50.50000000","longitude":"16.73333300","name":"Wartha"},{"id":"1985542","latitude":"50.63333300","longitude":"16.63333300","name":"Weigelsdorf"},{"id":"1985557","latitude":"50.78333300","longitude":"16.25000000","name":"Weissstein"},{"id":"1985558","latitude":"50.78333300","longitude":"16.25000000","name":"Weissteim"},{"id":"1985560","latitude":"50.26666700","longitude":"16.78333300","name":"Weisswasser"},{"id":"1985563","latitude":"50.86666700","longitude":"16.55000000","name":"Weizenrodau"},{"id":"1985714","latitude":"50.98333300","longitude":"16.18333300","name":"Wiadr\ufffdw"},{"id":"1985716","latitude":"50.61666700","longitude":"17.18333300","name":"Wialiszow"},{"id":"1985994","latitude":"50.45000000","longitude":"16.33333300","name":"Wielkie"},{"id":"1986113","latitude":"50.78333300","longitude":"16.51666700","name":"Wierusz\ufffdw"},{"id":"1986162","latitude":"50.90000000","longitude":"16.50000000","name":"Wierzbna"},{"id":"1986288","latitude":"50.98333300","longitude":"16.33333300","name":"Wiesnica"},{"id":"1986324","latitude":"50.63333300","longitude":"17.11666700","name":"Wigancice"},{"id":"1986331","latitude":"50.26666700","longitude":"16.66666700","name":"Wikan\ufffdw"},{"id":"1986389","latitude":"50.51666700","longitude":"16.68333300","name":"Wilcza"},{"id":"1986474","latitude":"50.70000000","longitude":"16.45000000","name":"Wilhelmsthal"},{"id":"1986479","latitude":"50.25000000","longitude":"16.68333300","name":"Wilkan\ufffdw"},{"id":"1986545","latitude":"50.75000000","longitude":"16.85000000","name":"Wilk\ufffdw Wielki"},{"id":"1986554","latitude":"50.88333300","longitude":"16.55000000","name":"Wilk\ufffdw"},{"id":"1986668","latitude":"50.83333300","longitude":"16.61666700","name":"Wirki"},{"id":"1986677","latitude":"50.85000000","longitude":"16.65000000","name":"Wiry"},{"id":"1986798","latitude":"50.80000000","longitude":"16.13333300","name":"Witkow Slaski"},{"id":"1986799","latitude":"50.80000000","longitude":"16.13333300","name":"Witk\ufffdw"},{"id":"1986818","latitude":"50.83333300","longitude":"16.40000000","name":"Witosz\ufffdw Dolny"},{"id":"1986819","latitude":"50.81666700","longitude":"16.40000000","name":"Witosz\ufffdw G\ufffdrny"},{"id":"1986853","latitude":"50.40000000","longitude":"16.28333300","name":"Wit\ufffdw"},{"id":"1986935","latitude":"50.56666700","longitude":"16.45000000","name":"Wlodowice"},{"id":"1986948","latitude":"50.78333300","longitude":"16.65000000","name":"Wloki"},{"id":"1987042","latitude":"50.51666700","longitude":"16.65000000","name":"Wojborz"},{"id":"1987051","latitude":"50.45000000","longitude":"16.75000000","name":"Wojciechowice"},{"id":"1987154","latitude":"50.70000000","longitude":"16.85000000","name":"Wojstawice"},{"id":"1987185","latitude":"50.31666700","longitude":"16.55000000","name":"W\ufffdjtowice"},{"id":"1987186","latitude":"50.36666700","longitude":"16.86666700","name":"W\ufffdjt\ufffdwka"},{"id":"1987417","latitude":"50.41666700","longitude":"16.51666700","name":"Wolany"},{"id":"1987636","latitude":"50.60000000","longitude":"16.56666700","name":"Wolib\ufffdrz"},{"id":"1987927","latitude":"50.91666700","longitude":"16.28333300","name":"W\ufffdlka"},{"id":"1988188","latitude":"50.86666700","longitude":"16.18333300","name":"Wrony"},{"id":"1988281","latitude":"50.51666700","longitude":"16.40000000","name":"W\ufffdnschelburg"},{"id":"1988287","latitude":"50.68333300","longitude":"16.38333300","name":"W\ufffdstegiersdorf"},{"id":"1988288","latitude":"50.70000000","longitude":"16.43333300","name":"W\ufffdstelwaltersdorf"},{"id":"1988290","latitude":"50.70000000","longitude":"16.43333300","name":"W\ufffdsterwaltersdorf"},{"id":"1988291","latitude":"50.70000000","longitude":"16.43333300","name":"W\ufffdstewaltersdorf"},{"id":"1988360","latitude":"50.63333300","longitude":"16.63333300","name":"Wyganow"},{"id":"1988427","latitude":"50.51666700","longitude":"16.58333300","name":"Wygwizd\ufffdw"},{"id":"1988515","latitude":"50.63333300","longitude":"16.41666700","name":"Wyrebina"},{"id":"1988670","latitude":"50.28333300","longitude":"16.58333300","name":"Wyszki"},{"id":"1988829","latitude":"50.58333300","longitude":"16.80000000","name":"Zabkowice"},{"id":"1988848","latitude":"50.31666700","longitude":"16.65000000","name":"Zablocie"},{"id":"1989069","latitude":"50.56666700","longitude":"16.50000000","name":"Zagbrzyn"},{"id":"1989101","latitude":"50.30000000","longitude":"16.80000000","name":"Zag\ufffdrnik"},{"id":"1989108","latitude":"50.75000000","longitude":"16.40000000","name":"Zagorze Slaskie"},{"id":"1989129","latitude":"50.53333300","longitude":"16.53333300","name":"Zag\ufffdrzno"},{"id":"1989342","latitude":"50.43333300","longitude":"16.25000000","name":"Zakrze"},{"id":"1989359","latitude":"50.66666700","longitude":"16.88333300","name":"Zakrzow"},{"id":"1989445","latitude":"50.31666700","longitude":"16.58333300","name":"Zalesie"},{"id":"1989741","latitude":"50.93333300","longitude":"16.55000000","name":"Zarowice"},{"id":"1989748","latitude":"50.95000000","longitude":"16.50000000","name":"Zarrow"},{"id":"1989784","latitude":"50.40000000","longitude":"16.60000000","name":"Zarzecze"},{"id":"1990029","latitude":"50.88333300","longitude":"16.48333300","name":"Zawisz\ufffdw"},{"id":"1990190","latitude":"50.56666700","longitude":"16.66666700","name":"Zdanow"},{"id":"1990222","latitude":"50.63333300","longitude":"16.55000000","name":"Zdrojowisko"},{"id":"1990337","latitude":"50.88333300","longitude":"16.61666700","name":"Zebrzyd\ufffdw"},{"id":"1990373","latitude":"50.73333300","longitude":"17.18333300","name":"Zeieznik"},{"id":"1990397","latitude":"50.38333300","longitude":"16.66666700","name":"Zelazno"},{"id":"1990402","latitude":"50.98333300","longitude":"16.28333300","name":"Zelazow"},{"id":"1990536","latitude":"50.66666700","longitude":"16.60000000","name":"Zeromin"},{"id":"1990650","latitude":"50.40000000","longitude":"16.35000000","name":"Zieleniec"},{"id":"1990730","latitude":"50.60000000","longitude":"17.03333300","name":"Ziembice"},{"id":"1990782","latitude":"50.38333300","longitude":"16.35000000","name":"Zimnowodka"},{"id":"1990863","latitude":"50.41666700","longitude":"16.41666700","name":"Zlotno"},{"id":"1990997","latitude":"50.96666700","longitude":"16.31666700","name":"Zolkiewka"},{"id":"1991272","latitude":"50.61666700","longitude":"16.80000000","name":"Zwrocona"}]