[{"id":"1939041","latitude":"53.78333300","longitude":"20.48333300","name":"Allenshteyn"},{"id":"1939042","latitude":"53.78333300","longitude":"20.48333300","name":"Allenstein"},{"id":"1939463","latitude":"52.35000000","longitude":"18.66666700","name":"Babiak"},{"id":"1939861","latitude":"53.83333300","longitude":"20.70000000","name":"Barczewo"},{"id":"1939997","latitude":"54.25583300","longitude":"20.81138900","name":"Bartoszyce"},{"id":"1940001","latitude":"50.26666700","longitude":"17.58333300","name":"Bartultovice"},{"id":"1940680","latitude":"52.05000000","longitude":"16.48333300","name":"Bielawy"},{"id":"1941008","latitude":"53.86666700","longitude":"20.96666700","name":"Biskupiec"},{"id":"1941017","latitude":"54.08666700","longitude":"20.90944400","name":"Bisztynek"},{"id":"1941611","latitude":"50.00000000","longitude":"18.20000000","name":"Boleslaw"},{"id":"1941802","latitude":"49.98333300","longitude":"18.78333300","name":"Borki"},{"id":"1941919","latitude":"52.28333300","longitude":"17.03333300","name":"Borowiec"},{"id":"1942007","latitude":"50.00000000","longitude":"18.15000000","name":"Borucin"},{"id":"1942226","latitude":"54.37972200","longitude":"19.82000000","name":"Braniewo"},{"id":"1942838","latitude":"52.55000000","longitude":"15.76666700","name":"Brzezno"},{"id":"1943406","latitude":"53.35000000","longitude":"19.15000000","name":"Bukowiec"},{"id":"1943646","latitude":"49.58333300","longitude":"18.85000000","name":"Bystry"},{"id":"1943649","latitude":"54.05000000","longitude":"18.86666700","name":"Bystrze"},{"id":"1943679","latitude":"53.53333300","longitude":"19.75000000","name":"Byszwald"},{"id":"1943873","latitude":"49.93333300","longitude":"18.30000000","name":"Chalupki"},{"id":"1943881","latitude":"49.93333300","longitude":"18.30000000","name":"Chalutki"},{"id":"1943956","latitude":"50.36666700","longitude":"19.76666700","name":"Chelm"},{"id":"1943959","latitude":"50.10000000","longitude":"19.26666700","name":"Chelmek"},{"id":"1944819","latitude":"50.10000000","longitude":"17.71666700","name":"Ciermecice"},{"id":"1944891","latitude":"49.76666700","longitude":"18.60000000","name":"Cieszyn"},{"id":"1945829","latitude":"50.23333300","longitude":"19.21666700","name":"Dabrowa"},{"id":"1946019","latitude":"54.41666700","longitude":"17.46666700","name":"Dabrowno"},{"id":"1946367","latitude":"49.81666700","longitude":"18.71666700","name":"Debowiec"},{"id":"1946516","latitude":"49.98333300","longitude":"17.85000000","name":"Dirschenhof"},{"id":"1946517","latitude":"49.98333300","longitude":"17.85000000","name":"Dirschkenhof"},{"id":"1946518","latitude":"49.98333300","longitude":"17.85000000","name":"Dirschkowitz"},{"id":"1946586","latitude":"51.68333300","longitude":"17.20000000","name":"Dlugoleka"},{"id":"1946740","latitude":"53.98333300","longitude":"20.40000000","name":"Dobre Miasto"},{"id":"1946756","latitude":"50.25000000","longitude":"17.75000000","name":"Dobrogost\ufffdw"},{"id":"1946875","latitude":"52.65000000","longitude":"19.33333300","name":"Dobrzyn"},{"id":"1947534","latitude":"51.10000000","longitude":"15.65000000","name":"Dworek"},{"id":"1947649","latitude":"53.85000000","longitude":"20.48333300","name":"Dywity"},{"id":"1947852","latitude":"49.98333300","longitude":"17.85000000","name":"Dzierzkowice"},{"id":"1947892","latitude":"49.98333300","longitude":"17.85000000","name":"Dziezkowice"},{"id":"1947956","latitude":"53.71666700","longitude":"20.95000000","name":"Dzwierzuty"},{"id":"1948029","latitude":"54.16666700","longitude":"19.38333300","name":"Elblag"},{"id":"1948431","latitude":"53.66666700","longitude":"19.70000000","name":"Frednowy"},{"id":"1948503","latitude":"54.36027800","longitude":"19.68611100","name":"Frombork"},{"id":"1948687","latitude":"54.17111100","longitude":"20.84138900","name":"Galiny"},{"id":"1948787","latitude":"53.61666700","longitude":"18.95000000","name":"Gardeja"},{"id":"1949096","latitude":"53.55000000","longitude":"20.08333300","name":"Gierzwald"},{"id":"1949108","latitude":"53.75000000","longitude":"20.23333300","name":"Gietrzwald"},{"id":"1949646","latitude":"49.91666700","longitude":"18.48333300","name":"God\ufffdw"},{"id":"1949866","latitude":"49.91666700","longitude":"18.50000000","name":"Golkowice"},{"id":"1950178","latitude":"54.28777800","longitude":"20.49666700","name":"Gorowo Ilaweckie"},{"id":"1950301","latitude":"49.95000000","longitude":"18.41666700","name":"Gorzyce"},{"id":"1950308","latitude":"49.93333300","longitude":"18.41666700","name":"Gorzyczki"},{"id":"1950357","latitude":"53.98333300","longitude":"19.00000000","name":"Gosciszewo"},{"id":"1950682","latitude":"50.53333300","longitude":"21.45000000","name":"Grabowiec"},{"id":"1951152","latitude":"53.75000000","longitude":"20.41666700","name":"Gronity"},{"id":"1951164","latitude":"54.08333300","longitude":"19.31666700","name":"Gronowo Elblaskie"},{"id":"1951171","latitude":"53.88333300","longitude":"18.86666700","name":"Gronowo"},{"id":"1951769","latitude":"53.81666700","longitude":"18.91666700","name":"Gurcz"},{"id":"1952627","latitude":"53.60000000","longitude":"19.56666700","name":"Ilawa"},{"id":"1953127","latitude":"52.43333300","longitude":"17.03333300","name":"Janikowo"},{"id":"1953180","latitude":"50.03333300","longitude":"19.43333300","name":"Jankowice"},{"id":"1953326","latitude":"54.33333300","longitude":"19.03333300","name":"Jantar"},{"id":"1953390","latitude":"50.26666700","longitude":"17.45000000","name":"Jarnoltowek"},{"id":"1953400","latitude":"51.96666700","longitude":"17.51666700","name":"Jarocin"},{"id":"1953584","latitude":"49.56666700","longitude":"18.86666700","name":"Jasnowice"},{"id":"1953689","latitude":"49.70000000","longitude":"18.81666700","name":"Jaszowiec"},{"id":"1954043","latitude":"53.98333300","longitude":"20.75000000","name":"Jeziorany"},{"id":"1954163","latitude":"53.83333300","longitude":"20.31666700","name":"Jonkowo"},{"id":"1955735","latitude":"54.07805600","longitude":"21.37638900","name":"Ketrzyn"},{"id":"1955738","latitude":"49.88333300","longitude":"19.23333300","name":"Kety"},{"id":"1955979","latitude":"53.60000000","longitude":"19.26666700","name":"Kisielice"},{"id":"1956033","latitude":"53.68333300","longitude":"19.11666700","name":"Klasztorek"},{"id":"1957045","latitude":"53.41666700","longitude":"21.93333300","name":"Kolno"},{"id":"1957485","latitude":"50.68333300","longitude":"17.96666700","name":"Kolonia"},{"id":"1958758","latitude":"54.17194400","longitude":"21.14166700","name":"Korsze"},{"id":"1958835","latitude":"54.58333300","longitude":"18.48333300","name":"Kosakowo"},{"id":"1959225","latitude":"49.83333300","longitude":"18.85000000","name":"Kowale"},{"id":"1959469","latitude":"52.31666700","longitude":"16.46666700","name":"Kozlowo"},{"id":"1959638","latitude":"50.01666700","longitude":"18.13333300","name":"Kranowitz"},{"id":"1959640","latitude":"50.01666700","longitude":"18.13333300","name":"Kranst\ufffddt"},{"id":"1959641","latitude":"50.01666700","longitude":"18.13333300","name":"Kranst\ufffddt"},{"id":"1959705","latitude":"50.11666700","longitude":"17.65000000","name":"Krasne Pole"},{"id":"1960055","latitude":"49.68333300","longitude":"21.78333300","name":"Krosno"},{"id":"1960256","latitude":"54.38333300","longitude":"19.45000000","name":"Krynica Morska"},{"id":"1960306","latitude":"50.01666700","longitude":"18.13333300","name":"Krzanowice"},{"id":"1960434","latitude":"50.01666700","longitude":"18.13333300","name":"Krzonowice"},{"id":"1961220","latitude":"53.73333300","longitude":"18.91666700","name":"Kwidzyn"},{"id":"1961352","latitude":"52.03333300","longitude":"18.01666700","name":"Ladek"},{"id":"1961736","latitude":"54.08333300","longitude":"19.06666700","name":"Lasowice Wielkie"},{"id":"1962158","latitude":"54.32694400","longitude":"20.23527800","name":"Lelkowo"},{"id":"1962180","latitude":"50.13333300","longitude":"17.61666700","name":"Lenarcice"},{"id":"1962411","latitude":"51.85000000","longitude":"16.58333300","name":"Leszno"},{"id":"1962556","latitude":"54.11666700","longitude":"18.91666700","name":"Lichnowy"},{"id":"1962584","latitude":"54.12250000","longitude":"20.58777800","name":"Lidzbark Warminski"},{"id":"1962685","latitude":"50.13333300","longitude":"17.60000000","name":"Linhartovy"},{"id":"1962801","latitude":"49.66666700","longitude":"21.31666700","name":"Lipinki"},{"id":"1962929","latitude":"49.88333300","longitude":"19.05000000","name":"Lipowiec"},{"id":"1963099","latitude":"53.73333300","longitude":"19.83333300","name":"Liwa"},{"id":"1963409","latitude":"53.50000000","longitude":"19.75000000","name":"Lubawa"},{"id":"1964056","latitude":"49.58333300","longitude":"21.58333300","name":"Lysa Gora"},{"id":"1964514","latitude":"54.03333300","longitude":"19.05000000","name":"Malbork"},{"id":"1964531","latitude":"53.91666700","longitude":"19.73333300","name":"Maldyty"},{"id":"1965000","latitude":"49.78333300","longitude":"18.61666700","name":"Marklowice"},{"id":"1965026","latitude":"49.86666700","longitude":"18.58333300","name":"Marktowice G\ufffdrne"},{"id":"1965116","latitude":"54.20000000","longitude":"19.31666700","name":"Marzecino"},{"id":"1965211","latitude":"53.85000000","longitude":"20.35000000","name":"Matki"},{"id":"1965409","latitude":"50.15000000","longitude":"17.60000000","name":"Mesto Albrechtlce"},{"id":"1965901","latitude":"53.85000000","longitude":"19.18333300","name":"Mikolajki Pomorskie"},{"id":"1966008","latitude":"53.88333300","longitude":"19.50000000","name":"Milikowo"},{"id":"1966029","latitude":"52.81666700","longitude":"16.51666700","name":"Milkowo"},{"id":"1966049","latitude":"53.76666700","longitude":"19.83333300","name":"Milomlyn"},{"id":"1966322","latitude":"51.51666700","longitude":"17.60000000","name":"Mlynik"},{"id":"1966691","latitude":"53.91666700","longitude":"19.93333300","name":"Morag"},{"id":"1966901","latitude":"53.86666700","longitude":"21.30000000","name":"Mragowo"},{"id":"1967879","latitude":"50.23333300","longitude":"20.10000000","name":"Niedzwiedz"},{"id":"1968316","latitude":"54.13333300","longitude":"18.20000000","name":"Nowa Karczma"},{"id":"1968653","latitude":"50.58333300","longitude":"21.85000000","name":"Nowiny"},{"id":"1968748","latitude":"54.21666700","longitude":"19.11666700","name":"Nowy Dwor Gdanski"},{"id":"1969231","latitude":"50.45000000","longitude":"19.51666700","name":"Ogrodzieniec"},{"id":"1969579","latitude":"53.58333300","longitude":"20.30000000","name":"Olsztynek"},{"id":"1969580","latitude":"53.78333300","longitude":"20.48333300","name":"Olsztyn"},{"id":"1969606","latitude":"49.81666700","longitude":"21.15000000","name":"Olszyny"},{"id":"1969668","latitude":"50.15000000","longitude":"17.61666700","name":"Opavice"},{"id":"1969669","latitude":"50.15000000","longitude":"17.61666700","name":"Opawica"},{"id":"1969671","latitude":"54.11333300","longitude":"20.20722200","name":"Open"},{"id":"1969752","latitude":"53.98333300","longitude":"21.58333300","name":"Orlen"},{"id":"1969796","latitude":"54.11777800","longitude":"20.13194400","name":"Orneta"},{"id":"1970046","latitude":"50.85000000","longitude":"17.16666700","name":"Osno"},{"id":"1970238","latitude":"52.78333300","longitude":"19.16666700","name":"Ostrowite"},{"id":"1970872","latitude":"54.06750000","longitude":"19.66722200","name":"Paslek"},{"id":"1971248","latitude":"50.01666700","longitude":"18.95000000","name":"Piasek"},{"id":"1971351","latitude":"53.88333300","longitude":"18.21666700","name":"Piece"},{"id":"1971457","latitude":"54.22694400","longitude":"20.13416700","name":"Pieniezno"},{"id":"1971566","latitude":"50.03333300","longitude":"18.08333300","name":"Pietraszyn"},{"id":"1971761","latitude":"50.21666700","longitude":"18.98333300","name":"Piotrowice"},{"id":"1972631","latitude":"49.80000000","longitude":"18.60000000","name":"Pogwizd\ufffdw"},{"id":"1972921","latitude":"53.60000000","longitude":"19.80000000","name":"Pomierki"},{"id":"1972944","latitude":"50.26666700","longitude":"17.73333300","name":"Pomorzowiczki"},{"id":"1973624","latitude":"50.31666700","longitude":"17.58333300","name":"Prudnik"},{"id":"1974353","latitude":"49.71666700","longitude":"18.66666700","name":"Puncow"},{"id":"1974361","latitude":"53.71666700","longitude":"20.70000000","name":"Purda"},{"id":"1974678","latitude":"53.51666700","longitude":"19.56666700","name":"Radomno"},{"id":"1975378","latitude":"54.05222200","longitude":"21.14472200","name":"Reszel"},{"id":"1976277","latitude":"49.93333300","longitude":"18.30000000","name":"Ruderswald"},{"id":"1976402","latitude":"53.63333300","longitude":"19.66666700","name":"Rudzienice"},{"id":"1976680","latitude":"52.61666700","longitude":"17.28333300","name":"Rybno"},{"id":"1976713","latitude":"53.68333300","longitude":"17.43333300","name":"Rychnowy"},{"id":"1976764","latitude":"53.83333300","longitude":"18.96666700","name":"Ryjewo"},{"id":"1977657","latitude":"50.11666700","longitude":"17.65000000","name":"Sch\ufffdnwiese"},{"id":"1977752","latitude":"50.01666700","longitude":"18.03333300","name":"Sciborzyce Wielkie"},{"id":"1978522","latitude":"51.75000000","longitude":"22.55000000","name":"Sitno"},{"id":"1978593","latitude":"54.30000000","longitude":"20.30000000","name":"Skarbiec"},{"id":"1978844","latitude":"49.90000000","longitude":"18.55000000","name":"Skrbensko"},{"id":"1979059","latitude":"50.26666700","longitude":"17.73333300","name":"Slawoszow"},{"id":"1979219","latitude":"49.55000000","longitude":"18.88333300","name":"Slowiaki"},{"id":"1979887","latitude":"53.85000000","longitude":"21.15000000","name":"Sorkwity"},{"id":"1980425","latitude":"53.63333300","longitude":"21.06666700","name":"Stare Kiejkuty"},{"id":"1980449","latitude":"52.41666700","longitude":"16.93333300","name":"Stare Miasto"},{"id":"1980566","latitude":"53.85000000","longitude":"19.41666700","name":"Stary Dzierzgon"},{"id":"1980612","latitude":"54.08333300","longitude":"18.96666700","name":"Starynia"},{"id":"1980636","latitude":"53.93333300","longitude":"19.18333300","name":"Stary Targ"},{"id":"1980706","latitude":"53.66666700","longitude":"20.40000000","name":"Stawiguda"},{"id":"1980956","latitude":"51.88333300","longitude":"21.51666700","name":"Stoczek"},{"id":"1981305","latitude":"52.31666700","longitude":"17.81666700","name":"Strzalkowo"},{"id":"1981910","latitude":"53.71666700","longitude":"19.35000000","name":"Susz"},{"id":"1981952","latitude":"53.93333300","longitude":"20.25000000","name":"Swiatki"},{"id":"1982108","latitude":"52.65000000","longitude":"15.00000000","name":"Swierkocin"},{"id":"1982661","latitude":"53.56666700","longitude":"21.00000000","name":"Szczytno"},{"id":"1982896","latitude":"53.98333300","longitude":"19.16666700","name":"Szropy"},{"id":"1982908","latitude":"53.93333300","longitude":"19.03333300","name":"Sztum"},{"id":"1983277","latitude":"50.25000000","longitude":"17.75000000","name":"Tarnkewa"},{"id":"1983482","latitude":"49.76666700","longitude":"18.60000000","name":"Teschen"},{"id":"1983483","latitude":"49.76666700","longitude":"18.60000000","name":"Tesin"},{"id":"1983621","latitude":"54.32027800","longitude":"19.51500000","name":"Tolkmicko"},{"id":"1983902","latitude":"50.15000000","longitude":"17.61666700","name":"Troplowitz"},{"id":"1983903","latitude":"50.15000000","longitude":"17.61666700","name":"Tropplowitz"},{"id":"1984610","latitude":"49.80000000","longitude":"18.38333300","name":"Uchylsko"},{"id":"1984790","latitude":"53.73333300","longitude":"20.31666700","name":"Unieszewo"},{"id":"1984971","latitude":"53.86666700","longitude":"19.46666700","name":"Vorwerk"},{"id":"1985000","latitude":"53.81666700","longitude":"20.53333300","name":"Wadag"},{"id":"1985155","latitude":"54.21666700","longitude":"19.21666700","name":"Walldorf"},{"id":"1985881","latitude":"53.40000000","longitude":"20.95000000","name":"Wielbark"},{"id":"1986077","latitude":"49.65000000","longitude":"19.16666700","name":"Wieprz"},{"id":"1987971","latitude":"51.08333300","longitude":"22.71666700","name":"Wolnica"},{"id":"1988413","latitude":"52.75000000","longitude":"23.55000000","name":"Wygoda"},{"id":"1988494","latitude":"49.86666700","longitude":"18.58333300","name":"Wymyslow"},{"id":"1988610","latitude":"50.43333300","longitude":"19.36666700","name":"Wysoka"},{"id":"1988763","latitude":"49.93333300","longitude":"18.33333300","name":"Zabelkow"},{"id":"1989386","latitude":"53.90000000","longitude":"21.41666700","name":"Zalec"},{"id":"1989464","latitude":"53.73333300","longitude":"19.78333300","name":"Zalewo"},{"id":"1989924","latitude":"51.98333300","longitude":"15.55000000","name":"Zawada"},{"id":"1990697","latitude":"50.50000000","longitude":"23.28333300","name":"Zielone"},{"id":"1990714","latitude":"52.30000000","longitude":"21.16666700","name":"Zielonka"}]