[{"id":"2011213","latitude":"25.70833330","longitude":"51.59166670","name":"Abu Kharab"},{"id":"2011218","latitude":"25.69611110","longitude":"51.26083330","name":"Abu Suwayy"},{"id":"2011222","latitude":"25.56694440","longitude":"51.48472220","name":"Ad Da`ayin"},{"id":"2011228","latitude":"25.73472220","longitude":"51.54750000","name":"Ad Dhakhirah"},{"id":"2011232","latitude":"25.73472220","longitude":"51.54750000","name":"Adh Dhakhira"},{"id":"2011233","latitude":"25.73472220","longitude":"51.54750000","name":"Adh Dhakhirah"},{"id":"2011234","latitude":"25.73472220","longitude":"51.54750000","name":"Adh Dhukhayr"},{"id":"2011240","latitude":"25.56694440","longitude":"51.48472220","name":"Al Da`ain"},{"id":"2011241","latitude":"25.73472220","longitude":"51.54750000","name":"Al Dakhirah"},{"id":"2011242","latitude":"25.73472220","longitude":"51.54750000","name":"Al Dhakhirah"},{"id":"2011243","latitude":"25.56694440","longitude":"51.48472220","name":"Al Dha'Sin"},{"id":"2011245","latitude":"25.62250000","longitude":"51.45444440","name":"Al Ghaf"},{"id":"2011270","latitude":"25.70083330","longitude":"51.58472220","name":"Al Jubayl"},{"id":"2011285","latitude":"25.68388890","longitude":"51.50583330","name":"Al-Khaur"},{"id":"2011286","latitude":"25.68388890","longitude":"51.50583330","name":"Al Khawr"},{"id":"2011292","latitude":"25.85750000","longitude":"51.44138890","name":"Al Khurays"},{"id":"2011307","latitude":"25.88805560","longitude":"51.38638890","name":"Al Mashrab"},{"id":"2011313","latitude":"25.66694440","longitude":"51.17444440","name":"Al Qa`iyah"},{"id":"2011321","latitude":"25.68638890","longitude":"51.46888890","name":"Al `Uqdah"},{"id":"2011325","latitude":"25.83916670","longitude":"51.46527780","name":"Al Wa`b"},{"id":"2011335","latitude":"25.49750000","longitude":"51.48527780","name":"Al Wasait"},{"id":"2011338","latitude":"25.49750000","longitude":"51.48527780","name":"Al Wusail"},{"id":"2011339","latitude":"25.49750000","longitude":"51.48527780","name":"Al Wusayl"},{"id":"2011356","latitude":"25.65000000","longitude":"51.37222220","name":"Ash Shafallahiyah"},{"id":"2011378","latitude":"25.57472220","longitude":"51.48638890","name":"As Sumaisma"},{"id":"2011387","latitude":"25.56694440","longitude":"51.48472220","name":"Az\u0327 Z\u0327a`a'in"},{"id":"2011388","latitude":"25.56694440","longitude":"51.48472220","name":"Az\u0327 Z\u0327a`ayim"},{"id":"2011389","latitude":"25.56694440","longitude":"51.48472220","name":"Az\u0327 Z\u0327a`ayin"},{"id":"2011394","latitude":"25.73472220","longitude":"51.54750000","name":"Dakhira"},{"id":"2011396","latitude":"25.56694440","longitude":"51.48472220","name":"Dha`ain"},{"id":"2011397","latitude":"25.56694440","longitude":"51.48472220","name":"Dha`an"},{"id":"2011398","latitude":"25.73472220","longitude":"51.54750000","name":"Dhakhirah"},{"id":"2011403","latitude":"25.56694440","longitude":"51.48472220","name":"Edh Dha'ain"},{"id":"2011421","latitude":"25.68388890","longitude":"51.50583330","name":"Khaur al-Mahanidah"},{"id":"2011422","latitude":"25.68388890","longitude":"51.50583330","name":"Khaur Shaqiq"},{"id":"2011424","latitude":"25.68388890","longitude":"51.50583330","name":"Khawr Shaqiq"},{"id":"2011426","latitude":"25.68388890","longitude":"51.50583330","name":"Khor-al-Mahandah"},{"id":"2011428","latitude":"25.68388890","longitude":"51.50583330","name":"Khor"},{"id":"2011429","latitude":"25.68388890","longitude":"51.50583330","name":"Khor Shaqiq"},{"id":"2011434","latitude":"25.49750000","longitude":"51.48527780","name":"Lusail"},{"id":"2011435","latitude":"25.87194440","longitude":"51.35472220","name":"Madinat al Ka`ban"},{"id":"2011477","latitude":"25.65000000","longitude":"51.37222220","name":"Shafilahiyah"},{"id":"2011478","latitude":"25.68388890","longitude":"51.50583330","name":"Shakik"},{"id":"2011481","latitude":"25.79333330","longitude":"51.40944440","name":"Simsimah"},{"id":"2011482","latitude":"25.57472220","longitude":"51.48638890","name":"Somaismah"},{"id":"2011483","latitude":"25.57472220","longitude":"51.48638890","name":"Sumaisimah"},{"id":"2011484","latitude":"25.57472220","longitude":"51.48638890","name":"Sumaisima"},{"id":"2011485","latitude":"25.57472220","longitude":"51.48638890","name":"Sumaismah"},{"id":"2011486","latitude":"25.57472220","longitude":"51.48638890","name":"Sumaisma"},{"id":"2011487","latitude":"25.57472220","longitude":"51.48638890","name":"Sumaysimah"},{"id":"2011490","latitude":"25.61027780","longitude":"51.47527780","name":"Tinbak"},{"id":"2011511","latitude":"25.77222220","longitude":"51.48333330","name":"Umm al Quhab"},{"id":"2011513","latitude":"25.64583330","longitude":"51.45000000","name":"Umm al Suwaija"},{"id":"2011517","latitude":"25.64583330","longitude":"51.45000000","name":"Umm as Suwayyah"},{"id":"2011521","latitude":"25.75111110","longitude":"51.44916670","name":"Umm Birkah"},{"id":"2011532","latitude":"25.71583330","longitude":"51.50555560","name":"Umm Qayn"},{"id":"2011546","latitude":"25.64583330","longitude":"51.45000000","name":"Umm Suwaijah"},{"id":"2011547","latitude":"25.64583330","longitude":"51.45000000","name":"Umm Suwayjah"}]