[{"id":"2011980","latitude":"46.25000000","longitude":"25.43333300","name":"Ab\ufffdsfalva"},{"id":"2011984","latitude":"46.21666700","longitude":"25.28333300","name":"Abr\ufffdnfalva"},{"id":"2012026","latitude":"46.55000000","longitude":"26.08333300","name":"Adamas"},{"id":"2012127","latitude":"46.25000000","longitude":"25.18333300","name":"Agyagfalva"},{"id":"2012130","latitude":"46.48333300","longitude":"25.83333300","name":"Ainad"},{"id":"2012143","latitude":"46.48333300","longitude":"25.83333300","name":"Ajn\ufffdd"},{"id":"2012168","latitude":"46.23333300","longitude":"24.85000000","name":"Albesti"},{"id":"2012217","latitude":"46.55000000","longitude":"26.08333300","name":"Aldamas"},{"id":"2012218","latitude":"46.55000000","longitude":"26.08333300","name":"Aldamasul"},{"id":"2012220","latitude":"46.25000000","longitude":"25.43333300","name":"Aldea"},{"id":"2012238","latitude":"46.23333300","longitude":"25.31666700","name":"Alexandria"},{"id":"2012246","latitude":"46.23333300","longitude":"25.31666700","name":"Alexandrita"},{"id":"2012266","latitude":"46.70000000","longitude":"25.50000000","name":"Alfal\ufffd"},{"id":"2012323","latitude":"46.26666700","longitude":"24.98333300","name":"Als\ufffdb\ufffdldogfalva"},{"id":"2012341","latitude":"46.53333300","longitude":"25.13333300","name":"Als\ufffds\ufffdfalva"},{"id":"2012413","latitude":"46.35000000","longitude":"25.01666700","name":"Andr\ufffdsfalva"},{"id":"2012414","latitude":"46.35000000","longitude":"25.01666700","name":"Andreeni"},{"id":"2012467","latitude":"46.56666700","longitude":"25.98333300","name":"Antaloc"},{"id":"2012468","latitude":"46.56666700","longitude":"25.98333300","name":"Antal\ufffdk-Pataka"},{"id":"2012477","latitude":"46.56666700","longitude":"25.96666700","name":"Antonesti"},{"id":"2012496","latitude":"46.11666700","longitude":"24.81666700","name":"Apold"},{"id":"2012545","latitude":"46.18333300","longitude":"25.08333300","name":"Archita"},{"id":"2012548","latitude":"46.50000000","longitude":"25.16666700","name":"Arcio"},{"id":"2012549","latitude":"46.50000000","longitude":"25.16666700","name":"Arcs\ufffd"},{"id":"2012631","latitude":"46.35000000","longitude":"25.96666700","name":"Armaseni"},{"id":"2012634","latitude":"46.33333300","longitude":"25.96666700","name":"Armasenii Noi"},{"id":"2012635","latitude":"46.33333300","longitude":"25.96666700","name":"Armaseni Noi"},{"id":"2012689","latitude":"46.26666700","longitude":"25.30000000","name":"Arvateni"},{"id":"2012691","latitude":"46.26666700","longitude":"25.30000000","name":"Arv\ufffdtfalva"},{"id":"2012698","latitude":"46.31666700","longitude":"25.90000000","name":"Asau"},{"id":"2012706","latitude":"46.50000000","longitude":"25.16666700","name":"Ascio"},{"id":"2012738","latitude":"46.48333300","longitude":"25.13333300","name":"Atia"},{"id":"2012740","latitude":"46.45000000","longitude":"25.05000000","name":"Atid"},{"id":"2012761","latitude":"46.48333300","longitude":"25.13333300","name":"Atyha"},{"id":"2012786","latitude":"46.33333300","longitude":"25.01666700","name":"Avramesti"},{"id":"2012907","latitude":"46.21666700","longitude":"25.35000000","name":"Badei"},{"id":"2012911","latitude":"46.21666700","longitude":"25.35000000","name":"Badeni"},{"id":"2012971","latitude":"46.21666700","longitude":"25.35000000","name":"B\ufffdgy"},{"id":"2013000","latitude":"46.33333300","longitude":"25.51666700","name":"Baia Sf\ufffdnta Cruce"},{"id":"2013031","latitude":"46.30000000","longitude":"25.58333300","name":"Baile Chirui"},{"id":"2013034","latitude":"46.30000000","longitude":"25.58333300","name":"Baile Craiu"},{"id":"2013045","latitude":"46.35000000","longitude":"25.80000000","name":"Baile Harghita"},{"id":"2013047","latitude":"46.05000000","longitude":"25.26666700","name":"Baile Homord"},{"id":"2013048","latitude":"46.05000000","longitude":"25.26666700","name":"Baile Homorod"},{"id":"2013057","latitude":"45.90000000","longitude":"24.85000000","name":"Baile Rodbav"},{"id":"2013058","latitude":"46.33333300","longitude":"25.51666700","name":"Baile Sf\ufffdnta Cruce"},{"id":"2013059","latitude":"46.28333300","longitude":"25.86666700","name":"Baile Sintimbru"},{"id":"2013074","latitude":"46.33333300","longitude":"25.78333300","name":"Bai Minerale"},{"id":"2013147","latitude":"46.65000000","longitude":"25.81666700","name":"Balan"},{"id":"2013151","latitude":"46.65000000","longitude":"25.81666700","name":"Bal\ufffdnb\ufffdnya"},{"id":"2013385","latitude":"46.30000000","longitude":"25.93333300","name":"Bancu"},{"id":"2013386","latitude":"46.30000000","longitude":"25.93333300","name":"Bancul"},{"id":"2013414","latitude":"46.30000000","longitude":"25.93333300","name":"Bankfalva"},{"id":"2013424","latitude":"46.26666700","longitude":"25.48333300","name":"B\ufffdny\ufffdszfalva"},{"id":"2013437","latitude":"46.56666700","longitude":"25.98333300","name":"Baraczkos"},{"id":"2013477","latitude":"46.56666700","longitude":"25.98333300","name":"Baratcos"},{"id":"2013478","latitude":"46.56666700","longitude":"25.98333300","name":"Baratcus"},{"id":"2013544","latitude":"46.41666700","longitude":"24.96666700","name":"Barcia"},{"id":"2013545","latitude":"46.41666700","longitude":"24.96666700","name":"Barcsa"},{"id":"2013549","latitude":"46.00000000","longitude":"24.91666700","name":"Barcut"},{"id":"2013552","latitude":"46.13333300","longitude":"25.61666700","name":"Bard\ufffdcz"},{"id":"2013559","latitude":"46.00000000","longitude":"24.91666700","name":"Bareut"},{"id":"2013634","latitude":"46.51666700","longitude":"25.03333300","name":"Bartostana"},{"id":"2013635","latitude":"46.51666700","longitude":"25.03333300","name":"Bartostanya"},{"id":"2013654","latitude":"46.43333300","longitude":"25.81666700","name":"B\ufffdrzava"},{"id":"2013817","latitude":"46.31666700","longitude":"25.30000000","name":"Beclean"},{"id":"2013842","latitude":"46.15000000","longitude":"25.18333300","name":"Beia"},{"id":"2013961","latitude":"46.38333300","longitude":"25.16666700","name":"Bencz\ufffdd"},{"id":"2013982","latitude":"46.38333300","longitude":"25.16666700","name":"Bentid"},{"id":"2014149","latitude":"46.78333300","longitude":"25.45000000","name":"Besineu"},{"id":"2014158","latitude":"46.28333300","longitude":"25.21666700","name":"Beta"},{"id":"2014160","latitude":"46.28333300","longitude":"25.08333300","name":"Betesti"},{"id":"2014165","latitude":"46.28333300","longitude":"25.08333300","name":"Bettfalva"},{"id":"2014232","latitude":"46.78333300","longitude":"25.45000000","name":"Bicu Mic"},{"id":"2014255","latitude":"46.26666700","longitude":"25.25000000","name":"Bikafalva"},{"id":"2014389","latitude":"46.43333300","longitude":"25.81666700","name":"B\ufffdrzava"},{"id":"2014414","latitude":"46.35000000","longitude":"25.85000000","name":"Biserica"},{"id":"2014419","latitude":"46.36666700","longitude":"25.23333300","name":"Bisericani"},{"id":"2014666","latitude":"46.26666700","longitude":"24.98333300","name":"Bodogaia"},{"id":"2014691","latitude":"45.98333300","longitude":"25.35000000","name":"Bogata Olteana"},{"id":"2014751","latitude":"46.25000000","longitude":"25.21666700","name":"B\ufffdg\ufffdz"},{"id":"2014793","latitude":"46.26666700","longitude":"24.86666700","name":"Boiu"},{"id":"2014797","latitude":"46.26666700","longitude":"24.86666700","name":"Boiul"},{"id":"2014848","latitude":"46.36666700","longitude":"25.25000000","name":"Bolg\ufffdrfalva"},{"id":"2014989","latitude":"46.33333300","longitude":"25.85000000","name":"Boroslo"},{"id":"2014998","latitude":"46.55000000","longitude":"26.00000000","name":"Borospatak"},{"id":"2015002","latitude":"46.33333300","longitude":"25.85000000","name":"Boroszlo"},{"id":"2015025","latitude":"46.95000000","longitude":"25.56666700","name":"Borsec"},{"id":"2015028","latitude":"46.95000000","longitude":"25.56666700","name":"Borsz\ufffdk"},{"id":"2015052","latitude":"46.68333300","longitude":"25.43333300","name":"Borzont"},{"id":"2015054","latitude":"46.43333300","longitude":"25.81666700","name":"Borzsova"},{"id":"2015079","latitude":"46.63333300","longitude":"25.66666700","name":"Bot\ufffdk"},{"id":"2015093","latitude":"46.63333300","longitude":"25.66666700","name":"Boteni"},{"id":"2015204","latitude":"46.08333300","longitude":"24.83333300","name":"Bradeni"},{"id":"2015207","latitude":"46.35000000","longitude":"25.35000000","name":"Bradesti"},{"id":"2015251","latitude":"46.13333300","longitude":"25.61666700","name":"Bradut"},{"id":"2015413","latitude":"46.78333300","longitude":"25.45000000","name":"Brazii"},{"id":"2015618","latitude":"46.55000000","longitude":"25.11666700","name":"Bucin"},{"id":"2015690","latitude":"46.55000000","longitude":"25.11666700","name":"Bucsin"},{"id":"2015859","latitude":"46.56666700","longitude":"25.98333300","name":"B\ufffdkkhavas-Pataka"},{"id":"2015861","latitude":"46.46666700","longitude":"25.95000000","name":"B\ufffdkkl\ufffdka"},{"id":"2015883","latitude":"46.36666700","longitude":"25.25000000","name":"Bulgareni"},{"id":"2015921","latitude":"46.10000000","longitude":"25.05000000","name":"Bundorf"},{"id":"2015932","latitude":"46.10000000","longitude":"25.05000000","name":"Bunesti"},{"id":"2016179","latitude":"46.48333300","longitude":"25.13333300","name":"Cadaci"},{"id":"2016180","latitude":"46.33333300","longitude":"25.10000000","name":"Cadaciu Mare"},{"id":"2016181","latitude":"46.33333300","longitude":"25.10000000","name":"Cadaciu Mic"},{"id":"2016183","latitude":"46.43333300","longitude":"26.06666700","name":"Cadaresti"},{"id":"2016189","latitude":"46.31666700","longitude":"25.31666700","name":"Cadiseni"},{"id":"2016326","latitude":"46.85000000","longitude":"25.40000000","name":"Calnaci"},{"id":"2016327","latitude":"46.85000000","longitude":"25.40000000","name":"Calnaciu"},{"id":"2016337","latitude":"46.43333300","longitude":"25.18333300","name":"Calonda"},{"id":"2016338","latitude":"46.43333300","longitude":"25.18333300","name":"Calonde"},{"id":"2016359","latitude":"46.28333300","longitude":"25.40000000","name":"Calugareni"},{"id":"2016521","latitude":"46.36666700","longitude":"25.51666700","name":"Capalnita"},{"id":"2016547","latitude":"46.36666700","longitude":"25.51666700","name":"Capilnita"},{"id":"2016823","latitude":"46.53333300","longitude":"25.75000000","name":"Carta"},{"id":"2016890","latitude":"46.08333300","longitude":"25.26666700","name":"Cata"},{"id":"2017043","latitude":"46.31666700","longitude":"25.01666700","name":"Cechesti"},{"id":"2017055","latitude":"46.40000000","longitude":"25.13333300","name":"Cehetel"},{"id":"2017290","latitude":"46.33333300","longitude":"25.05000000","name":"Chedia Mare"},{"id":"2017291","latitude":"46.33333300","longitude":"25.06666700","name":"Chedia Mica"},{"id":"2017399","latitude":"46.68333300","longitude":"25.56666700","name":"Chileni"},{"id":"2017420","latitude":"46.26666700","longitude":"24.86666700","name":"Chilii"},{"id":"2017441","latitude":"46.25000000","longitude":"25.35000000","name":"Chinusiu"},{"id":"2017442","latitude":"46.25000000","longitude":"25.35000000","name":"Chinusu"},{"id":"2017443","latitude":"46.25000000","longitude":"25.35000000","name":"Chinusul"},{"id":"2017517","latitude":"46.26666700","longitude":"25.48333300","name":"Chirui"},{"id":"2017579","latitude":"46.30000000","longitude":"25.93333300","name":"Ciangai"},{"id":"2017581","latitude":"46.41666700","longitude":"25.75000000","name":"Ciaracio"},{"id":"2017588","latitude":"46.35000000","longitude":"25.80000000","name":"Ciba"},{"id":"2017592","latitude":"46.35000000","longitude":"25.80000000","name":"Cib"},{"id":"2017597","latitude":"46.43333300","longitude":"25.18333300","name":"Cica"},{"id":"2017602","latitude":"46.41666700","longitude":"25.78333300","name":"Ciceu"},{"id":"2017605","latitude":"46.41666700","longitude":"25.78333300","name":"Ciceul"},{"id":"2017632","latitude":"46.41666700","longitude":"24.96666700","name":"Cihanos"},{"id":"2017719","latitude":"45.91666700","longitude":"24.80000000","name":"Cincu"},{"id":"2017720","latitude":"45.91666700","longitude":"24.80000000","name":"Cincul"},{"id":"2017745","latitude":"46.30000000","longitude":"25.93333300","name":"Cinod"},{"id":"2017767","latitude":"46.31666700","longitude":"25.95000000","name":"Ciobanis"},{"id":"2017774","latitude":"46.31666700","longitude":"25.95000000","name":"Ciobonas"},{"id":"2017778","latitude":"46.38333300","longitude":"25.85000000","name":"Cioboteni"},{"id":"2017884","latitude":"46.41666700","longitude":"25.75000000","name":"Cioracio"},{"id":"2017968","latitude":"46.31666700","longitude":"25.20000000","name":"Cireseni"},{"id":"2018045","latitude":"46.53333300","longitude":"25.75000000","name":"Cirta"},{"id":"2018098","latitude":"46.31666700","longitude":"25.95000000","name":"Ciucs\ufffdngeorgiu"},{"id":"2018099","latitude":"46.31666700","longitude":"25.95000000","name":"Ciucs\ufffdngeorgiu"},{"id":"2018108","latitude":"46.45000000","longitude":"25.85000000","name":"Ciughes"},{"id":"2018136","latitude":"46.68333300","longitude":"25.51666700","name":"Ciumani"},{"id":"2018157","latitude":"46.51666700","longitude":"26.11666700","name":"Ciunghes"},{"id":"2018215","latitude":"46.80000000","longitude":"25.41666700","name":"Ciutac"},{"id":"2018254","latitude":"46.15000000","longitude":"24.98333300","name":"Cloasterf"},{"id":"2018313","latitude":"46.35000000","longitude":"25.15000000","name":"Cobatesti"},{"id":"2018319","latitude":"45.95000000","longitude":"25.05000000","name":"Cobor"},{"id":"2018431","latitude":"46.03333300","longitude":"25.21666700","name":"Cohalm"},{"id":"2018495","latitude":"46.43333300","longitude":"25.18333300","name":"Colonda"},{"id":"2018608","latitude":"46.26666700","longitude":"25.43333300","name":"Comanesti"},{"id":"2018620","latitude":"46.53333300","longitude":"25.96666700","name":"Comiat"},{"id":"2018840","latitude":"46.35000000","longitude":"25.80000000","name":"Cormos"},{"id":"2018976","latitude":"46.46666700","longitude":"25.18333300","name":"Corund"},{"id":"2019037","latitude":"46.43333300","longitude":"26.06666700","name":"Cosnea"},{"id":"2019186","latitude":"46.30000000","longitude":"25.90000000","name":"Cotorman"},{"id":"2019187","latitude":"46.30000000","longitude":"25.90000000","name":"Cotormani"},{"id":"2019188","latitude":"46.30000000","longitude":"25.90000000","name":"Cotorm\ufffdny"},{"id":"2019248","latitude":"46.71666700","longitude":"25.60000000","name":"Covacipeter"},{"id":"2019266","latitude":"46.51666700","longitude":"25.03333300","name":"Cozbertaia"},{"id":"2019276","latitude":"46.51666700","longitude":"25.03333300","name":"Cozlertaia"},{"id":"2019300","latitude":"46.18333300","longitude":"25.43333300","name":"Craciunel"},{"id":"2019477","latitude":"46.41666700","longitude":"24.96666700","name":"Criseni"},{"id":"2019510","latitude":"46.28333300","longitude":"25.03333300","name":"Cristur"},{"id":"2019516","latitude":"46.28333300","longitude":"25.03333300","name":"Cristuru Secuiesc"},{"id":"2019517","latitude":"46.11666700","longitude":"25.01666700","name":"Crit"},{"id":"2019588","latitude":"46.41666700","longitude":"25.75000000","name":"Csaracs\ufffd"},{"id":"2019595","latitude":"46.40000000","longitude":"25.13333300","name":"Cseh\ufffdtfalva"},{"id":"2019599","latitude":"46.31666700","longitude":"25.01666700","name":"Csekefalva"},{"id":"2019600","latitude":"46.46666700","longitude":"25.00000000","name":"Cselye"},{"id":"2019604","latitude":"46.85000000","longitude":"25.60000000","name":"Csengell\ufffdr"},{"id":"2019618","latitude":"46.35000000","longitude":"25.80000000","name":"Csiba"},{"id":"2019621","latitude":"46.41666700","longitude":"25.78333300","name":"Csics\ufffd"},{"id":"2019622","latitude":"46.41666700","longitude":"24.96666700","name":"Csih\ufffdnyos"},{"id":"2019623","latitude":"46.30000000","longitude":"25.93333300","name":"Csik Bankfolva"},{"id":"2019628","latitude":"46.31666700","longitude":"25.90000000","name":"Csik Mindszent"},{"id":"2019629","latitude":"46.45000000","longitude":"25.75000000","name":"Csikr\ufffdkos"},{"id":"2019630","latitude":"46.51666700","longitude":"25.75000000","name":"Csiks\ufffdnfalva"},{"id":"2019631","latitude":"46.38333300","longitude":"25.83333300","name":"Csiksomly\ufffd"},{"id":"2019632","latitude":"46.58333300","longitude":"25.78333300","name":"Csikszentdomokos"},{"id":"2019633","latitude":"46.31666700","longitude":"25.95000000","name":"Csik Szent Gy\ufffdrgu"},{"id":"2019634","latitude":"46.31666700","longitude":"25.95000000","name":"Csikszentgy\ufffdrgy"},{"id":"2019635","latitude":"46.28333300","longitude":"25.86666700","name":"Csikszentimre"},{"id":"2019637","latitude":"46.28333300","longitude":"25.86666700","name":"Csik-Szent-Karg"},{"id":"2019638","latitude":"46.30000000","longitude":"25.85000000","name":"Csikszentkir\ufffdly"},{"id":"2019640","latitude":"46.46666700","longitude":"25.81666700","name":"Csikszentmih\ufffdly"},{"id":"2019641","latitude":"46.43333300","longitude":"25.85000000","name":"Csikszentmikl\ufffds"},{"id":"2019643","latitude":"46.55000000","longitude":"25.78333300","name":"Csikszenttam\ufffds"},{"id":"2019644","latitude":"46.35000000","longitude":"25.80000000","name":"Csikszereda"},{"id":"2019645","latitude":"46.30000000","longitude":"25.85000000","name":"Csik Szlkirole"},{"id":"2019646","latitude":"46.36666700","longitude":"25.80000000","name":"Csiktaploca"},{"id":"2019649","latitude":"46.31666700","longitude":"25.95000000","name":"Csob\ufffdnos"},{"id":"2019652","latitude":"46.38333300","longitude":"25.85000000","name":"Csobotfalva"},{"id":"2019656","latitude":"46.68333300","longitude":"25.51666700","name":"Csomafalva"},{"id":"2019658","latitude":"46.38333300","longitude":"25.86666700","name":"Csomort\ufffdn"},{"id":"2019667","latitude":"46.80000000","longitude":"25.41666700","name":"Csutakfalva"},{"id":"2019859","latitude":"46.46666700","longitude":"25.05000000","name":"Cusmad"},{"id":"2019860","latitude":"46.46666700","longitude":"25.05000000","name":"Cusmed"},{"id":"2019910","latitude":"46.01666700","longitude":"25.15000000","name":"Dacia"},{"id":"2019923","latitude":"46.15000000","longitude":"24.90000000","name":"Daia"},{"id":"2019930","latitude":"46.15000000","longitude":"24.90000000","name":"Daia Saseasca"},{"id":"2019931","latitude":"45.96666700","longitude":"25.15000000","name":"Daisoara"},{"id":"2020003","latitude":"46.51666700","longitude":"25.75000000","name":"Danesti"},{"id":"2020012","latitude":"46.51666700","longitude":"25.75000000","name":"D\ufffdnfalva"},{"id":"2020039","latitude":"46.20000000","longitude":"25.20000000","name":"D\ufffdrjiu"},{"id":"2020040","latitude":"46.20000000","longitude":"25.20000000","name":"D\ufffdrjiul"},{"id":"2020141","latitude":"46.40000000","longitude":"25.30000000","name":"Dealu"},{"id":"2020171","latitude":"46.40000000","longitude":"25.30000000","name":"Dealul"},{"id":"2020262","latitude":"46.25000000","longitude":"25.16666700","name":"D\ufffdcsfalva"},{"id":"2020291","latitude":"46.25000000","longitude":"25.16666700","name":"Dejutiu"},{"id":"2020327","latitude":"46.41666700","longitude":"25.83333300","name":"Delne"},{"id":"2020329","latitude":"46.41666700","longitude":"25.83333300","name":"Delnita"},{"id":"2020340","latitude":"46.51666700","longitude":"25.03333300","name":"Demetertana"},{"id":"2020341","latitude":"46.51666700","longitude":"25.03333300","name":"Demetert\ufffdra"},{"id":"2020343","latitude":"46.51666700","longitude":"25.03333300","name":"Demetestana"},{"id":"2020363","latitude":"46.38333300","longitude":"25.36666700","name":"Desag"},{"id":"2020511","latitude":"46.20000000","longitude":"25.20000000","name":"D\ufffdrjiu"},{"id":"2020529","latitude":"46.81666700","longitude":"25.51666700","name":"Ditrau"},{"id":"2020530","latitude":"46.81666700","longitude":"25.51666700","name":"Ditro"},{"id":"2020531","latitude":"46.86666700","longitude":"25.43333300","name":"Ditr\ufffd Hodas"},{"id":"2020558","latitude":"46.28333300","longitude":"25.18333300","name":"Dobeni"},{"id":"2020572","latitude":"46.11666700","longitude":"25.58333300","name":"Doboseni"},{"id":"2020993","latitude":"46.13333300","longitude":"25.30000000","name":"Draguseni"},{"id":"2021026","latitude":"46.13333300","longitude":"25.30000000","name":"Drauseni"},{"id":"2021084","latitude":"46.85000000","longitude":"25.40000000","name":"Duda"},{"id":"2021248","latitude":"46.15000000","longitude":"24.90000000","name":"Dupa Hula"},{"id":"2021291","latitude":"46.20000000","longitude":"25.28333300","name":"Ege"},{"id":"2021292","latitude":"46.31666700","longitude":"25.95000000","name":"Egernita"},{"id":"2021295","latitude":"46.31666700","longitude":"25.95000000","name":"Egersz\ufffdk"},{"id":"2021296","latitude":"46.31666700","longitude":"25.95000000","name":"Eghersec"},{"id":"2021314","latitude":"46.28333300","longitude":"24.93333300","name":"Eliseni"},{"id":"2021338","latitude":"46.43333300","longitude":"25.10000000","name":"Enlaka"},{"id":"2021364","latitude":"46.15000000","longitude":"25.61666700","name":"Erdofule"},{"id":"2021399","latitude":"46.78333300","longitude":"25.45000000","name":"Eseneu"},{"id":"2021403","latitude":"46.78333300","longitude":"25.45000000","name":"Eszeny\ufffd"},{"id":"2021406","latitude":"46.45000000","longitude":"25.05000000","name":"Eted"},{"id":"2021451","latitude":"46.46666700","longitude":"25.95000000","name":"Fagetel"},{"id":"2021501","latitude":"46.36666700","longitude":"25.28333300","name":"F\ufffdncel"},{"id":"2021506","latitude":"46.48333300","longitude":"25.26666700","name":"F\ufffdnt\ufffdna Brazilor"},{"id":"2021510","latitude":"45.96666700","longitude":"25.28333300","name":"F\ufffdnt\ufffdna"},{"id":"2021544","latitude":"46.30000000","longitude":"25.23333300","name":"Farc\ufffdd"},{"id":"2021575","latitude":"46.38333300","longitude":"25.21666700","name":"Farkaslaka"},{"id":"2021576","latitude":"46.38333300","longitude":"25.21666700","name":"Farkaslaxa"},{"id":"2021577","latitude":"46.56666700","longitude":"25.98333300","name":"Farkaspall\ufffd"},{"id":"2021597","latitude":"46.26666700","longitude":"25.00000000","name":"Fata"},{"id":"2021656","latitude":"46.23333300","longitude":"25.01666700","name":"Feleag"},{"id":"2021659","latitude":"46.26666700","longitude":"25.26666700","name":"Feliceni"},{"id":"2021661","latitude":"45.93333300","longitude":"25.01666700","name":"Felmer"},{"id":"2021662","latitude":"45.93333300","longitude":"25.01666700","name":"Felmeru"},{"id":"2021665","latitude":"46.26666700","longitude":"25.26666700","name":"Felsoboldogfalva"},{"id":"2021685","latitude":"46.08333300","longitude":"25.53333300","name":"Fels\ufffdr\ufffdkos"},{"id":"2021687","latitude":"46.53333300","longitude":"25.15000000","name":"Fels\ufffdsofalva"},{"id":"2021707","latitude":"46.35000000","longitude":"25.35000000","name":"Feny\ufffdd"},{"id":"2021710","latitude":"46.48333300","longitude":"25.26666700","name":"Fenyokut"},{"id":"2021711","latitude":"46.48333300","longitude":"25.26666700","name":"Fenyokutja"},{"id":"2021744","latitude":"46.23333300","longitude":"24.85000000","name":"Ferihaza"},{"id":"2021774","latitude":"46.26666700","longitude":"25.01666700","name":"Fi\ufffdtfalva"},{"id":"2021812","latitude":"46.15000000","longitude":"25.61666700","name":"Filia"},{"id":"2021813","latitude":"46.26666700","longitude":"25.01666700","name":"Filias"},{"id":"2021847","latitude":"46.86666700","longitude":"25.41666700","name":"Filpea"},{"id":"2021860","latitude":"46.36666700","longitude":"25.28333300","name":"F\ufffdncel"},{"id":"2021876","latitude":"46.48333300","longitude":"25.26666700","name":"F\ufffdnt\ufffdna Brazilor"},{"id":"2021883","latitude":"45.96666700","longitude":"25.28333300","name":"F\ufffdnt\ufffdna"},{"id":"2021930","latitude":"46.41666700","longitude":"25.10000000","name":"Firtanus"},{"id":"2021933","latitude":"46.41666700","longitude":"25.10000000","name":"Firtos-M\ufffdrtonos"},{"id":"2021934","latitude":"46.41666700","longitude":"25.15000000","name":"Firtosv\ufffdralya"},{"id":"2021935","latitude":"46.41666700","longitude":"25.15000000","name":"Firtusu"},{"id":"2021941","latitude":"46.06666700","longitude":"25.15000000","name":"Fiser"},{"id":"2021951","latitude":"46.35000000","longitude":"25.85000000","name":"Fitod"},{"id":"2022097","latitude":"46.30000000","longitude":"25.23333300","name":"Forteni"},{"id":"2022195","latitude":"46.45000000","longitude":"25.85000000","name":"Frumoasa"},{"id":"2022236","latitude":"46.15000000","longitude":"25.61666700","name":"F\ufffdle"},{"id":"2022245","latitude":"46.86666700","longitude":"25.41666700","name":"F\ufffdlpe"},{"id":"2022279","latitude":"46.90000000","longitude":"25.43333300","name":"Fundoaia"},{"id":"2022284","latitude":"46.90000000","longitude":"25.43333300","name":"Fundoja"},{"id":"2022357","latitude":"46.35000000","longitude":"25.51666700","name":"G\ufffdbor Aron Vas\ufffdzem"},{"id":"2022387","latitude":"46.36666700","longitude":"25.01666700","name":"Gagy"},{"id":"2022552","latitude":"46.53333300","longitude":"25.96666700","name":"Gara Paltinis"},{"id":"2022558","latitude":"46.01666700","longitude":"25.26666700","name":"Gara Rupea"},{"id":"2022602","latitude":"46.45000000","longitude":"25.78333300","name":"G\ufffdrciu"},{"id":"2022603","latitude":"46.45000000","longitude":"25.78333300","name":"G\ufffdrciul"},{"id":"2022606","latitude":"46.45000000","longitude":"25.78333300","name":"G\ufffdrcu"},{"id":"2022819","latitude":"46.71666700","longitude":"25.61666700","name":"Gheorghem"},{"id":"2022821","latitude":"46.71666700","longitude":"25.61666700","name":"Gheorgheni"},{"id":"2022825","latitude":"46.71666700","longitude":"25.61666700","name":"Gheorghieni"},{"id":"2022877","latitude":"46.78333300","longitude":"25.53333300","name":"Ghidet"},{"id":"2022890","latitude":"46.78333300","longitude":"25.53333300","name":"Ghiditu"},{"id":"2022892","latitude":"46.78333300","longitude":"25.53333300","name":"Ghidut"},{"id":"2022906","latitude":"46.71666700","longitude":"25.60000000","name":"Ghilcos"},{"id":"2022917","latitude":"46.58333300","longitude":"26.03333300","name":"Ghimes"},{"id":"2022961","latitude":"46.26666700","longitude":"25.40000000","name":"Ghipes"},{"id":"2022980","latitude":"46.31666700","longitude":"25.95000000","name":"Ghiurche"},{"id":"2023038","latitude":"46.36666700","longitude":"25.01666700","name":"Gioagiu"},{"id":"2023075","latitude":"46.45000000","longitude":"25.78333300","name":"G\ufffdrciu"},{"id":"2023287","latitude":"46.36666700","longitude":"25.01666700","name":"Goagiu"},{"id":"2023288","latitude":"46.36666700","longitude":"25.01666700","name":"Goagiul"},{"id":"2023394","latitude":"46.56666700","longitude":"25.98333300","name":"G\ufffdrbepataka"},{"id":"2023443","latitude":"46.45000000","longitude":"25.78333300","name":"G\ufffdr\ufffdcsfalva"},{"id":"2023536","latitude":"46.03333300","longitude":"24.96666700","name":"Gr\ufffdnari"},{"id":"2023590","latitude":"46.03333300","longitude":"24.96666700","name":"Gr\ufffdnari"},{"id":"2023675","latitude":"45.91666700","longitude":"24.80000000","name":"Gross-Schenk"},{"id":"2023732","latitude":"46.78333300","longitude":"25.53333300","name":"G\ufffdd\ufffdcs"},{"id":"2023961","latitude":"46.26666700","longitude":"25.40000000","name":"Gyepes"},{"id":"2023962","latitude":"46.71666700","longitude":"25.61666700","name":"Gyerg\ufffdszentmikl\ufffds"},{"id":"2023964","latitude":"46.70000000","longitude":"25.50000000","name":"Gyergy\ufffdalfalu"},{"id":"2023965","latitude":"46.71666700","longitude":"25.61666700","name":"Gyergyo"},{"id":"2023966","latitude":"46.78333300","longitude":"25.45000000","name":"Gyergy\ufffdremete"},{"id":"2023967","latitude":"46.71666700","longitude":"25.61666700","name":"Gyergy\ufffdszentmikl\ufffds"},{"id":"2023973","latitude":"46.71666700","longitude":"25.60000000","name":"Gyilkost\ufffd"},{"id":"2023974","latitude":"46.53333300","longitude":"25.96666700","name":"Gyimesfels\ufffdlok"},{"id":"2023975","latitude":"46.56666700","longitude":"25.98333300","name":"Gyimesk\ufffdz\ufffdplok"},{"id":"2023977","latitude":"46.85000000","longitude":"25.45000000","name":"Gy\ufffdrgyo-V\ufffdrhegy"},{"id":"2023986","latitude":"46.31666700","longitude":"25.95000000","name":"Gy\ufffdrke"},{"id":"2024004","latitude":"46.88333300","longitude":"25.68333300","name":"Hag\ufffdt\ufffd"},{"id":"2024021","latitude":"46.88333300","longitude":"25.68333300","name":"Hagota"},{"id":"2024022","latitude":"46.88333300","longitude":"25.68333300","name":"H\ufffdg\ufffdt\ufffdalja"},{"id":"2024131","latitude":"46.35000000","longitude":"25.80000000","name":"Harghita-Bai"},{"id":"2024132","latitude":"46.41666700","longitude":"25.75000000","name":"Harghita"},{"id":"2024133","latitude":"46.35000000","longitude":"25.80000000","name":"Hargitaf\ufffdrd\ufffd"},{"id":"2024181","latitude":"46.23333300","longitude":"24.93333300","name":"Hasfalau"},{"id":"2024240","latitude":"46.08333300","longitude":"24.83333300","name":"Hendorf"},{"id":"2024293","latitude":"46.65000000","longitude":"25.65000000","name":"Heveder"},{"id":"2024302","latitude":"46.60000000","longitude":"25.96666700","name":"Hidegs\ufffdg"},{"id":"2024396","latitude":"46.28333300","longitude":"25.23333300","name":"Hodgya"},{"id":"2024417","latitude":"46.86666700","longitude":"25.43333300","name":"Hodosa-de-Ciuc"},{"id":"2024418","latitude":"46.86666700","longitude":"25.43333300","name":"Hodosa"},{"id":"2024425","latitude":"46.86666700","longitude":"25.43333300","name":"Hodos"},{"id":"2024428","latitude":"46.28333300","longitude":"25.23333300","name":"Hoghia"},{"id":"2024430","latitude":"45.98333300","longitude":"25.30000000","name":"Hoghiz"},{"id":"2024464","latitude":"46.23333300","longitude":"25.45000000","name":"Homor\ufffddalm\ufffds"},{"id":"2024465","latitude":"46.35000000","longitude":"25.46666700","name":"Homorod-Bai"},{"id":"2024468","latitude":"46.35000000","longitude":"25.46666700","name":"Homorodfurdo"},{"id":"2024470","latitude":"46.05000000","longitude":"25.26666700","name":"Homorod"},{"id":"2024471","latitude":"46.18333300","longitude":"25.43333300","name":"Homor\ufffddkar\ufffdcsonfalva"},{"id":"2024472","latitude":"46.26666700","longitude":"25.43333300","name":"Homor\ufffddkem\ufffdnyfalva"},{"id":"2024473","latitude":"46.28333300","longitude":"25.40000000","name":"Homor\ufffddremete"},{"id":"2024474","latitude":"46.23333300","longitude":"25.38333300","name":"Homor\ufffddszentm\ufffdrton"},{"id":"2024475","latitude":"46.18333300","longitude":"25.38333300","name":"Homor\ufffddszentp\ufffdl"},{"id":"2024476","latitude":"46.18333300","longitude":"25.36666700","name":"Homor\ufffddszentp\ufffdter"},{"id":"2024480","latitude":"46.15000000","longitude":"25.40000000","name":"Homor\ufffddujfal\ufffd"},{"id":"2024488","latitude":"46.23333300","longitude":"25.45000000","name":"Homot\ufffddalmas"},{"id":"2024556","latitude":"46.35000000","longitude":"25.91666700","name":"Hosasau"},{"id":"2024562","latitude":"46.35000000","longitude":"25.91666700","name":"Hosszuaszo"},{"id":"2024630","latitude":"46.01666700","longitude":"24.78333300","name":"Hundrubechiu"},{"id":"2024706","latitude":"46.71666700","longitude":"25.60000000","name":"Ianco"},{"id":"2024732","latitude":"46.20000000","longitude":"25.25000000","name":"Iasu"},{"id":"2024848","latitude":"46.20000000","longitude":"25.28333300","name":"Ighiu"},{"id":"2024850","latitude":"46.20000000","longitude":"25.28333300","name":"Ighiul"},{"id":"2024904","latitude":"46.58333300","longitude":"25.13333300","name":"Iliesi"},{"id":"2024907","latitude":"46.58333300","longitude":"25.13333300","name":"Iliesti"},{"id":"2024929","latitude":"46.58333300","longitude":"25.13333300","name":"Ily\ufffdsmez\ufffd"},{"id":"2024955","latitude":"46.55000000","longitude":"25.76666700","name":"Ineu"},{"id":"2024956","latitude":"46.55000000","longitude":"25.76666700","name":"Ineul"},{"id":"2024962","latitude":"46.43333300","longitude":"25.10000000","name":"Inlaceni"},{"id":"2024989","latitude":"46.56666700","longitude":"25.93333300","name":"Intunecoasa"},{"id":"2025024","latitude":"46.15000000","longitude":"25.33333300","name":"Ionesti"},{"id":"2025032","latitude":"46.28333300","longitude":"25.03333300","name":"Ion Gheorghe Duca"},{"id":"2025157","latitude":"46.61666700","longitude":"25.71666700","name":"Isvorul-Muresului"},{"id":"2025207","latitude":"46.38333300","longitude":"25.36666700","name":"Iv\ufffdpataka"},{"id":"2025214","latitude":"46.30000000","longitude":"24.93333300","name":"Izaszacsal"},{"id":"2025229","latitude":"46.38333300","longitude":"25.36666700","name":"Izvoare"},{"id":"2025296","latitude":"46.61666700","longitude":"25.71666700","name":"Izvorul Muresului"},{"id":"2025298","latitude":"46.53333300","longitude":"25.96666700","name":"Izvorul Trotusului"},{"id":"2025301","latitude":"46.61666700","longitude":"25.71666700","name":"Izvoru Muresului"},{"id":"2025326","latitude":"46.71666700","longitude":"25.60000000","name":"Jank\ufffd"},{"id":"2025337","latitude":"46.20000000","longitude":"25.25000000","name":"J\ufffdsfalva"},{"id":"2025357","latitude":"46.55000000","longitude":"25.76666700","name":"Jenofalva"},{"id":"2025383","latitude":"46.00000000","longitude":"25.06666700","name":"Jibert"},{"id":"2025412","latitude":"46.33333300","longitude":"25.78333300","name":"Jigodin Bai"},{"id":"2025413","latitude":"46.33333300","longitude":"25.81666700","name":"Jigodin"},{"id":"2025414","latitude":"46.33333300","longitude":"25.81666700","name":"Jigodinu"},{"id":"2025428","latitude":"46.10000000","longitude":"25.38333300","name":"Jimbor"},{"id":"2025454","latitude":"46.33333300","longitude":"25.78333300","name":"Jogodfurdo"},{"id":"2025465","latitude":"46.86666700","longitude":"25.46666700","name":"Jolotca"},{"id":"2025482","latitude":"46.70000000","longitude":"25.50000000","name":"Joseni"},{"id":"2025485","latitude":"46.70000000","longitude":"25.50000000","name":"Joseri"},{"id":"2025487","latitude":"46.35000000","longitude":"25.85000000","name":"Jos"},{"id":"2025554","latitude":"46.33333300","longitude":"25.10000000","name":"Kad\ufffdcs"},{"id":"2025557","latitude":"46.31666700","longitude":"25.31666700","name":"Kadicsfalva"},{"id":"2025559","latitude":"46.85000000","longitude":"25.40000000","name":"Kadn\ufffdcs"},{"id":"2025568","latitude":"46.43333300","longitude":"25.18333300","name":"Kalanda"},{"id":"2025582","latitude":"46.21666700","longitude":"25.23333300","name":"K\ufffdny\ufffdd"},{"id":"2025583","latitude":"46.56666700","longitude":"26.01666700","name":"K\ufffdpolna Pataka"},{"id":"2025584","latitude":"46.36666700","longitude":"25.51666700","name":"K\ufffdpolnasfahi"},{"id":"2025585","latitude":"46.36666700","longitude":"25.51666700","name":"K\ufffdpoln\ufffdsfal\ufffd"},{"id":"2025587","latitude":"46.56666700","longitude":"26.01666700","name":"Kapotnapataka"},{"id":"2025600","latitude":"46.53333300","longitude":"25.75000000","name":"Karcfalva"},{"id":"2025616","latitude":"46.08333300","longitude":"25.26666700","name":"Katzendorf"},{"id":"2025623","latitude":"46.38333300","longitude":"25.21666700","name":"Kecset"},{"id":"2025639","latitude":"46.25000000","longitude":"25.35000000","name":"K\ufffdnos"},{"id":"2025663","latitude":"46.78333300","longitude":"25.45000000","name":"Kicsib\ufffdkk"},{"id":"2025665","latitude":"46.68333300","longitude":"25.56666700","name":"Kily\ufffdnfalva"},{"id":"2025672","latitude":"46.30000000","longitude":"25.58333300","name":"Kiruj Furdo"},{"id":"2025686","latitude":"46.40000000","longitude":"25.20000000","name":"Kisfalud"},{"id":"2025690","latitude":"46.26666700","longitude":"25.10000000","name":"Kisgalambfalva"},{"id":"2025697","latitude":"46.33333300","longitude":"25.10000000","name":"Kiskad\ufffdcs"},{"id":"2025700","latitude":"46.33333300","longitude":"25.06666700","name":"Kiskede"},{"id":"2025706","latitude":"46.38333300","longitude":"25.05000000","name":"Kismedes\ufffdr"},{"id":"2025719","latitude":"46.33333300","longitude":"24.96666700","name":"Kissolymos"},{"id":"2025761","latitude":"46.35000000","longitude":"25.15000000","name":"Kob\ufffdtfalva"},{"id":"2025787","latitude":"46.53333300","longitude":"25.96666700","name":"Komj\ufffdt Pataka"},{"id":"2025803","latitude":"46.41666700","longitude":"24.96666700","name":"K\ufffdrispatak"},{"id":"2025805","latitude":"46.35000000","longitude":"25.80000000","name":"Kormos"},{"id":"2025808","latitude":"46.46666700","longitude":"25.18333300","name":"Korond"},{"id":"2025828","latitude":"46.30000000","longitude":"25.90000000","name":"Kotorm\ufffdny"},{"id":"2025831","latitude":"46.71666700","longitude":"25.60000000","name":"Kov\ufffdcsp\ufffdter"},{"id":"2025845","latitude":"46.51666700","longitude":"25.03333300","name":"K\ufffdzb\ufffdrcalja"},{"id":"2025882","latitude":"46.36666700","longitude":"25.35000000","name":"K\ufffdk\ufffdllokem\ufffdnyfalva"},{"id":"2025883","latitude":"46.38333300","longitude":"25.36666700","name":"Kukullomezo"},{"id":"2025890","latitude":"46.46666700","longitude":"25.05000000","name":"K\ufffdsm\ufffdd"},{"id":"2025934","latitude":"46.71666700","longitude":"25.60000000","name":"Lacu Rosu"},{"id":"2026076","latitude":"46.75000000","longitude":"25.53333300","name":"Lazarea"},{"id":"2026082","latitude":"46.75000000","longitude":"25.53333300","name":"Lazaresti"},{"id":"2026088","latitude":"46.41666700","longitude":"25.10000000","name":"Laz-Firtanus"},{"id":"2026091","latitude":"46.33333300","longitude":"25.10000000","name":"Laz"},{"id":"2026095","latitude":"46.33333300","longitude":"25.10000000","name":"Laz-Soimus"},{"id":"2026157","latitude":"46.35000000","longitude":"25.85000000","name":"Leliceni"},{"id":"2026241","latitude":"46.66666700","longitude":"25.55000000","name":"Liban"},{"id":"2026264","latitude":"46.35000000","longitude":"25.80000000","name":"Ligatu"},{"id":"2026437","latitude":"46.51666700","longitude":"25.85000000","name":"Livezi"},{"id":"2026446","latitude":"46.23333300","longitude":"25.35000000","name":"Locodeni"},{"id":"2026458","latitude":"46.23333300","longitude":"25.35000000","name":"L\ufffdkod"},{"id":"2026491","latitude":"46.51666700","longitude":"25.85000000","name":"L\ufffdv\ufffdsz"},{"id":"2026492","latitude":"46.26666700","longitude":"25.48333300","name":"L\ufffdv\ufffdteb\ufffdnya"},{"id":"2026493","latitude":"46.26666700","longitude":"25.48333300","name":"L\ufffdvete"},{"id":"2026494","latitude":"45.98333300","longitude":"25.01666700","name":"Lovnic"},{"id":"2026547","latitude":"46.26666700","longitude":"25.48333300","name":"Lueta"},{"id":"2026616","latitude":"46.56666700","longitude":"25.98333300","name":"Lunca de Jos"},{"id":"2026619","latitude":"46.53333300","longitude":"25.96666700","name":"Lunca de Sus"},{"id":"2026776","latitude":"46.38333300","longitude":"25.21666700","name":"Lupeni"},{"id":"2026815","latitude":"46.25000000","longitude":"25.18333300","name":"Lutita"},{"id":"2026862","latitude":"46.50000000","longitude":"25.75000000","name":"Madaras"},{"id":"2026870","latitude":"46.41666700","longitude":"25.75000000","name":"M\ufffdd\ufffdfalva"},{"id":"2027351","latitude":"46.33333300","longitude":"25.36666700","name":"M\ufffdr\ufffdfalva"},{"id":"2027445","latitude":"46.65000000","longitude":"25.55000000","name":"Marosfalva"},{"id":"2027446","latitude":"46.61666700","longitude":"25.71666700","name":"Marosfo"},{"id":"2027455","latitude":"46.61666700","longitude":"25.71666700","name":"Maros"},{"id":"2027467","latitude":"46.65000000","longitude":"25.55000000","name":"Marostizloa"},{"id":"2027498","latitude":"46.23333300","longitude":"25.38333300","name":"Martinis"},{"id":"2027501","latitude":"46.78333300","longitude":"25.45000000","name":"Martonca"},{"id":"2027503","latitude":"46.78333300","longitude":"25.45000000","name":"M\ufffdrtonka"},{"id":"2027557","latitude":"46.01666700","longitude":"25.36666700","name":"Mateias"},{"id":"2027568","latitude":"46.23333300","longitude":"25.16666700","name":"Matiseni"},{"id":"2027570","latitude":"46.23333300","longitude":"25.16666700","name":"M\ufffdtisfalva"},{"id":"2027615","latitude":"46.36666700","longitude":"25.06666700","name":"Medisor"},{"id":"2027616","latitude":"46.36666700","longitude":"25.06666700","name":"Medisoru Mare"},{"id":"2027617","latitude":"46.38333300","longitude":"25.05000000","name":"Medisoru Mic"},{"id":"2027652","latitude":"46.35000000","longitude":"25.96666700","name":"M\ufffdnas\ufffdg"},{"id":"2027653","latitude":"46.35000000","longitude":"25.95000000","name":"Menasag Pottyond"},{"id":"2027654","latitude":"46.33333300","longitude":"25.96666700","name":"Menasag-Ujfalu"},{"id":"2027665","latitude":"46.06666700","longitude":"25.33333300","name":"Mercheasa"},{"id":"2027668","latitude":"46.35000000","longitude":"25.80000000","name":"Mercurea Ciuc"},{"id":"2027691","latitude":"46.23333300","longitude":"25.45000000","name":"Meresti"},{"id":"2027738","latitude":"46.08333300","longitude":"24.98333300","name":"Mesendorf"},{"id":"2027844","latitude":"46.35000000","longitude":"25.80000000","name":"Miercurea-Ciuc"},{"id":"2027845","latitude":"46.35000000","longitude":"25.80000000","name":"Miercurea-Ciucului"},{"id":"2027894","latitude":"46.46666700","longitude":"25.81666700","name":"Mihaileni"},{"id":"2027914","latitude":"46.15000000","longitude":"25.01666700","name":"Mihaiu Viteazul"},{"id":"2027918","latitude":"46.15000000","longitude":"25.01666700","name":"Mihai-Viteazul"},{"id":"2027923","latitude":"46.15000000","longitude":"25.01666700","name":"Mihai Viteazu"},{"id":"2027962","latitude":"46.23333300","longitude":"25.25000000","name":"Mikl\ufffdsfalva"},{"id":"2028087","latitude":"46.31666700","longitude":"25.90000000","name":"Mindszent"},{"id":"2028092","latitude":"46.26666700","longitude":"25.48333300","name":"Minele Lueta"},{"id":"2028094","latitude":"46.26666700","longitude":"25.48333300","name":"Minereni"},{"id":"2028203","latitude":"46.31666700","longitude":"25.90000000","name":"Misentea"},{"id":"2028429","latitude":"46.35000000","longitude":"25.21666700","name":"Morareni"},{"id":"2028580","latitude":"46.01666700","longitude":"24.78333300","name":"Movile"},{"id":"2028611","latitude":"46.03333300","longitude":"24.96666700","name":"Mucundorf"},{"id":"2028620","latitude":"46.25000000","longitude":"25.21666700","name":"Mugeni"},{"id":"2028626","latitude":"46.20000000","longitude":"25.15000000","name":"Mujna"},{"id":"2028694","latitude":"46.23333300","longitude":"24.98333300","name":"Mureni"},{"id":"2028704","latitude":"46.65000000","longitude":"25.55000000","name":"Mures-Sat"},{"id":"2028766","latitude":"46.20000000","longitude":"25.15000000","name":"Muzsna"},{"id":"2028790","latitude":"46.48333300","longitude":"25.83333300","name":"Nadejdea Gara"},{"id":"2028791","latitude":"46.48333300","longitude":"25.83333300","name":"Nadejdea"},{"id":"2028793","latitude":"46.48333300","longitude":"25.83333300","name":"Nadejde"},{"id":"2028794","latitude":"46.48333300","longitude":"25.83333300","name":"Nadejdi"},{"id":"2028823","latitude":"46.26666700","longitude":"25.13333300","name":"Nagygalambfalva"},{"id":"2028840","latitude":"46.36666700","longitude":"25.06666700","name":"Nagymedes\ufffdr"},{"id":"2028848","latitude":"46.35000000","longitude":"24.91666700","name":"Nagysolymos"},{"id":"2028863","latitude":"46.41666700","longitude":"24.96666700","name":"Nagyv\ufffdlgy"},{"id":"2029122","latitude":"46.05000000","longitude":"24.78333300","name":"Netus"},{"id":"2029163","latitude":"46.33333300","longitude":"25.08333300","name":"Nicoleni"},{"id":"2029169","latitude":"46.23333300","longitude":"25.25000000","name":"Nicolesti"},{"id":"2029262","latitude":"46.33333300","longitude":"25.05000000","name":"Nogykede"},{"id":"2029263","latitude":"46.05000000","longitude":"24.80000000","name":"Noistat"},{"id":"2029344","latitude":"46.35000000","longitude":"25.21666700","name":"Nyikomalomfalva"},{"id":"2029434","latitude":"46.21666700","longitude":"25.28333300","name":"Obranesti"},{"id":"2029465","latitude":"46.16666700","longitude":"25.41666700","name":"Ocland"},{"id":"2029469","latitude":"46.53333300","longitude":"25.13333300","name":"Ocna de Jos"},{"id":"2029471","latitude":"46.53333300","longitude":"25.15000000","name":"Ocna de Sus"},{"id":"2029498","latitude":"46.25000000","longitude":"25.25000000","name":"Oczfalva"},{"id":"2029526","latitude":"46.30000000","longitude":"25.30000000","name":"Oderhellen"},{"id":"2029540","latitude":"46.30000000","longitude":"25.30000000","name":"Odorheiul Secuiesc"},{"id":"2029541","latitude":"46.30000000","longitude":"25.30000000","name":"Odorheiu"},{"id":"2029543","latitude":"46.30000000","longitude":"25.30000000","name":"Odorheiu Secuiesc"},{"id":"2029618","latitude":"46.16666700","longitude":"25.41666700","name":"Okl\ufffdnd"},{"id":"2029759","latitude":"46.16666700","longitude":"25.35000000","name":"Oraseni"},{"id":"2029857","latitude":"46.40000000","longitude":"25.30000000","name":"Oroszhegy"},{"id":"2029860","latitude":"46.86666700","longitude":"25.46666700","name":"Orotva"},{"id":"2029950","latitude":"46.25000000","longitude":"25.25000000","name":"Oteni"},{"id":"2030083","latitude":"46.46666700","longitude":"26.10000000","name":"Pajistea"},{"id":"2030096","latitude":"46.53333300","longitude":"26.11666700","name":"Palanca"},{"id":"2030125","latitude":"46.40000000","longitude":"25.83333300","name":"P\ufffdlfalva"},{"id":"2030129","latitude":"46.11666700","longitude":"25.23333300","name":"Palos"},{"id":"2030131","latitude":"46.51666700","longitude":"25.21666700","name":"P\ufffdlpataka"},{"id":"2030140","latitude":"46.53333300","longitude":"25.96666700","name":"Paltinis-Ciuc"},{"id":"2030146","latitude":"46.38333300","longitude":"25.21666700","name":"Paltinis"},{"id":"2030251","latitude":"46.55000000","longitude":"25.13333300","name":"Parajd"},{"id":"2030399","latitude":"46.26666700","longitude":"25.33333300","name":"Patakflava"},{"id":"2030448","latitude":"46.40000000","longitude":"25.83333300","name":"Pauleni-Ciuc"},{"id":"2030449","latitude":"46.40000000","longitude":"25.83333300","name":"Pauleni"},{"id":"2030675","latitude":"46.16666700","longitude":"25.23333300","name":"Petea"},{"id":"2030679","latitude":"46.16666700","longitude":"25.23333300","name":"Petecul"},{"id":"2030682","latitude":"46.16666700","longitude":"25.23333300","name":"Petecu"},{"id":"2030684","latitude":"46.16666700","longitude":"25.23333300","name":"Petek"},{"id":"2030724","latitude":"46.18333300","longitude":"25.36666700","name":"Petreni"},{"id":"2030824","latitude":"46.36666700","longitude":"25.31666700","name":"Piatra Craiului"},{"id":"2031028","latitude":"46.68333300","longitude":"25.51666700","name":"P\ufffdr\ufffdu Sumelu"},{"id":"2031029","latitude":"46.68333300","longitude":"25.51666700","name":"P\ufffdr\ufffdu Sumuleu"},{"id":"2031682","latitude":"46.56666700","longitude":"25.98333300","name":"Poiana Fagului"},{"id":"2031743","latitude":"46.56666700","longitude":"25.98333300","name":"Poiana"},{"id":"2031781","latitude":"46.38333300","longitude":"25.36666700","name":"Poiana T\ufffdrnavei"},{"id":"2031782","latitude":"46.38333300","longitude":"25.36666700","name":"Poiana Tirnaveni"},{"id":"2031876","latitude":"46.33333300","longitude":"25.25000000","name":"Polonita"},{"id":"2031879","latitude":"46.53333300","longitude":"25.96666700","name":"P\ufffdltinis"},{"id":"2031963","latitude":"46.53333300","longitude":"26.11666700","name":"Popoiu"},{"id":"2032022","latitude":"46.26666700","longitude":"25.13333300","name":"Porumbenii-Mare"},{"id":"2032023","latitude":"46.26666700","longitude":"25.13333300","name":"Porumbenii Mari"},{"id":"2032024","latitude":"46.26666700","longitude":"25.10000000","name":"Porumbenii Mici"},{"id":"2032078","latitude":"46.35000000","longitude":"25.95000000","name":"Potiond"},{"id":"2032099","latitude":"46.35000000","longitude":"25.95000000","name":"Pottyond"},{"id":"2032109","latitude":"46.55000000","longitude":"25.13333300","name":"Praid"},{"id":"2032393","latitude":"46.56666700","longitude":"25.98333300","name":"Puntea Lupului"},{"id":"2032509","latitude":"46.03333300","longitude":"25.40000000","name":"Racasu de Jos"},{"id":"2032510","latitude":"46.03333300","longitude":"25.40000000","name":"Racasula"},{"id":"2032511","latitude":"46.03333300","longitude":"25.40000000","name":"Racasul-de-Jos"},{"id":"2032565","latitude":"46.08333300","longitude":"25.53333300","name":"Racos"},{"id":"2032566","latitude":"46.03333300","longitude":"25.40000000","name":"Racosu de Jos"},{"id":"2032567","latitude":"46.08333300","longitude":"25.53333300","name":"Racosu de Sus"},{"id":"2032568","latitude":"46.03333300","longitude":"25.40000000","name":"Racosul-de Jos"},{"id":"2032569","latitude":"46.08333300","longitude":"25.53333300","name":"Racosul-de-Sus"},{"id":"2032597","latitude":"46.45000000","longitude":"25.75000000","name":"Racul"},{"id":"2032599","latitude":"46.45000000","longitude":"25.75000000","name":"Racu"},{"id":"2032809","latitude":"46.20000000","longitude":"25.38333300","name":"Rares"},{"id":"2032994","latitude":"46.20000000","longitude":"25.38333300","name":"Recseny\ufffdd"},{"id":"2033059","latitude":"46.78333300","longitude":"25.45000000","name":"Remetea"},{"id":"2033066","latitude":"46.78333300","longitude":"25.45000000","name":"Remete"},{"id":"2033104","latitude":"46.05000000","longitude":"24.85000000","name":"Retisul"},{"id":"2033105","latitude":"46.05000000","longitude":"24.85000000","name":"Retisu"},{"id":"2033227","latitude":"46.11666700","longitude":"25.10000000","name":"Roadas"},{"id":"2033252","latitude":"45.91666700","longitude":"24.86666700","name":"Rodbav"},{"id":"2033355","latitude":"45.91666700","longitude":"24.80000000","name":"Rora Cincului"},{"id":"2033511","latitude":"46.30000000","longitude":"25.06666700","name":"Ruganesti"},{"id":"2033541","latitude":"46.30000000","longitude":"25.06666700","name":"Rugonfalva"},{"id":"2033572","latitude":"46.90000000","longitude":"25.43333300","name":"Runc"},{"id":"2033610","latitude":"46.90000000","longitude":"25.43333300","name":"Runk"},{"id":"2033611","latitude":"46.01666700","longitude":"25.26666700","name":"Rupea Gara"},{"id":"2033612","latitude":"46.03333300","longitude":"25.21666700","name":"Rupea"},{"id":"2033739","latitude":"46.30000000","longitude":"24.93333300","name":"Sacel"},{"id":"2033763","latitude":"46.25000000","longitude":"24.98333300","name":"Sacueni"},{"id":"2033767","latitude":"46.33333300","longitude":"25.36666700","name":"Sacul Mare"},{"id":"2033826","latitude":"46.88333300","longitude":"25.46666700","name":"Salam\ufffds"},{"id":"2033829","latitude":"46.88333300","longitude":"25.46666700","name":"Salarn\ufffds"},{"id":"2033967","latitude":"46.30000000","longitude":"25.85000000","name":"Sancraeni"},{"id":"2033968","latitude":"46.30000000","longitude":"25.85000000","name":"S\ufffdncr\ufffdiem"},{"id":"2033969","latitude":"46.30000000","longitude":"25.85000000","name":"Sancraieni"},{"id":"2033980","latitude":"46.36666700","longitude":"25.31666700","name":"S\ufffdncraiu"},{"id":"2033984","latitude":"46.58333300","longitude":"25.78333300","name":"S\ufffdndominic"},{"id":"2033986","latitude":"46.23333300","longitude":"25.31666700","name":"S\ufffdndortelke"},{"id":"2034063","latitude":"46.18333300","longitude":"25.38333300","name":"S\ufffdnpaul"},{"id":"2034081","latitude":"46.55000000","longitude":"25.78333300","name":"S\ufffdnramas"},{"id":"2034098","latitude":"46.53333300","longitude":"25.96666700","name":"Santa"},{"id":"2034099","latitude":"46.53333300","longitude":"25.96666700","name":"Santatelec"},{"id":"2034100","latitude":"46.53333300","longitude":"25.96666700","name":"S\ufffdntatelek"},{"id":"2034110","latitude":"46.28333300","longitude":"25.86666700","name":"S\ufffdntimbru"},{"id":"2034133","latitude":"46.16666700","longitude":"24.85000000","name":"Sapartoc"},{"id":"2034238","latitude":"46.26666700","longitude":"24.91666700","name":"Sard"},{"id":"2034277","latitude":"46.88333300","longitude":"25.46666700","name":"Sarmas"},{"id":"2034279","latitude":"46.88333300","longitude":"25.46666700","name":"Sarmasul"},{"id":"2034333","latitude":"46.18333300","longitude":"24.96666700","name":"Saschiz"},{"id":"2034350","latitude":"46.66666700","longitude":"25.50000000","name":"Sasesti"},{"id":"2034355","latitude":"46.55000000","longitude":"25.11666700","name":"Sasveres"},{"id":"2034388","latitude":"46.33333300","longitude":"25.36666700","name":"Satul-Mare"},{"id":"2034392","latitude":"46.40000000","longitude":"25.20000000","name":"Satul-Mic"},{"id":"2034404","latitude":"46.15000000","longitude":"25.40000000","name":"Satul-Nou"},{"id":"2034423","latitude":"46.33333300","longitude":"25.36666700","name":"Satu Mare"},{"id":"2034428","latitude":"46.40000000","longitude":"25.20000000","name":"Satu Mic"},{"id":"2034448","latitude":"46.15000000","longitude":"25.40000000","name":"Satu Nou"},{"id":"2034491","latitude":"46.55000000","longitude":"25.11666700","name":"Saveres"},{"id":"2034740","latitude":"45.93333300","longitude":"24.91666700","name":"Sears"},{"id":"2034799","latitude":"46.25000000","longitude":"24.98333300","name":"Secueni"},{"id":"2034869","latitude":"45.98333300","longitude":"24.85000000","name":"Selistat"},{"id":"2034887","latitude":"46.36666700","longitude":"25.23333300","name":"Senced"},{"id":"2034899","latitude":"46.68333300","longitude":"25.58333300","name":"Senetea"},{"id":"2034975","latitude":"46.56666700","longitude":"25.93333300","name":"Setelpatak"},{"id":"2035057","latitude":"46.38333300","longitude":"25.36666700","name":"Sicasau"},{"id":"2035065","latitude":"46.51666700","longitude":"25.05000000","name":"Siclod"},{"id":"2035072","latitude":"46.41666700","longitude":"25.75000000","name":"Siculeni"},{"id":"2035073","latitude":"46.23333300","longitude":"24.98333300","name":"Sidrias"},{"id":"2035106","latitude":"46.38333300","longitude":"25.36666700","name":"Sikassz\ufffd"},{"id":"2035109","latitude":"46.51666700","longitude":"25.05000000","name":"Siklod"},{"id":"2035155","latitude":"46.31666700","longitude":"25.90000000","name":"Sillo"},{"id":"2035188","latitude":"46.33333300","longitude":"25.10000000","name":"Sim\ufffdnfalva"},{"id":"2035204","latitude":"46.33333300","longitude":"25.10000000","name":"Simionesti"},{"id":"2035215","latitude":"46.33333300","longitude":"25.10000000","name":"Simonesti"},{"id":"2035234","latitude":"46.36666700","longitude":"25.23333300","name":"S\ufffdncel"},{"id":"2035235","latitude":"46.30000000","longitude":"25.85000000","name":"Sincraieni"},{"id":"2035243","latitude":"46.36666700","longitude":"25.31666700","name":"S\ufffdncraiu"},{"id":"2035246","latitude":"46.58333300","longitude":"25.78333300","name":"S\ufffdndominic"},{"id":"2035266","latitude":"46.78333300","longitude":"25.45000000","name":"Sineu"},{"id":"2035330","latitude":"46.18333300","longitude":"25.38333300","name":"S\ufffdnpaul"},{"id":"2035368","latitude":"46.28333300","longitude":"25.86666700","name":"Sintimbru-Bai"},{"id":"2035370","latitude":"46.28333300","longitude":"25.86666700","name":"S\ufffdntimbru"},{"id":"2035637","latitude":"46.26666700","longitude":"24.91666700","name":"Soard"},{"id":"2035638","latitude":"46.26666700","longitude":"24.91666700","name":"Soardu"},{"id":"2035639","latitude":"45.93333300","longitude":"24.91666700","name":"Soars"},{"id":"2035640","latitude":"45.93333300","longitude":"24.91666700","name":"Soarsu"},{"id":"2035721","latitude":"46.38333300","longitude":"25.86666700","name":"Soimeni"},{"id":"2035726","latitude":"46.35000000","longitude":"24.91666700","name":"Soimosul-Mare"},{"id":"2035727","latitude":"46.33333300","longitude":"24.96666700","name":"Soimosul-Mic"},{"id":"2035740","latitude":"46.35000000","longitude":"24.91666700","name":"Soimusul-Mare"},{"id":"2035741","latitude":"46.33333300","longitude":"24.96666700","name":"Soimusul-Mic"},{"id":"2035743","latitude":"46.35000000","longitude":"24.91666700","name":"Soimusu Mare"},{"id":"2035744","latitude":"46.33333300","longitude":"24.96666700","name":"Soimusu Mic"},{"id":"2035800","latitude":"46.68333300","longitude":"25.51666700","name":"Somly\ufffdpataka"},{"id":"2035858","latitude":"46.56666700","longitude":"25.93333300","name":"S\ufffdt\ufffdpataka"},{"id":"2036152","latitude":"46.01666700","longitude":"25.15000000","name":"Sten"},{"id":"2036469","latitude":"46.85000000","longitude":"25.45000000","name":"Subcetate"},{"id":"2036481","latitude":"46.35000000","longitude":"25.80000000","name":"Subpadure"},{"id":"2036539","latitude":"46.31666700","longitude":"25.20000000","name":"Suko"},{"id":"2036555","latitude":"46.45000000","longitude":"25.85000000","name":"Sulta"},{"id":"2036566","latitude":"46.38333300","longitude":"25.83333300","name":"Sumuleul"},{"id":"2036567","latitude":"46.38333300","longitude":"25.83333300","name":"Sumuleu"},{"id":"2036663","latitude":"46.66666700","longitude":"25.55000000","name":"Suseni"},{"id":"2036721","latitude":"46.75000000","longitude":"25.53333300","name":"Szarheg"},{"id":"2036722","latitude":"46.75000000","longitude":"25.53333300","name":"Sz\ufffdrhegy"},{"id":"2036724","latitude":"46.66666700","longitude":"25.50000000","name":"Szaszfal\ufffd"},{"id":"2036726","latitude":"46.66666700","longitude":"25.50000000","name":"Sz\ufffdszfal\ufffd"},{"id":"2036730","latitude":"46.55000000","longitude":"25.11666700","name":"Sz\ufffdszver\ufffds"},{"id":"2036747","latitude":"46.31666700","longitude":"25.30000000","name":"Sz\ufffdkelybethlenfalva"},{"id":"2036750","latitude":"46.20000000","longitude":"25.30000000","name":"Sz\ufffdkelyd\ufffdlya"},{"id":"2036751","latitude":"46.20000000","longitude":"25.20000000","name":"Sz\ufffdkelyders"},{"id":"2036752","latitude":"46.28333300","longitude":"25.18333300","name":"Sz\ufffdkelydob\ufffd"},{"id":"2036753","latitude":"46.36666700","longitude":"25.28333300","name":"Sz\ufffdkelyfancsal"},{"id":"2036756","latitude":"46.28333300","longitude":"25.03333300","name":"Sz\ufffdkelykeresztur"},{"id":"2036757","latitude":"46.33333300","longitude":"25.25000000","name":"Sz\ufffdkelylengyelfalva"},{"id":"2036758","latitude":"46.43333300","longitude":"25.18333300","name":"Sz\ufffdkelyp\ufffdlfalva"},{"id":"2036761","latitude":"46.11666700","longitude":"25.58333300","name":"Sz\ufffdkelysz\ufffdldobos"},{"id":"2036762","latitude":"46.28333300","longitude":"24.93333300","name":"Sz\ufffdkelyszenterzs\ufffdbet"},{"id":"2036763","latitude":"46.36666700","longitude":"25.31666700","name":"Sz\ufffdkelyszentkir\ufffdly"},{"id":"2036764","latitude":"46.36666700","longitude":"25.18333300","name":"Szekelyszentmihaly"},{"id":"2036765","latitude":"46.35000000","longitude":"25.28333300","name":"Sz\ufffdkelyszenttam\ufffds"},{"id":"2036767","latitude":"46.30000000","longitude":"25.30000000","name":"Sz\ufffdkelyudvarhely"},{"id":"2036769","latitude":"46.51666700","longitude":"25.35000000","name":"Sz\ufffdkelyvars\ufffdg"},{"id":"2036770","latitude":"46.10000000","longitude":"25.38333300","name":"Szekelyz-Sombor"},{"id":"2036786","latitude":"46.36666700","longitude":"25.23333300","name":"Szencsed"},{"id":"2036787","latitude":"46.68333300","longitude":"25.58333300","name":"Szen\ufffdte"},{"id":"2036788","latitude":"46.33333300","longitude":"25.08333300","name":"Szenmikl\ufffds"},{"id":"2036789","latitude":"46.33333300","longitude":"25.01666700","name":"Szent\ufffdbrah\ufffdm"},{"id":"2036793","latitude":"46.35000000","longitude":"25.51666700","name":"Szentegyh\ufffdzasfalu"},{"id":"2036797","latitude":"46.28333300","longitude":"25.86666700","name":"Szentimrei F\ufffdrdo"},{"id":"2036801","latitude":"46.21666700","longitude":"25.26666700","name":"Szentl\ufffdszl\ufffd"},{"id":"2036804","latitude":"46.35000000","longitude":"25.85000000","name":"Szentl\ufffdlek"},{"id":"2036814","latitude":"46.45000000","longitude":"25.85000000","name":"Sz\ufffdpviz"},{"id":"2036882","latitude":"46.30000000","longitude":"25.20000000","name":"Taetura"},{"id":"2036976","latitude":"46.35000000","longitude":"25.28333300","name":"Tamasul"},{"id":"2036977","latitude":"46.35000000","longitude":"25.28333300","name":"Tamasu"},{"id":"2037044","latitude":"46.36666700","longitude":"25.13333300","name":"Tarcesti"},{"id":"2037048","latitude":"46.36666700","longitude":"25.13333300","name":"T\ufffdrcsafalva"},{"id":"2037150","latitude":"46.36666700","longitude":"25.35000000","name":"T\ufffdrn\ufffdvita"},{"id":"2037241","latitude":"46.26666700","longitude":"25.25000000","name":"Taureni"},{"id":"2037303","latitude":"45.93333300","longitude":"25.10000000","name":"Tecusu Vechi"},{"id":"2037352","latitude":"46.68333300","longitude":"25.60000000","name":"Tekeropatak"},{"id":"2037360","latitude":"46.25000000","longitude":"25.31666700","name":"Teleac"},{"id":"2037379","latitude":"46.25000000","longitude":"25.31666700","name":"Telekfalva"},{"id":"2037392","latitude":"46.08333300","longitude":"24.90000000","name":"Telina"},{"id":"2037393","latitude":"46.08333300","longitude":"24.90000000","name":"Teline"},{"id":"2037460","latitude":"46.85000000","longitude":"25.60000000","name":"Tengheler"},{"id":"2037536","latitude":"46.35000000","longitude":"25.80000000","name":"Tiba"},{"id":"2037539","latitude":"46.35000000","longitude":"25.30000000","name":"Tib\ufffdd"},{"id":"2037540","latitude":"46.35000000","longitude":"25.30000000","name":"Tibodu"},{"id":"2037553","latitude":"45.93333300","longitude":"25.10000000","name":"Ticcusul-Vechiu"},{"id":"2037564","latitude":"46.43333300","longitude":"25.18333300","name":"Ticos"},{"id":"2037569","latitude":"45.93333300","longitude":"25.10000000","name":"Ticusul"},{"id":"2037570","latitude":"45.93333300","longitude":"25.10000000","name":"Ticusul-Vechi"},{"id":"2037571","latitude":"45.93333300","longitude":"25.10000000","name":"Ticusul-Vechiu"},{"id":"2037573","latitude":"45.93333300","longitude":"25.10000000","name":"Ticusu Vechi"},{"id":"2037641","latitude":"46.85000000","longitude":"25.50000000","name":"Tilalmas"},{"id":"2037642","latitude":"46.85000000","longitude":"25.50000000","name":"Tilalmos"},{"id":"2037663","latitude":"46.61666700","longitude":"25.71666700","name":"Timoni"},{"id":"2037675","latitude":"46.63333300","longitude":"25.68333300","name":"Tincani"},{"id":"2037678","latitude":"46.36666700","longitude":"25.28333300","name":"T\ufffdncel"},{"id":"2037684","latitude":"46.63333300","longitude":"25.68333300","name":"Tinkak"},{"id":"2037790","latitude":"46.36666700","longitude":"25.35000000","name":"Tirnovita"},{"id":"2037938","latitude":"46.55000000","longitude":"25.78333300","name":"Tomesti"},{"id":"2037991","latitude":"46.25000000","longitude":"24.88333300","name":"Topa"},{"id":"2038008","latitude":"46.36666700","longitude":"25.80000000","name":"Toplita-Ciuc"},{"id":"2038041","latitude":"46.38333300","longitude":"25.10000000","name":"Tord\ufffdtfalva"},{"id":"2038049","latitude":"46.80000000","longitude":"25.50000000","name":"Torocpatac"},{"id":"2038050","latitude":"46.80000000","longitude":"25.50000000","name":"T\ufffdr\ufffdkpatak"},{"id":"2038119","latitude":"46.56666700","longitude":"25.98333300","name":"Trei F\ufffdnt\ufffdni"},{"id":"2038310","latitude":"46.38333300","longitude":"25.10000000","name":"Turdeni"},{"id":"2038345","latitude":"46.03333300","longitude":"25.21666700","name":"Turzun"},{"id":"2038409","latitude":"46.51666700","longitude":"26.00000000","name":"Ugrapataka"},{"id":"2038410","latitude":"46.51666700","longitude":"26.00000000","name":"Ugra"},{"id":"2038439","latitude":"46.25000000","longitude":"24.98333300","name":"Uisechei"},{"id":"2038447","latitude":"46.66666700","longitude":"25.55000000","name":"Ujfal\ufffd"},{"id":"2038456","latitude":"46.25000000","longitude":"24.98333300","name":"Ujsz\ufffdkely"},{"id":"2038462","latitude":"46.36666700","longitude":"25.31666700","name":"Ukny\ufffdd"},{"id":"2038466","latitude":"46.35000000","longitude":"25.28333300","name":"Ulcani"},{"id":"2038480","latitude":"46.21666700","longitude":"25.23333300","name":"Ulies"},{"id":"2038483","latitude":"46.21666700","longitude":"25.23333300","name":"Uliesul"},{"id":"2038484","latitude":"46.21666700","longitude":"25.23333300","name":"Uliesu"},{"id":"2038490","latitude":"46.35000000","longitude":"25.28333300","name":"\ufffdlke"},{"id":"2038546","latitude":"45.98333300","longitude":"25.26666700","name":"Ungra"},{"id":"2038748","latitude":"46.35000000","longitude":"25.51666700","name":"Uzinele Gabor Aron"},{"id":"2038750","latitude":"46.45000000","longitude":"25.40000000","name":"Uzinele Sigismund"},{"id":"2038752","latitude":"46.35000000","longitude":"25.51666700","name":"Uzinele Vlahita"},{"id":"2038761","latitude":"46.28333300","longitude":"25.86666700","name":"Uzv\ufffdlgye"},{"id":"2038768","latitude":"46.46666700","longitude":"25.80000000","name":"Vacaresti"},{"id":"2038778","latitude":"46.46666700","longitude":"25.80000000","name":"Vacs\ufffdrcsi"},{"id":"2038850","latitude":"46.30000000","longitude":"25.20000000","name":"V\ufffdg\ufffds"},{"id":"2038882","latitude":"46.55000000","longitude":"26.00000000","name":"Vala Boros"},{"id":"2038926","latitude":"46.55000000","longitude":"26.08333300","name":"Valea Almas"},{"id":"2038927","latitude":"46.55000000","longitude":"26.08333300","name":"Valea Almos"},{"id":"2038972","latitude":"46.55000000","longitude":"26.00000000","name":"Valea Boros"},{"id":"2038989","latitude":"46.51666700","longitude":"25.13333300","name":"Valea Bradului"},{"id":"2039010","latitude":"46.56666700","longitude":"26.01666700","name":"Valea Capelei"},{"id":"2039072","latitude":"46.23333300","longitude":"24.85000000","name":"Valea Daii"},{"id":"2039073","latitude":"46.23333300","longitude":"24.85000000","name":"Valea Dalei"},{"id":"2039105","latitude":"46.45000000","longitude":"25.85000000","name":"Valea Fata"},{"id":"2039125","latitude":"46.56666700","longitude":"25.98333300","name":"Valea G\ufffdrbea"},{"id":"2039161","latitude":"46.56666700","longitude":"25.93333300","name":"Valea Intunecoasa"},{"id":"2039167","latitude":"46.53333300","longitude":"25.96666700","name":"Valea Komjath"},{"id":"2039184","latitude":"46.56666700","longitude":"25.98333300","name":"Valea lui Antaloc"},{"id":"2039207","latitude":"46.51666700","longitude":"25.21666700","name":"Valea lui Pavel"},{"id":"2039278","latitude":"46.41666700","longitude":"24.96666700","name":"Valea Mare"},{"id":"2039419","latitude":"46.53333300","longitude":"25.96666700","name":"Valea Rajk\ufffd"},{"id":"2039440","latitude":"46.58333300","longitude":"26.00000000","name":"Valea Rece"},{"id":"2039450","latitude":"46.36666700","longitude":"25.31666700","name":"Valea Rotunda"},{"id":"2039461","latitude":"46.53333300","longitude":"25.96666700","name":"Valea Santa"},{"id":"2039462","latitude":"46.15000000","longitude":"24.90000000","name":"Valea Sapartocului"},{"id":"2039537","latitude":"46.68333300","longitude":"25.60000000","name":"Valea-Stramba"},{"id":"2039538","latitude":"46.68333300","longitude":"25.60000000","name":"Valea Strimba"},{"id":"2039541","latitude":"46.45000000","longitude":"25.85000000","name":"Valea Sulta"},{"id":"2039568","latitude":"46.51666700","longitude":"26.00000000","name":"Valea Ugra"},{"id":"2039594","latitude":"46.28333300","longitude":"25.86666700","name":"Valea Uzului"},{"id":"2039659","latitude":"45.95000000","longitude":"24.96666700","name":"Valeni"},{"id":"2039732","latitude":"46.23333300","longitude":"24.93333300","name":"Vanatori"},{"id":"2039739","latitude":"46.23333300","longitude":"24.93333300","name":"Vanator"},{"id":"2039796","latitude":"46.13333300","longitude":"25.53333300","name":"Varghis"},{"id":"2039798","latitude":"46.13333300","longitude":"25.53333300","name":"Vargyas"},{"id":"2039799","latitude":"46.85000000","longitude":"25.45000000","name":"V\ufffdrhegy"},{"id":"2039825","latitude":"46.71666700","longitude":"25.60000000","name":"V\ufffdrpatak"},{"id":"2039826","latitude":"46.71666700","longitude":"25.60000000","name":"Varpatoc"},{"id":"2039827","latitude":"46.51666700","longitude":"25.35000000","name":"Varsag"},{"id":"2039837","latitude":"46.16666700","longitude":"25.35000000","name":"V\ufffdrs\ufffdfalva"},{"id":"2039880","latitude":"46.43333300","longitude":"25.18333300","name":"Vasca"},{"id":"2039900","latitude":"46.21666700","longitude":"25.26666700","name":"Vasileni"},{"id":"2039913","latitude":"46.65000000","longitude":"25.63333300","name":"Vasl\ufffdb"},{"id":"2039921","latitude":"46.51666700","longitude":"25.85000000","name":"Vaszi"},{"id":"2039956","latitude":"46.65000000","longitude":"25.65000000","name":"Vederea"},{"id":"2040074","latitude":"46.33333300","longitude":"24.90000000","name":"Vidacutul"},{"id":"2040075","latitude":"46.33333300","longitude":"24.90000000","name":"Vidacutu"},{"id":"2040076","latitude":"46.33333300","longitude":"24.90000000","name":"Vidacut"},{"id":"2040188","latitude":"46.15000000","longitude":"24.85000000","name":"V\ufffdlc\ufffdndorf"},{"id":"2040207","latitude":"46.23333300","longitude":"24.93333300","name":"Vinatori"},{"id":"2040252","latitude":"46.13333300","longitude":"25.53333300","name":"Virghis"},{"id":"2040267","latitude":"46.51666700","longitude":"25.35000000","name":"Virsag"},{"id":"2040295","latitude":"46.71666700","longitude":"25.60000000","name":"Visafolio"},{"id":"2040306","latitude":"46.05000000","longitude":"25.08333300","name":"Viscri"},{"id":"2040332","latitude":"46.71666700","longitude":"25.60000000","name":"Visszafoly\ufffd"},{"id":"2040440","latitude":"46.35000000","longitude":"25.51666700","name":"Vlahita Noua"},{"id":"2040441","latitude":"46.35000000","longitude":"25.51666700","name":"Vlahita"},{"id":"2040563","latitude":"46.65000000","longitude":"25.63333300","name":"Voslab"},{"id":"2040564","latitude":"46.65000000","longitude":"25.63333300","name":"Voslobeni"},{"id":"2040601","latitude":"46.15000000","longitude":"24.85000000","name":"Vulcan"},{"id":"2040831","latitude":"46.38333300","longitude":"25.36666700","name":"Zetea"},{"id":"2040832","latitude":"46.38333300","longitude":"25.36666700","name":"Zetelaka"},{"id":"2040833","latitude":"46.38333300","longitude":"25.36666700","name":"Zetev\ufffdralja"},{"id":"2040920","latitude":"46.15000000","longitude":"25.01666700","name":"Zoltan"}]