[{"id":"209167","latitude":"11.51666670","longitude":"-1.66666670","name":"Bou"},{"id":"209490","latitude":"11.51666670","longitude":"-1.66666670","name":"Bwon"},{"id":"209701","latitude":"11.48333330","longitude":"-1.81666670","name":"Danin"},{"id":"209942","latitude":"11.46666670","longitude":"-1.75000000","name":"Dianz\u00e9"},{"id":"211257","latitude":"11.60000000","longitude":"-1.75000000","name":"Idiou"},{"id":"211698","latitude":"11.56666670","longitude":"-1.73333330","name":"Kasso"},{"id":"213137","latitude":"11.51666670","longitude":"-1.70000000","name":"Lo"},{"id":"213203","latitude":"11.51666670","longitude":"-1.70000000","name":"Lou"},{"id":"215676","latitude":"11.55444440","longitude":"-1.77361110","name":"Sapoui"},{"id":"215678","latitude":"11.55444440","longitude":"-1.77361110","name":"Sapouy"},{"id":"215679","latitude":"11.55444440","longitude":"-1.77361110","name":"Sapui"},{"id":"215742","latitude":"11.51666670","longitude":"-1.73333330","name":"Sayero"}]