[{"id":"2228841","latitude":"23.82472220","longitude":"39.14250000","name":"Abar el-Shifaiya"},{"id":"2228856","latitude":"24.81666670","longitude":"38.78333330","name":"Abu `Alaq"},{"id":"2228861","latitude":"25.22805560","longitude":"38.82833330","name":"Abu an Na`am"},{"id":"2228867","latitude":"23.19861110","longitude":"39.55805560","name":"Abu Dhiba"},{"id":"2228868","latitude":"23.19861110","longitude":"39.55805560","name":"Abu Diba`"},{"id":"2228869","latitude":"23.19861110","longitude":"39.55805560","name":"Abu Diha`"},{"id":"2228870","latitude":"23.19861110","longitude":"39.55805560","name":"Abu Duba`"},{"id":"2228897","latitude":"25.11666670","longitude":"38.25000000","name":"Abu Markha"},{"id":"2228898","latitude":"25.11666670","longitude":"38.25000000","name":"Abu Markhah"},{"id":"2228909","latitude":"23.73333330","longitude":"39.70000000","name":"Abu Rubaiq"},{"id":"2228910","latitude":"23.73333330","longitude":"39.70000000","name":"Abu Rubayq"},{"id":"2228916","latitude":"23.86888890","longitude":"38.36888890","name":"Abu Shaibana"},{"id":"2228917","latitude":"23.86888890","longitude":"38.36888890","name":"Abu Shaitana"},{"id":"2228920","latitude":"23.86888890","longitude":"38.36888890","name":"Abu Shaytanah"},{"id":"2228921","latitude":"23.86888890","longitude":"38.36888890","name":"Abu Sheitana"},{"id":"2228928","latitude":"24.41666670","longitude":"39.55000000","name":"Abyar `Ali"},{"id":"2228963","latitude":"24.89972220","longitude":"40.10416670","name":"Ad Dathir"},{"id":"2228989","latitude":"23.82138890","longitude":"39.65138890","name":"Ad Duhu"},{"id":"2228991","latitude":"24.76888890","longitude":"39.54083330","name":"Ad Dulu`"},{"id":"2228992","latitude":"23.98166670","longitude":"40.36805560","name":"Ad Dumayriyah"},{"id":"2229040","latitude":"24.21666670","longitude":"38.50000000","name":"`Ajmiya"},{"id":"2229041","latitude":"24.21666670","longitude":"38.50000000","name":"`Ajmiyah"},{"id":"2229078","latitude":"23.31555560","longitude":"39.85944440","name":"Al Akhal"},{"id":"2229126","latitude":"24.85277780","longitude":"39.37861110","name":"Al `Asibat"},{"id":"2229143","latitude":"24.45000000","longitude":"39.61666670","name":"Al `Awali"},{"id":"2229165","latitude":"22.89138890","longitude":"40.58361110","name":"Al `Ayn"},{"id":"2229170","latitude":"25.06638890","longitude":"38.10777780","name":"Al `Ays"},{"id":"2229211","latitude":"24.04388890","longitude":"39.60611110","name":"Al Bardiyah"},{"id":"2229217","latitude":"22.83083330","longitude":"40.42388890","name":"Al Barraqiyah"},{"id":"2229223","latitude":"23.31666670","longitude":"39.61666670","name":"Al Basirah"},{"id":"2229242","latitude":"24.38388890","longitude":"38.59666670","name":"Al Biqa`"},{"id":"2229256","latitude":"23.27833330","longitude":"39.24277780","name":"Al Bustan"},{"id":"2229285","latitude":"23.42166670","longitude":"39.70972220","name":"Al Faqirah"},{"id":"2229286","latitude":"24.97777780","longitude":"38.07666670","name":"Al Fara`"},{"id":"2229287","latitude":"23.81250000","longitude":"38.87416670","name":"Al Far`ah"},{"id":"2229296","latitude":"22.61083330","longitude":"40.55111110","name":"Al Far`iyah"},{"id":"2229331","latitude":"22.61972220","longitude":"40.56083330","name":"Al Furay`"},{"id":"2229332","latitude":"24.22000000","longitude":"39.28138890","name":"Al Furaysh"},{"id":"2229393","latitude":"23.74722220","longitude":"39.29250000","name":"Al Hafah"},{"id":"2229396","latitude":"24.87888890","longitude":"39.70777780","name":"Al Hafirah"},{"id":"2229398","latitude":"24.39583330","longitude":"39.15444440","name":"Al Hafr"},{"id":"2229400","latitude":"25.96666670","longitude":"40.45000000","name":"Al Ha'it"},{"id":"2229424","latitude":"24.03444440","longitude":"40.49527780","name":"Al Hammad"},{"id":"2229426","latitude":"23.94027780","longitude":"38.87666670","name":"Al Hamra'"},{"id":"2229430","latitude":"24.87972220","longitude":"40.51527780","name":"Al Hanakiya"},{"id":"2229431","latitude":"24.87972220","longitude":"40.51527780","name":"Al Hanakiyah"},{"id":"2229463","latitude":"22.87777780","longitude":"40.50694440","name":"Al Hawmah"},{"id":"2229471","latitude":"25.96666670","longitude":"40.45000000","name":"Al Hayit"},{"id":"2229486","latitude":"23.81194440","longitude":"40.29250000","name":"Al Hijriyah"},{"id":"2229495","latitude":"24.87972220","longitude":"40.51527780","name":"Al Hinakiyah"},{"id":"2229498","latitude":"23.65888890","longitude":"39.67138890","name":"Al Hindiyah"},{"id":"2229514","latitude":"24.60888890","longitude":"39.18305560","name":"Al Hufrah"},{"id":"2229541","latitude":"25.60000000","longitude":"40.38333330","name":"Al Huwaiyit"},{"id":"2229543","latitude":"23.29277780","longitude":"40.34250000","name":"Al Huwaymidah"},{"id":"2229546","latitude":"25.60000000","longitude":"40.38333330","name":"Al Huwayyit"},{"id":"2229572","latitude":"24.25000000","longitude":"38.51666670","name":"Al Jabriyah"},{"id":"2229616","latitude":"23.33083330","longitude":"40.30472220","name":"Al Jissah"},{"id":"2229655","latitude":"23.33083330","longitude":"40.30472220","name":"Al Jussah"},{"id":"2229688","latitude":"25.01666670","longitude":"40.45000000","name":"Al Khalf"},{"id":"2229705","latitude":"23.89944440","longitude":"38.89666670","name":"Al Kharma'"},{"id":"2229745","latitude":"23.13333330","longitude":"39.51666670","name":"Al Khuwayjiah"},{"id":"2229746","latitude":"23.13333330","longitude":"39.51666670","name":"Al Khuwayjiyah"},{"id":"2229757","latitude":"23.81083330","longitude":"39.64166670","name":"Al Kitimah"},{"id":"2229810","latitude":"23.32222220","longitude":"39.62027780","name":"Al Madhiq"},{"id":"2229812","latitude":"24.46861110","longitude":"39.61416670","name":"Al Madina"},{"id":"2229813","latitude":"24.46861110","longitude":"39.61416670","name":"Al Madinah"},{"id":"2229815","latitude":"24.46861110","longitude":"39.61416670","name":"Al Madinah al Munawwarah"},{"id":"2229817","latitude":"23.32222220","longitude":"39.62027780","name":"Al Madiq"},{"id":"2229847","latitude":"23.17583330","longitude":"39.52027780","name":"Al Malbanah"},{"id":"2229894","latitude":"23.01055560","longitude":"39.89694440","name":"Al Mazri`"},{"id":"2229895","latitude":"24.46861110","longitude":"39.61416670","name":"Al Medina"},{"id":"2229904","latitude":"23.80500000","longitude":"39.46166670","name":"Al Milhah"},{"id":"2229931","latitude":"25.68861110","longitude":"38.69388890","name":"Al Mudarraj"},{"id":"2229936","latitude":"24.34750000","longitude":"39.41416670","name":"Al Mufrihat"},{"id":"2229966","latitude":"24.82972220","longitude":"39.15972220","name":"Al Mulaylih"},{"id":"2229968","latitude":"24.08333330","longitude":"38.15000000","name":"Al Multasa"},{"id":"2229972","latitude":"24.64750000","longitude":"39.30083330","name":"Al Mundassah"},{"id":"2229986","latitude":"24.08444440","longitude":"39.09722220","name":"Al Musayjid"},{"id":"2230097","latitude":"23.42916670","longitude":"39.36333330","name":"Al Qifaf"},{"id":"2230151","latitude":"23.53333330","longitude":"39.75000000","name":"Al-Ray\ufffdna"},{"id":"2230170","latitude":"24.85861110","longitude":"39.17111110","name":"Altammah"},{"id":"2230208","latitude":"24.49722220","longitude":"39.82444440","name":"Al `Uqul"},{"id":"2230225","latitude":"24.55000000","longitude":"39.58333330","name":"Al `Uyun"},{"id":"2230255","latitude":"23.78444440","longitude":"39.25833330","name":"Al Watyah"},{"id":"2230263","latitude":"24.17888890","longitude":"39.54805560","name":"Al Wuday"},{"id":"2230279","latitude":"23.82777780","longitude":"38.88166670","name":"`Alya'"},{"id":"2230369","latitude":"24.78333330","longitude":"39.16666670","name":"`Anqa'"},{"id":"2230377","latitude":"24.76666670","longitude":"38.81666670","name":"`Aqda"},{"id":"2230409","latitude":"23.18333330","longitude":"39.53333330","name":"Ar Rabad"},{"id":"2230435","latitude":"23.95333330","longitude":"39.38361110","name":"Ar Raghiyah"},{"id":"2230446","latitude":"26.08333330","longitude":"40.61666670","name":"Ar Rawdah"},{"id":"2230455","latitude":"23.53333330","longitude":"39.75000000","name":"Ar Rayana"},{"id":"2230460","latitude":"23.53333330","longitude":"39.75000000","name":"Ar Rayyanah"},{"id":"2230461","latitude":"23.53333330","longitude":"39.75000000","name":"Ar Rayyan"},{"id":"2230464","latitude":"23.53333330","longitude":"39.75000000","name":"Ar Rayyar"},{"id":"2230476","latitude":"23.18333330","longitude":"39.53333330","name":"Ar Rubad"},{"id":"2230477","latitude":"22.85777780","longitude":"40.57416670","name":"Ar Rubay`ah"},{"id":"2230508","latitude":"24.43333330","longitude":"39.60000000","name":"`Arwa"},{"id":"2230510","latitude":"24.43333330","longitude":"39.60000000","name":"`Arwah"},{"id":"2230536","latitude":"23.82472220","longitude":"39.14250000","name":"Ash Shafayyah"},{"id":"2230539","latitude":"23.40000000","longitude":"39.68333330","name":"Ash Shahba'"},{"id":"2230540","latitude":"23.40000000","longitude":"39.68333330","name":"Ash Shahbah"},{"id":"2230554","latitude":"24.75750000","longitude":"40.28194440","name":"Ash Shaqrah"},{"id":"2230582","latitude":"23.56777780","longitude":"39.75166670","name":"Ash Shifayyah"},{"id":"2230601","latitude":"23.82472220","longitude":"39.14250000","name":"Ash Shufayyah"},{"id":"2230619","latitude":"25.71666670","longitude":"39.23333330","name":"Ash Shurayf"},{"id":"2230621","latitude":"23.52055560","longitude":"39.70638890","name":"Ash Shuwamin"},{"id":"2230627","latitude":"24.33333330","longitude":"38.63333330","name":"Asira"},{"id":"2230634","latitude":"23.50750000","longitude":"40.30944440","name":"As Sa`biyah"},{"id":"2230639","latitude":"24.24388890","longitude":"39.19166670","name":"As Sadayir"},{"id":"2230646","latitude":"24.02361110","longitude":"38.93472220","name":"As Safra'"},{"id":"2230653","latitude":"23.10194440","longitude":"40.43055560","name":"As Sahan"},{"id":"2230687","latitude":"23.44777780","longitude":"39.76250000","name":"As Sidr"},{"id":"2230707","latitude":"24.32833330","longitude":"38.90166670","name":"As Sudayra"},{"id":"2230708","latitude":"24.32833330","longitude":"38.90166670","name":"As Sudayrah"},{"id":"2230717","latitude":"24.97500000","longitude":"39.13416670","name":"As Suhaylat"},{"id":"2230731","latitude":"22.87638890","longitude":"40.48611110","name":"As Sulhaniyah"},{"id":"2230735","latitude":"24.92138890","longitude":"39.61777780","name":"As Sumariyah"},{"id":"2230749","latitude":"23.34444440","longitude":"40.31833330","name":"As Suwayriqiyah"},{"id":"2230821","latitude":"24.45000000","longitude":"39.61666670","name":"`Awali"},{"id":"2230846","latitude":"24.32416670","longitude":"38.42194440","name":"`Ayn Sulayman"},{"id":"2230902","latitude":"23.78000000","longitude":"38.79055560","name":"Badr"},{"id":"2230905","latitude":"23.78000000","longitude":"38.79055560","name":"Badr Hunain"},{"id":"2230906","latitude":"23.78000000","longitude":"38.79055560","name":"Badr Hunayn"},{"id":"2230946","latitude":"24.21666670","longitude":"38.71666670","name":"Baqa`a"},{"id":"2230949","latitude":"24.21666670","longitude":"38.71666670","name":"Baq`a'"},{"id":"2230959","latitude":"24.18333330","longitude":"38.45000000","name":"Barka"},{"id":"2230962","latitude":"24.28333330","longitude":"38.58333330","name":"Bartiya"},{"id":"2230963","latitude":"24.28333330","longitude":"38.58333330","name":"Bartiyah"},{"id":"2230972","latitude":"24.91888890","longitude":"40.09083330","name":"Bayad ad Dathir"},{"id":"2231009","latitude":"24.17138890","longitude":"38.64972220","name":"Bi'r al `Ayshamah"},{"id":"2231010","latitude":"24.22166670","longitude":"39.55027780","name":"Bi'r al Mashi"},{"id":"2231022","latitude":"23.82305560","longitude":"38.86194440","name":"Birka"},{"id":"2231024","latitude":"23.82305560","longitude":"38.86194440","name":"Birkah"},{"id":"2231077","latitude":"23.50000000","longitude":"40.86666670","name":"Cradle of Gold"},{"id":"2231084","latitude":"23.86638890","longitude":"38.90138890","name":"Daghabij"},{"id":"2231113","latitude":"24.99500000","longitude":"40.33305560","name":"Darah"},{"id":"2231163","latitude":"24.92861110","longitude":"39.03055560","name":"Dil` al Kharwa`"},{"id":"2231167","latitude":"23.36333330","longitude":"39.22083330","name":"Diraybis"},{"id":"2231191","latitude":"23.20000000","longitude":"38.80000000","name":"Dulaidila"},{"id":"2231192","latitude":"23.20000000","longitude":"38.80000000","name":"Dulaydilah"},{"id":"2231209","latitude":"23.27833330","longitude":"39.24277780","name":"El-Bust\ufffdn"},{"id":"2231212","latitude":"23.81250000","longitude":"38.87416670","name":"El Fur`a"},{"id":"2231213","latitude":"23.74722220","longitude":"39.29250000","name":"El-Hafa"},{"id":"2231226","latitude":"24.46861110","longitude":"39.61416670","name":"El Medina"},{"id":"2231253","latitude":"25.35000000","longitude":"40.61666670","name":"Fanuda"},{"id":"2231254","latitude":"25.35000000","longitude":"40.61666670","name":"Fanudah"},{"id":"2231259","latitude":"22.61083330","longitude":"40.55111110","name":"Fara`"},{"id":"2231262","latitude":"23.81250000","longitude":"38.87416670","name":"Far`"},{"id":"2231281","latitude":"24.26666670","longitude":"38.56666670","name":"Fiji"},{"id":"2231380","latitude":"25.54166670","longitude":"38.74305560","name":"Hadiyah"},{"id":"2231386","latitude":"23.74722220","longitude":"39.29250000","name":"Hafa"},{"id":"2231394","latitude":"26.43333330","longitude":"39.20000000","name":"Hafirat al `Ayda"},{"id":"2231449","latitude":"23.94027780","longitude":"38.87666670","name":"Hamra"},{"id":"2231455","latitude":"24.87972220","longitude":"40.51527780","name":"Hanakiya"},{"id":"2231487","latitude":"24.25000000","longitude":"38.55000000","name":"Harthiya"},{"id":"2231488","latitude":"24.25000000","longitude":"38.55000000","name":"Harthiyah"},{"id":"2231490","latitude":"24.28333330","longitude":"38.58333330","name":"Hasa"},{"id":"2231516","latitude":"24.08361110","longitude":"39.72527780","name":"Haylat Radi al Baham"},{"id":"2231549","latitude":"24.57305560","longitude":"40.35944440","name":"Hirmah"},{"id":"2231561","latitude":"24.48333330","longitude":"38.05000000","name":"Hudayrah"},{"id":"2231564","latitude":"24.48333330","longitude":"38.05000000","name":"Hudhaira"},{"id":"2231575","latitude":"26.00000000","longitude":"40.78333330","name":"Hulaifa"},{"id":"2231576","latitude":"25.93333330","longitude":"40.70000000","name":"Hulaifa Kharba"},{"id":"2231577","latitude":"26.00000000","longitude":"40.78333330","name":"Hulayfah"},{"id":"2231579","latitude":"25.93333330","longitude":"40.70000000","name":"Hulayfah Kharibah"},{"id":"2231580","latitude":"26.00000000","longitude":"40.78333330","name":"Hulayfa'"},{"id":"2231581","latitude":"25.93333330","longitude":"40.70000000","name":"Hulayfa' Kharibah"},{"id":"2231595","latitude":"23.86111110","longitude":"38.90111110","name":"Husainiyah"},{"id":"2231596","latitude":"23.86111110","longitude":"38.90111110","name":"Husainiya"},{"id":"2231598","latitude":"23.86111110","longitude":"38.90111110","name":"Husayniyah"},{"id":"2231603","latitude":"25.60000000","longitude":"40.38333330","name":"Huwaiyit"},{"id":"2231638","latitude":"25.09861110","longitude":"38.88916670","name":"Istabl Antar"},{"id":"2231648","latitude":"24.25000000","longitude":"38.51666670","name":"Jabraya"},{"id":"2231649","latitude":"25.37888890","longitude":"38.81750000","name":"Jada`ah"},{"id":"2231656","latitude":"23.81194440","longitude":"38.84000000","name":"Jadidah"},{"id":"2231657","latitude":"23.81194440","longitude":"38.84000000","name":"Jadida"},{"id":"2231658","latitude":"23.81194440","longitude":"38.84000000","name":"Jadid"},{"id":"2231817","latitude":"24.26666670","longitude":"38.56666670","name":"Khaif Fadhil"},{"id":"2231836","latitude":"23.89944440","longitude":"38.89666670","name":"Kharmah"},{"id":"2231837","latitude":"23.89944440","longitude":"38.89666670","name":"Kharma"},{"id":"2231854","latitude":"24.02361110","longitude":"38.93472220","name":"Khayf al Hizam"},{"id":"2231855","latitude":"24.26666670","longitude":"38.56666670","name":"Khayf Fadil"},{"id":"2231915","latitude":"24.40000000","longitude":"39.65000000","name":"Kubah"},{"id":"2231917","latitude":"24.40000000","longitude":"39.65000000","name":"Kuba"},{"id":"2231947","latitude":"24.46861110","longitude":"39.61416670","name":"Lathrippa"},{"id":"2231980","latitude":"23.32222220","longitude":"39.62027780","name":"Madhiq"},{"id":"2231984","latitude":"23.99944440","longitude":"38.22750000","name":"Madinat Yanbu` as Sina`iyah"},{"id":"2231985","latitude":"23.32222220","longitude":"39.62027780","name":"Madiq"},{"id":"2231990","latitude":"24.35694440","longitude":"38.55722220","name":"Madsus"},{"id":"2231991","latitude":"23.74194440","longitude":"38.76361110","name":"Mafraq"},{"id":"2232001","latitude":"23.50000000","longitude":"40.86666670","name":"Mahad Dhahab"},{"id":"2232009","latitude":"23.74722220","longitude":"39.29250000","name":"Mahattat al Hafah"},{"id":"2232014","latitude":"23.50000000","longitude":"40.86666670","name":"Mahd adh Dhahab"},{"id":"2232016","latitude":"23.50000000","longitude":"40.86666670","name":"Mahd Dhahab"},{"id":"2232017","latitude":"23.50000000","longitude":"40.86666670","name":"Mahd el-Dahab"},{"id":"2232080","latitude":"24.41666670","longitude":"38.70000000","name":"Maqrah"},{"id":"2232081","latitude":"24.41666670","longitude":"38.70000000","name":"Maqra"},{"id":"2232082","latitude":"23.58527780","longitude":"38.60250000","name":"Maqshush"},{"id":"2232100","latitude":"24.03333330","longitude":"38.23333330","name":"Masahili"},{"id":"2232110","latitude":"22.87083330","longitude":"40.55166670","name":"Mashuqah as Sufla"},{"id":"2232122","latitude":"23.11611110","longitude":"38.84138890","name":"Masturah"},{"id":"2232123","latitude":"23.11611110","longitude":"38.84138890","name":"Mastura"},{"id":"2232135","latitude":"24.20000000","longitude":"38.43333330","name":"Mawarah"},{"id":"2232136","latitude":"24.20000000","longitude":"38.43333330","name":"Mawara"},{"id":"2232145","latitude":"23.27833330","longitude":"39.24277780","name":"Mazra`at al Bustan"},{"id":"2232151","latitude":"24.46861110","longitude":"39.61416670","name":"Medina"},{"id":"2232167","latitude":"24.05000000","longitude":"38.30000000","name":"Milhah"},{"id":"2232168","latitude":"24.05000000","longitude":"38.30000000","name":"Milha"},{"id":"2232259","latitude":"25.38805560","longitude":"38.35250000","name":"Murabba'"},{"id":"2232360","latitude":"24.26666670","longitude":"38.65000000","name":"Nujail"},{"id":"2232361","latitude":"24.26666670","longitude":"38.65000000","name":"Nujayl"},{"id":"2232382","latitude":"24.40000000","longitude":"39.65000000","name":"Qaba'"},{"id":"2232416","latitude":"23.28833330","longitude":"40.32361110","name":"Qaran"},{"id":"2232492","latitude":"23.28833330","longitude":"40.32361110","name":"Qiran"},{"id":"2232589","latitude":"23.57416670","longitude":"38.60194440","name":"Raiis"},{"id":"2232591","latitude":"23.57416670","longitude":"38.60194440","name":"Ra'is"},{"id":"2232630","latitude":"26.08333330","longitude":"40.61666670","name":"Raudh"},{"id":"2232658","latitude":"23.57416670","longitude":"38.60194440","name":"Rayyis"},{"id":"2232659","latitude":"23.57416670","longitude":"38.60194440","name":"Reis"},{"id":"2232687","latitude":"23.57416670","longitude":"38.60194440","name":"Rueis"},{"id":"2232719","latitude":"24.96666670","longitude":"38.71666670","name":"Sabakh"},{"id":"2232726","latitude":"24.20000000","longitude":"38.40000000","name":"Sabil"},{"id":"2232792","latitude":"22.86750000","longitude":"40.52583330","name":"Samur"},{"id":"2232855","latitude":"25.05583330","longitude":"38.98222220","name":"Shajwa"},{"id":"2232889","latitude":"24.23333330","longitude":"38.53333330","name":"Sha`tha'"},{"id":"2232926","latitude":"24.50000000","longitude":"39.61666670","name":"Sidi Hamzah"},{"id":"2232930","latitude":"23.15000000","longitude":"40.53333330","name":"Sifeina"},{"id":"2232966","latitude":"23.15000000","longitude":"40.53333330","name":"Sufaina"},{"id":"2232969","latitude":"23.15000000","longitude":"40.53333330","name":"Sufaynah"},{"id":"2232978","latitude":"24.33666670","longitude":"41.27527780","name":"Sukhaybarah"},{"id":"2233000","latitude":"24.50000000","longitude":"39.58333330","name":"Sultanah"},{"id":"2233037","latitude":"24.37222220","longitude":"38.44222220","name":"Suq Suwaq"},{"id":"2233038","latitude":"24.37222220","longitude":"38.44222220","name":"Suq Suwayq"},{"id":"2233040","latitude":"24.23333330","longitude":"38.50000000","name":"Suqubiya"},{"id":"2233047","latitude":"24.03333330","longitude":"38.20000000","name":"Suwadah"},{"id":"2233048","latitude":"24.03333330","longitude":"38.20000000","name":"Suwada"},{"id":"2233049","latitude":"23.34444440","longitude":"40.31833330","name":"Suwairkiya"},{"id":"2233052","latitude":"24.72694440","longitude":"40.15138890","name":"Suwaydarah"},{"id":"2233055","latitude":"23.34444440","longitude":"40.31833330","name":"Suwayrikiyah"},{"id":"2233074","latitude":"24.85000000","longitude":"38.86666670","name":"Taitad"},{"id":"2233182","latitude":"25.88750000","longitude":"38.61361110","name":"Tuwayrah"},{"id":"2233208","latitude":"23.26000000","longitude":"39.56888890","name":"Umm Aiyal"},{"id":"2233210","latitude":"22.86555560","longitude":"40.56555560","name":"Umm al Arad"},{"id":"2233212","latitude":"25.10000000","longitude":"38.58333330","name":"Umm al Batha'"},{"id":"2233214","latitude":"23.42805560","longitude":"39.23027780","name":"Umm al Birak"},{"id":"2233223","latitude":"23.26000000","longitude":"39.56888890","name":"Umm al `Iyal"},{"id":"2233239","latitude":"24.04027780","longitude":"38.92972220","name":"Umm Ama'in"},{"id":"2233240","latitude":"24.04027780","longitude":"38.92972220","name":"Umm `Amayin"},{"id":"2233253","latitude":"23.42805560","longitude":"39.23027780","name":"Umm Birak"},{"id":"2233254","latitude":"25.63777780","longitude":"38.43388890","name":"Umm Dharb"},{"id":"2233255","latitude":"23.42805560","longitude":"39.23027780","name":"Umm el Birak"},{"id":"2233277","latitude":"23.32222220","longitude":"39.62027780","name":"Umm Madiq"},{"id":"2233320","latitude":"24.76666670","longitude":"38.81666670","name":"`Uqdah"},{"id":"2233334","latitude":"24.43333330","longitude":"39.60000000","name":"`Urwah"},{"id":"2233342","latitude":"23.50000000","longitude":"38.91666670","name":"`Ushash"},{"id":"2233344","latitude":"24.01861110","longitude":"39.67305560","name":"`Ushayrah"},{"id":"2233358","latitude":"24.38333330","longitude":"38.26666670","name":"Uwais"},{"id":"2233363","latitude":"24.55000000","longitude":"39.58333330","name":"Uyun"},{"id":"2233378","latitude":"23.88500000","longitude":"38.90250000","name":"Wasitah"},{"id":"2233382","latitude":"23.88500000","longitude":"38.90250000","name":"Wasta"},{"id":"2233387","latitude":"25.79305560","longitude":"38.68500000","name":"Wayban"},{"id":"2233406","latitude":"24.08527780","longitude":"38.04861110","name":"Yambo"},{"id":"2233407","latitude":"24.08527780","longitude":"38.04861110","name":"Yanbu al-Bahar"},{"id":"2233408","latitude":"24.08527780","longitude":"38.04861110","name":"Yanbu` al Bahr"},{"id":"2233409","latitude":"23.99944440","longitude":"38.22750000","name":"Yanbu al Sinaiyah"},{"id":"2233410","latitude":"23.99944440","longitude":"38.22750000","name":"Yanbu Industrial City"},{"id":"2233411","latitude":"24.08527780","longitude":"38.04861110","name":"Yanbu`"},{"id":"2233413","latitude":"24.61666670","longitude":"38.58333330","name":"Yarfa`"},{"id":"2233414","latitude":"23.60000000","longitude":"39.55000000","name":"Yasirah"},{"id":"2233415","latitude":"23.60000000","longitude":"39.55000000","name":"Yasira"},{"id":"2233416","latitude":"24.46861110","longitude":"39.61416670","name":"Yathrib"},{"id":"2233419","latitude":"24.08527780","longitude":"38.04861110","name":"Yenbo` al Bahar"},{"id":"2233420","latitude":"24.08527780","longitude":"38.04861110","name":"Yenbo"}]