[{"id":"2228912","latitude":"27.15000000","longitude":"35.78333330","name":"Abu Salama"},{"id":"2228913","latitude":"27.15000000","longitude":"35.78333330","name":"Abu Salma"},{"id":"2229032","latitude":"28.08555560","longitude":"35.18694440","name":"`Ainuna"},{"id":"2229042","latitude":"28.08555560","longitude":"35.18694440","name":"`Ajn\ufffdna'"},{"id":"2229185","latitude":"28.49472220","longitude":"35.01222220","name":"Al Bad`"},{"id":"2229192","latitude":"28.49472220","longitude":"35.01222220","name":"Al Badi'"},{"id":"2229232","latitude":"28.49472220","longitude":"35.01222220","name":"Al-Bed`"},{"id":"2229234","latitude":"28.49472220","longitude":"35.01222220","name":"Al Bida`"},{"id":"2229237","latitude":"28.49472220","longitude":"35.01222220","name":"Al Bid`"},{"id":"2229501","latitude":"28.06111110","longitude":"35.16861110","name":"Al-H\u0331rajbe"},{"id":"2229666","latitude":"28.02444440","longitude":"35.26944440","name":"Al-Kasab"},{"id":"2229736","latitude":"28.06111110","longitude":"35.16861110","name":"Al Khuraybah"},{"id":"2229820","latitude":"28.76666670","longitude":"35.51666670","name":"Al Mafraq"},{"id":"2229860","latitude":"28.39444440","longitude":"34.73500000","name":"Al Maqnah"},{"id":"2230012","latitude":"27.68333330","longitude":"35.46666670","name":"Al Muwaylih"},{"id":"2230017","latitude":"27.68333330","longitude":"35.46666670","name":"Al-Mweleh"},{"id":"2230238","latitude":"26.23333330","longitude":"36.46666670","name":"Al Wajh"},{"id":"2230258","latitude":"26.23333330","longitude":"36.46666670","name":"Alwejh"},{"id":"2230566","latitude":"28.02444440","longitude":"35.26944440","name":"Ash Sharmah"},{"id":"2230636","latitude":"24.71611110","longitude":"37.60750000","name":"As Sadah"},{"id":"2230677","latitude":"27.88333330","longitude":"35.31666670","name":"As Sawrah"},{"id":"2230740","latitude":"27.88333330","longitude":"35.31666670","name":"As Sura"},{"id":"2230847","latitude":"28.08555560","longitude":"35.18694440","name":"`Ayn\ufffdna"},{"id":"2230848","latitude":"28.08555560","longitude":"35.18694440","name":"`Aynunah"},{"id":"2230980","latitude":"28.49472220","longitude":"35.01222220","name":"Beda al Haura"},{"id":"2231078","latitude":"27.35000000","longitude":"35.66666670","name":"Daba"},{"id":"2231139","latitude":"27.35000000","longitude":"35.66666670","name":"Dhaba"},{"id":"2231161","latitude":"27.35000000","longitude":"35.66666670","name":"Diba"},{"id":"2231179","latitude":"27.35000000","longitude":"35.66666670","name":"Duba"},{"id":"2231223","latitude":"28.06111110","longitude":"35.16861110","name":"El-Khureiba"},{"id":"2231454","latitude":"25.50388890","longitude":"37.01750000","name":"Hanak"},{"id":"2231562","latitude":"24.81083330","longitude":"37.73305560","name":"Hudayrah"},{"id":"2231876","latitude":"25.33333330","longitude":"37.33333330","name":"Khuff"},{"id":"2231885","latitude":"28.06111110","longitude":"35.16861110","name":"Khuraybah"},{"id":"2231890","latitude":"25.88055560","longitude":"36.81055560","name":"Khurayyim Sa'id"},{"id":"2231999","latitude":"28.39444440","longitude":"34.73500000","name":"Magnah"},{"id":"2232000","latitude":"28.39444440","longitude":"34.73500000","name":"Magna"},{"id":"2232038","latitude":"28.39444440","longitude":"34.73500000","name":"Makna"},{"id":"2232078","latitude":"28.39444440","longitude":"34.73500000","name":"Maqnah"},{"id":"2232079","latitude":"28.39444440","longitude":"34.73500000","name":"Maqna"},{"id":"2232133","latitude":"27.68333330","longitude":"35.46666670","name":"Mawaila"},{"id":"2232198","latitude":"27.68333330","longitude":"35.46666670","name":"Mowila"},{"id":"2232217","latitude":"28.39444440","longitude":"34.73500000","name":"Mugnah"},{"id":"2232779","latitude":"27.15000000","longitude":"35.78333330","name":"Salma"},{"id":"2232803","latitude":"28.02444440","longitude":"35.26944440","name":"Sarma"},{"id":"2232815","latitude":"27.88333330","longitude":"35.31666670","name":"Sawra"},{"id":"2232824","latitude":"26.76666670","longitude":"36.06666670","name":"Sekk al- `Abd"},{"id":"2232838","latitude":"24.79611110","longitude":"37.23388890","name":"Shaban"},{"id":"2232884","latitude":"28.02444440","longitude":"35.26944440","name":"Sharma"},{"id":"2233042","latitude":"27.88333330","longitude":"35.31666670","name":"Sura"},{"id":"2233089","latitude":"26.76666670","longitude":"36.06666670","name":"Taraf Shaqq al `Abd"},{"id":"2233098","latitude":"25.50000000","longitude":"37.28333330","name":"Tawala"},{"id":"2233104","latitude":"28.56666670","longitude":"34.83333330","name":"Tayyib al Ism"},{"id":"2233274","latitude":"25.02416670","longitude":"37.26888890","name":"Umm Lajj"},{"id":"2233275","latitude":"25.02416670","longitude":"37.26888890","name":"Umm Lej"},{"id":"2233276","latitude":"25.02416670","longitude":"37.26888890","name":"Umm Lujj"},{"id":"2233280","latitude":"24.77333330","longitude":"37.43166670","name":"Umm Qabir"},{"id":"2233281","latitude":"24.77333330","longitude":"37.43166670","name":"Umm Qabr"},{"id":"2233289","latitude":"25.76666670","longitude":"37.56666670","name":"Umm Rakhkh"},{"id":"2233290","latitude":"25.76666670","longitude":"37.56666670","name":"Umm Rakh"},{"id":"2233373","latitude":"26.23333330","longitude":"36.46666670","name":"Wajj"},{"id":"2233388","latitude":"26.23333330","longitude":"36.46666670","name":"Wejh"},{"id":"2233438","latitude":"27.35000000","longitude":"35.66666670","name":"Zbe"},{"id":"2233452","latitude":"27.35000000","longitude":"35.66666670","name":"Z\u0327iba'"},{"id":"2233465","latitude":"26.25000000","longitude":"36.55000000","name":"Zurayb"}]