[{"id":"2237068","latitude":"12.66666670","longitude":"31.40000000","name":"Abalang"},{"id":"2237082","latitude":"12.60000000","longitude":"30.71666670","name":"Abbas"},{"id":"2237086","latitude":"12.01666670","longitude":"27.96666670","name":"`Abbasiya"},{"id":"2237087","latitude":"12.16666670","longitude":"31.30000000","name":"Abbasiya"},{"id":"2237088","latitude":"12.01666670","longitude":"27.96666670","name":"`Abbasiyah"},{"id":"2237095","latitude":"11.58333330","longitude":"27.41666670","name":"`Abd ad Da'im"},{"id":"2237104","latitude":"13.70000000","longitude":"29.50000000","name":"`Abd al Khayr"},{"id":"2237109","latitude":"13.56666670","longitude":"30.86666670","name":"`Abd Allah"},{"id":"2237123","latitude":"13.45000000","longitude":"30.95000000","name":"`Abd ar Rahman"},{"id":"2237124","latitude":"14.46666670","longitude":"29.05000000","name":"`Abd ar Rahman Subei"},{"id":"2237131","latitude":"11.58333330","longitude":"27.41666670","name":"`Abd ed Daim"},{"id":"2237141","latitude":"13.70000000","longitude":"29.50000000","name":"`Abd el Kheir"},{"id":"2237150","latitude":"13.45000000","longitude":"30.95000000","name":"`Abd er Rahman"},{"id":"2237151","latitude":"14.46666670","longitude":"29.05000000","name":"`Abd er Rahman Subei"},{"id":"2237158","latitude":"13.55000000","longitude":"29.63333330","name":"`Abdin"},{"id":"2237170","latitude":"13.56666670","longitude":"30.86666670","name":"`Abdullah"},{"id":"2237183","latitude":"13.18333330","longitude":"31.10000000","name":"Abeiya"},{"id":"2237184","latitude":"12.71666670","longitude":"28.91666670","name":"Abekr"},{"id":"2237189","latitude":"11.76666670","longitude":"31.75000000","name":"Ab Gir"},{"id":"2237196","latitude":"13.55000000","longitude":"29.63333330","name":"`Abidin"},{"id":"2237220","latitude":"11.66666670","longitude":"30.46666670","name":"`Abri"},{"id":"2237225","latitude":"13.76666670","longitude":"29.30000000","name":"Abu `Agub"},{"id":"2237238","latitude":"12.05000000","longitude":"31.05000000","name":"Abu `Auga"},{"id":"2237240","latitude":"13.28333330","longitude":"31.60000000","name":"Abu `Auwa"},{"id":"2237241","latitude":"12.05000000","longitude":"31.05000000","name":"Abu `Awja'"},{"id":"2237243","latitude":"13.28333330","longitude":"31.60000000","name":"Abu `Awwa'"},{"id":"2237246","latitude":"11.73333330","longitude":"31.63333330","name":"Abu Cureis"},{"id":"2237249","latitude":"12.06666670","longitude":"28.03333330","name":"Abu Dabarah"},{"id":"2237252","latitude":"12.73333330","longitude":"28.68333330","name":"Abu Daql"},{"id":"2237262","latitude":"11.88333330","longitude":"28.05000000","name":"Abu Dawmah"},{"id":"2237264","latitude":"13.48333330","longitude":"27.68333330","name":"Abu Dazza"},{"id":"2237265","latitude":"13.48333330","longitude":"27.68333330","name":"Abu Dazzah"},{"id":"2237271","latitude":"13.90000000","longitude":"30.20000000","name":"Abu Dellum al A`ma"},{"id":"2237276","latitude":"12.80000000","longitude":"27.86666670","name":"Abu Dik"},{"id":"2237281","latitude":"11.88333330","longitude":"28.05000000","name":"Abu Doma"},{"id":"2237287","latitude":"12.06666670","longitude":"28.03333330","name":"Abu Dubara"},{"id":"2237294","latitude":"13.50000000","longitude":"28.75000000","name":"Abu Fandok"},{"id":"2237297","latitude":"12.30000000","longitude":"28.10000000","name":"Abu Fawaghi"},{"id":"2237298","latitude":"13.50000000","longitude":"28.75000000","name":"Abu Funduq"},{"id":"2237305","latitude":"11.45000000","longitude":"31.23333330","name":"Abu-Gebeiha"},{"id":"2237308","latitude":"13.18333330","longitude":"31.86666670","name":"Abu Gelba"},{"id":"2237315","latitude":"11.45000000","longitude":"31.23333330","name":"Abu Gibeyah"},{"id":"2237319","latitude":"11.91666670","longitude":"31.75000000","name":"Abu Gir"},{"id":"2237322","latitude":"11.93333330","longitude":"31.68333330","name":"Abu Gogi"},{"id":"2237323","latitude":"11.45000000","longitude":"31.23333330","name":"Abu Gubeiha"},{"id":"2237326","latitude":"11.73333330","longitude":"31.63333330","name":"Abu Gureis"},{"id":"2237330","latitude":"14.60000000","longitude":"30.15000000","name":"Abu Hadid as Subhani"},{"id":"2237332","latitude":"14.06666670","longitude":"29.71666670","name":"Abu Hagar"},{"id":"2237334","latitude":"14.06666670","longitude":"29.71666670","name":"Abu Hajar"},{"id":"2237340","latitude":"11.25000000","longitude":"31.18333330","name":"Abu Hamira"},{"id":"2237341","latitude":"11.25000000","longitude":"31.18333330","name":"Abu Hamirah"},{"id":"2237343","latitude":"12.85000000","longitude":"31.05000000","name":"Abu Hamra'"},{"id":"2237347","latitude":"12.96666670","longitude":"29.86666670","name":"Abu Haraz"},{"id":"2237350","latitude":"11.38333330","longitude":"31.40000000","name":"Abu Hashim"},{"id":"2237364","latitude":"12.56666670","longitude":"28.45000000","name":"Abu Humayrah"},{"id":"2237366","latitude":"12.56666670","longitude":"28.45000000","name":"Abu Humeira"},{"id":"2237376","latitude":"11.45000000","longitude":"31.23333330","name":"Abu Jibeha"},{"id":"2237379","latitude":"11.45000000","longitude":"31.23333330","name":"Abu Jubayhah"},{"id":"2237381","latitude":"13.10000000","longitude":"27.33333330","name":"Abu Kabisa"},{"id":"2237386","latitude":"12.15000000","longitude":"30.80000000","name":"Abu Kershola"},{"id":"2237392","latitude":"13.28333330","longitude":"30.21666670","name":"Abu Khoreis"},{"id":"2237395","latitude":"13.28333330","longitude":"30.21666670","name":"Abu Khureis"},{"id":"2237409","latitude":"13.11666670","longitude":"31.33333330","name":"Abu Lamis"},{"id":"2237412","latitude":"12.76666670","longitude":"28.55000000","name":"Abu Mareiqa al Haggar"},{"id":"2237416","latitude":"11.28333330","longitude":"31.10000000","name":"Abu Merafib"},{"id":"2237423","latitude":"11.25000000","longitude":"31.51666670","name":"Abu Nuwara"},{"id":"2237424","latitude":"11.25000000","longitude":"31.51666670","name":"Abu Nuweira"},{"id":"2237425","latitude":"11.25000000","longitude":"31.51666670","name":"Abu Nuwwarah"},{"id":"2237428","latitude":"13.16666670","longitude":"31.20000000","name":"Abu Ourein"},{"id":"2237436","latitude":"13.16666670","longitude":"31.20000000","name":"Abu Qurayn"},{"id":"2237437","latitude":"11.73333330","longitude":"31.63333330","name":"Abu Qurays"},{"id":"2237439","latitude":"13.16666670","longitude":"31.20000000","name":"Abu Qurein"},{"id":"2237443","latitude":"13.21666670","longitude":"31.88333330","name":"Abu Qurun"},{"id":"2237451","latitude":"13.58333330","longitude":"28.65000000","name":"Abu Rakhei"},{"id":"2237463","latitude":"13.58333330","longitude":"28.65000000","name":"Abu Rukhayy"},{"id":"2237475","latitude":"15.48333330","longitude":"31.53333330","name":"Abu Sabib"},{"id":"2237477","latitude":"12.91666670","longitude":"30.81666670","name":"Abu Sa`d"},{"id":"2237483","latitude":"11.98333330","longitude":"29.61666670","name":"Abu Seba"},{"id":"2237484","latitude":"11.98333330","longitude":"29.61666670","name":"Abu Seiba"},{"id":"2237495","latitude":"10.93333330","longitude":"27.96666670","name":"Abu Shama"},{"id":"2237497","latitude":"10.93333330","longitude":"27.96666670","name":"Abu Shamah"},{"id":"2237498","latitude":"10.78333330","longitude":"29.53333330","name":"Abu Shanab"},{"id":"2237500","latitude":"14.21666670","longitude":"30.18333330","name":"Abu Shari`ah"},{"id":"2237501","latitude":"11.96666670","longitude":"27.25000000","name":"Abu Shatat"},{"id":"2237502","latitude":"13.03333330","longitude":"31.51666670","name":"Abu Shateir"},{"id":"2237504","latitude":"13.45000000","longitude":"27.95000000","name":"Abu Shawag"},{"id":"2237505","latitude":"13.95000000","longitude":"31.08333330","name":"Abu Shawk"},{"id":"2237508","latitude":"14.21666670","longitude":"30.18333330","name":"Abu Sheri`a"},{"id":"2237511","latitude":"13.95000000","longitude":"31.08333330","name":"Abu Shok"},{"id":"2237517","latitude":"13.03333330","longitude":"31.51666670","name":"Abu Shutayr"},{"id":"2237518","latitude":"13.03333330","longitude":"31.51666670","name":"Abu Shuteir"},{"id":"2237520","latitude":"11.10000000","longitude":"29.35000000","name":"Abu Sinun"},{"id":"2237531","latitude":"10.96666670","longitude":"31.65000000","name":"Abu Tawala"},{"id":"2237535","latitude":"14.40000000","longitude":"31.01666670","name":"Abu Tineitin"},{"id":"2237537","latitude":"14.40000000","longitude":"31.01666670","name":"Abu Tunaytin"},{"id":"2237538","latitude":"13.53333330","longitude":"28.90000000","name":"Abu Turay`ah"},{"id":"2237539","latitude":"13.53333330","longitude":"28.90000000","name":"Abu Turei`a"},{"id":"2237545","latitude":"15.90000000","longitude":"30.45000000","name":"Abu `Uruq"},{"id":"2237549","latitude":"12.35000000","longitude":"29.25000000","name":"Abu Zabad"},{"id":"2237551","latitude":"12.45000000","longitude":"30.75000000","name":"Abu Zaida"},{"id":"2237568","latitude":"9.60000000","longitude":"28.43333330","name":"Abyei"},{"id":"2237569","latitude":"9.60000000","longitude":"28.43333330","name":"Abyey"},{"id":"2237588","latitude":"9.75000000","longitude":"27.95000000","name":"Adama Umm Qurayn"},{"id":"2237589","latitude":"9.75000000","longitude":"27.95000000","name":"Adama Umm Qurein"},{"id":"2237593","latitude":"13.56666670","longitude":"30.80000000","name":"Adara"},{"id":"2237602","latitude":"10.95000000","longitude":"31.66666670","name":"Ad Dabbah"},{"id":"2237605","latitude":"10.63833330","longitude":"29.77361110","name":"Ad Dabkir"},{"id":"2237608","latitude":"13.25000000","longitude":"31.50000000","name":"Ad Dai"},{"id":"2237609","latitude":"12.05000000","longitude":"29.65000000","name":"Ad Dalanj"},{"id":"2237621","latitude":"12.35000000","longitude":"30.53333330","name":"Ad Debeilu"},{"id":"2237623","latitude":"11.73333330","longitude":"27.45000000","name":"Ad Dereis"},{"id":"2237624","latitude":"10.53333330","longitude":"30.30000000","name":"Ad Dikeri"},{"id":"2237629","latitude":"11.73333330","longitude":"28.36666670","name":"Ad Doma"},{"id":"2237636","latitude":"10.86666670","longitude":"32.06666670","name":"Ad Dukaydik"},{"id":"2237637","latitude":"11.90000000","longitude":"31.63333330","name":"Ad Dulayb"},{"id":"2237642","latitude":"14.11666670","longitude":"31.08333330","name":"Ad Duwaymah"},{"id":"2237653","latitude":"12.70000000","longitude":"27.31666670","name":"`Adila"},{"id":"2237667","latitude":"11.73333330","longitude":"28.36666670","name":"Adoma"},{"id":"2237668","latitude":"11.68333330","longitude":"30.36666670","name":"Adona Sughaiyir"},{"id":"2237677","latitude":"13.88333330","longitude":"30.85000000","name":"Adusa"},{"id":"2237694","latitude":"13.41666670","longitude":"29.75000000","name":"`Agab"},{"id":"2237708","latitude":"12.98333330","longitude":"30.58333330","name":"Agari"},{"id":"2237713","latitude":"13.23333330","longitude":"30.01666670","name":"Ageig"},{"id":"2237714","latitude":"12.88333330","longitude":"31.56666670","name":"Ageila"},{"id":"2237715","latitude":"12.96666670","longitude":"29.25000000","name":"Ageimi"},{"id":"2237752","latitude":"11.58944440","longitude":"30.45638890","name":"Agur"},{"id":"2237765","latitude":"11.91666670","longitude":"28.05000000","name":"Ahmad ash Shayn"},{"id":"2237766","latitude":"11.83333330","longitude":"28.03333330","name":"Ahmad Badw"},{"id":"2237767","latitude":"11.66666670","longitude":"27.41666670","name":"Ahmad Jabr"},{"id":"2237775","latitude":"11.83333330","longitude":"28.03333330","name":"Ahmed Badu"},{"id":"2237777","latitude":"11.91666670","longitude":"28.05000000","name":"Ahmed esh Shein"},{"id":"2237778","latitude":"11.66666670","longitude":"27.41666670","name":"Ahmed Gabr"},{"id":"2237831","latitude":"13.61666670","longitude":"31.38333330","name":"Akheirleina"},{"id":"2237885","latitude":"12.16666670","longitude":"31.30000000","name":"Al `Abbasiyah"},{"id":"2237886","latitude":"12.16666670","longitude":"31.30000000","name":"Al `Abbasiyya"},{"id":"2237887","latitude":"12.13333330","longitude":"28.80000000","name":"Al `Abdiyah"},{"id":"2237888","latitude":"13.50000000","longitude":"27.50000000","name":"Al Abyad"},{"id":"2237890","latitude":"13.23333330","longitude":"30.93333330","name":"Alaga"},{"id":"2237893","latitude":"12.36666670","longitude":"27.45000000","name":"Al Ait"},{"id":"2237899","latitude":"11.28333330","longitude":"30.21666670","name":"`Alali"},{"id":"2237904","latitude":"12.16666670","longitude":"28.05000000","name":"Al Amin"},{"id":"2237913","latitude":"13.56666670","longitude":"30.93333330","name":"Al `Ara'ish"},{"id":"2237915","latitude":"11.45000000","longitude":"28.93333330","name":"Al Arak"},{"id":"2237919","latitude":"13.51666670","longitude":"29.26666670","name":"Al `Arqan"},{"id":"2237920","latitude":"13.86666670","longitude":"31.31666670","name":"Al `Arshah"},{"id":"2237927","latitude":"12.38333330","longitude":"30.61666670","name":"Al `Ayn"},{"id":"2237937","latitude":"11.20000000","longitude":"29.63277780","name":"Al Bardab"},{"id":"2237943","latitude":"13.80000000","longitude":"30.18333330","name":"Al Bashiri"},{"id":"2237948","latitude":"10.51666670","longitude":"30.30000000","name":"Al Beiri"},{"id":"2237949","latitude":"13.21666670","longitude":"30.01666670","name":"Al Beniya"},{"id":"2237950","latitude":"11.20000000","longitude":"29.63277780","name":"Al Berdab"},{"id":"2237953","latitude":"11.11666670","longitude":"30.30000000","name":"Al Biri"},{"id":"2237956","latitude":"12.13333330","longitude":"31.26666670","name":"Al Budayriyah"},{"id":"2237957","latitude":"14.10000000","longitude":"30.76666670","name":"Al Buhayr"},{"id":"2237962","latitude":"11.05000000","longitude":"30.13333330","name":"Al Byeara"},{"id":"2237963","latitude":"11.95000000","longitude":"30.46666670","name":"Al Cardud"},{"id":"2237975","latitude":"13.10000000","longitude":"30.08333330","name":"Al Eseilat"},{"id":"2237981","latitude":"12.56666670","longitude":"31.30000000","name":"Al Fakharin"},{"id":"2237982","latitude":"10.06666670","longitude":"30.75000000","name":"Al Fallatah"},{"id":"2237990","latitude":"11.51666670","longitude":"31.13333330","name":"Al Fayd"},{"id":"2238000","latitude":"13.48333330","longitude":"30.76666670","name":"Al Furay`ah"},{"id":"2238001","latitude":"14.38333330","longitude":"30.63333330","name":"Al Furay`"},{"id":"2238009","latitude":"13.71666670","longitude":"29.81666670","name":"Al Gebir"},{"id":"2238014","latitude":"12.90000000","longitude":"31.45000000","name":"Al Ghabsha"},{"id":"2238015","latitude":"12.90000000","longitude":"31.45000000","name":"Al Ghabshah"},{"id":"2238017","latitude":"12.76666670","longitude":"30.18333330","name":"Al Ghassiba"},{"id":"2238019","latitude":"13.63333330","longitude":"30.78333330","name":"Al Ghubayshab"},{"id":"2238021","latitude":"11.78333330","longitude":"29.56666670","name":"Alghulfan"},{"id":"2238024","latitude":"14.06666670","longitude":"30.61666670","name":"Al Ghurayd"},{"id":"2238040","latitude":"14.10000000","longitude":"31.05000000","name":"Al Hagagia"},{"id":"2238041","latitude":"14.31666670","longitude":"31.15000000","name":"Al Hageina"},{"id":"2238042","latitude":"13.05000000","longitude":"31.61666670","name":"Al Hageina as Suq"},{"id":"2238052","latitude":"11.76666670","longitude":"27.38333330","name":"Al Hamari"},{"id":"2238055","latitude":"13.20000000","longitude":"30.41666670","name":"Al Hammadiyah"},{"id":"2238056","latitude":"12.41666670","longitude":"30.05000000","name":"Al Hamra'"},{"id":"2238058","latitude":"13.51666670","longitude":"30.11666670","name":"Al Haraz"},{"id":"2238059","latitude":"11.83333330","longitude":"31.66666670","name":"Al Hariqah"},{"id":"2238064","latitude":"14.13333330","longitude":"29.68333330","name":"Al Hasha'im"},{"id":"2238077","latitude":"12.10000000","longitude":"31.25000000","name":"Al Hoi"},{"id":"2238081","latitude":"13.88333330","longitude":"30.31666670","name":"Al Hudayd"},{"id":"2238085","latitude":"13.33333330","longitude":"30.16666670","name":"Al Humr"},{"id":"2238095","latitude":"12.78333330","longitude":"30.06666670","name":"Al Ibnoia"},{"id":"2238108","latitude":"10.36666670","longitude":"30.73333330","name":"Al Jawharah"},{"id":"2238113","latitude":"10.26666670","longitude":"30.70000000","name":"Al Joghub"},{"id":"2238114","latitude":"14.63333330","longitude":"29.11666670","name":"Al Jubaylat"},{"id":"2238118","latitude":"11.78333330","longitude":"30.68333330","name":"Al Jummayzah"},{"id":"2238131","latitude":"11.81666670","longitude":"31.46666670","name":"Al Kadadah"},{"id":"2238139","latitude":"10.36666670","longitude":"30.70000000","name":"Al Karkarai"},{"id":"2238161","latitude":"11.30111110","longitude":"29.65972220","name":"Al Kiwek"},{"id":"2238166","latitude":"12.56666670","longitude":"30.20000000","name":"Al Ku`"},{"id":"2238172","latitude":"11.91666670","longitude":"30.66666670","name":"Al Kur"},{"id":"2238174","latitude":"12.95000000","longitude":"30.71666670","name":"Al Kurnuk"},{"id":"2238176","latitude":"13.60000000","longitude":"29.81666670","name":"Al Kurrah"},{"id":"2238177","latitude":"14.36666670","longitude":"30.70000000","name":"Al Kurumusia"},{"id":"2238180","latitude":"11.40000000","longitude":"29.13333330","name":"Al Lagawa"},{"id":"2238181","latitude":"11.40000000","longitude":"29.13333330","name":"Al Lagowa"},{"id":"2238189","latitude":"11.33333330","longitude":"30.50000000","name":"Alleira Allaro"},{"id":"2238190","latitude":"11.27361110","longitude":"30.48333330","name":"Alleira"},{"id":"2238191","latitude":"11.28333330","longitude":"30.48333330","name":"Alleira Elmuna"},{"id":"2238192","latitude":"11.36666670","longitude":"30.51666670","name":"Alleira Kuta"},{"id":"2238193","latitude":"11.38333330","longitude":"30.50000000","name":"Alleira Lauti"},{"id":"2238196","latitude":"12.60000000","longitude":"30.31666670","name":"`Alloba"},{"id":"2238197","latitude":"12.60000000","longitude":"30.31666670","name":"Allobar"},{"id":"2238203","latitude":"13.11666670","longitude":"30.55000000","name":"Al Mafri"},{"id":"2238204","latitude":"12.30000000","longitude":"31.33333330","name":"Al Mahalabi"},{"id":"2238209","latitude":"9.81666670","longitude":"28.75000000","name":"Al Malamm"},{"id":"2238212","latitude":"12.31666670","longitude":"28.81666670","name":"Al Mamsukah"},{"id":"2238216","latitude":"15.46666670","longitude":"32.01666670","name":"Al Maqarr"},{"id":"2238224","latitude":"15.15000000","longitude":"30.45000000","name":"Al Matarah"},{"id":"2238227","latitude":"13.91666670","longitude":"29.25000000","name":"Al Mazrub"},{"id":"2238229","latitude":"9.81666670","longitude":"28.75000000","name":"Al Melemm"},{"id":"2238231","latitude":"13.43333330","longitude":"28.61666670","name":"Al Mes"},{"id":"2238232","latitude":"12.20000000","longitude":"31.33333330","name":"Al Messin"},{"id":"2238233","latitude":"11.03333330","longitude":"28.05000000","name":"Al Miallug"},{"id":"2238235","latitude":"11.03333330","longitude":"27.73333330","name":"Al Mijlad"},{"id":"2238237","latitude":"12.48333330","longitude":"30.03333330","name":"Al Milh"},{"id":"2238243","latitude":"11.03333330","longitude":"27.73333330","name":"Al Mujlad"},{"id":"2238245","latitude":"14.26666670","longitude":"29.55000000","name":"Al Muraykhah"},{"id":"2238246","latitude":"13.08333330","longitude":"30.13333330","name":"Al Muraykib"},{"id":"2238248","latitude":"13.73333330","longitude":"30.06666670","name":"Al Murrah"},{"id":"2238251","latitude":"13.25000000","longitude":"28.81666670","name":"Al Musein"},{"id":"2238255","latitude":"12.05000000","longitude":"28.28333330","name":"Al Odayya"},{"id":"2238256","latitude":"12.45000000","longitude":"30.03333330","name":"Al Oddaiya"},{"id":"2238263","latitude":"14.26666670","longitude":"29.98333330","name":"Al Qa`ah"},{"id":"2238268","latitude":"14.30000000","longitude":"29.53333330","name":"Al Qafalat"},{"id":"2238285","latitude":"14.65000000","longitude":"30.43333330","name":"Al Qulay`ah"},{"id":"2238294","latitude":"11.00000000","longitude":"31.70000000","name":"Al Qurdud"},{"id":"2238308","latitude":"13.48333330","longitude":"30.30000000","name":"Al `Ud"},{"id":"2238310","latitude":"12.66666670","longitude":"30.13333330","name":"Al `Udaydat"},{"id":"2238311","latitude":"12.05000000","longitude":"28.28333330","name":"Al Udayyah"},{"id":"2238313","latitude":"12.78333330","longitude":"30.95000000","name":"Al Udayyat"},{"id":"2238315","latitude":"11.78333330","longitude":"31.33333330","name":"Al `Ufaynah"},{"id":"2238322","latitude":"11.78333330","longitude":"28.03333330","name":"Al `Umda"},{"id":"2238323","latitude":"11.78333330","longitude":"28.03333330","name":"Al `Umdah"},{"id":"2238333","latitude":"11.96666670","longitude":"31.43333330","name":"Al Uzayriq"},{"id":"2238339","latitude":"15.01666670","longitude":"30.16666670","name":"Al Wazz"},{"id":"2238346","latitude":"12.90000000","longitude":"31.00000000","name":"Aman Allah"},{"id":"2238348","latitude":"12.90000000","longitude":"31.00000000","name":"Amanullah"},{"id":"2238352","latitude":"12.65000000","longitude":"27.88333330","name":"`Amara"},{"id":"2238359","latitude":"12.65000000","longitude":"27.88333330","name":"`Amarah"},{"id":"2238412","latitude":"11.68333330","longitude":"30.36666670","name":"Andona Sughaiyir"},{"id":"2238413","latitude":"11.68333330","longitude":"30.36666670","name":"Andona Sughayyir"},{"id":"2238419","latitude":"11.28333330","longitude":"30.51666670","name":"Angerri"},{"id":"2238432","latitude":"14.61666670","longitude":"29.13333330","name":"An Nabalat"},{"id":"2238435","latitude":"12.70000000","longitude":"28.43333330","name":"An Nahud"},{"id":"2238443","latitude":"11.95000000","longitude":"28.40000000","name":"An Nisf"},{"id":"2238444","latitude":"12.70000000","longitude":"28.43333330","name":"An Nuhud"},{"id":"2238446","latitude":"13.13333330","longitude":"29.83333330","name":"An Numayr"},{"id":"2238447","latitude":"12.61666670","longitude":"30.30000000","name":"An Nuqay`ah"},{"id":"2238450","latitude":"11.96666670","longitude":"28.05000000","name":"An Nur"},{"id":"2238451","latitude":"11.83333330","longitude":"28.05000000","name":"An Nur Musa"},{"id":"2238457","latitude":"13.58333330","longitude":"30.75000000","name":"Antatai"},{"id":"2238485","latitude":"12.71666670","longitude":"31.26666670","name":"`Aradaia"},{"id":"2238491","latitude":"11.98333330","longitude":"28.71666670","name":"`Aradeib"},{"id":"2238493","latitude":"11.98333330","longitude":"28.71666670","name":"Aradsil"},{"id":"2238515","latitude":"15.06666670","longitude":"26.45000000","name":"Argi"},{"id":"2238525","latitude":"12.11666670","longitude":"27.95000000","name":"`Aris"},{"id":"2238526","latitude":"13.41666670","longitude":"30.18333330","name":"Arit"},{"id":"2238537","latitude":"13.80000000","longitude":"30.11666670","name":"Ar Raddah"},{"id":"2238540","latitude":"12.71666670","longitude":"30.65000000","name":"Ar Rahad"},{"id":"2238543","latitude":"11.66666670","longitude":"30.40000000","name":"Ar Raqabah"},{"id":"2238549","latitude":"13.26666670","longitude":"29.58333330","name":"Ar Riheiwa"},{"id":"2238555","latitude":"13.78333330","longitude":"29.93333330","name":"Ar Rubshan"},{"id":"2238559","latitude":"14.61666670","longitude":"29.11666670","name":"Ar Rukab"},{"id":"2238568","latitude":"12.58333330","longitude":"31.11666670","name":"`Arsh al Yoi"},{"id":"2238569","latitude":"12.58333330","longitude":"31.11666670","name":"Arsheloi"},{"id":"2238570","latitude":"12.58333330","longitude":"31.11666670","name":"Arsh el Yoi"},{"id":"2238584","latitude":"14.15000000","longitude":"29.70000000","name":"`Asala"},{"id":"2238585","latitude":"14.15000000","longitude":"29.70000000","name":"`Asalah"},{"id":"2238607","latitude":"13.60000000","longitude":"30.01666670","name":"Ash Shana"},{"id":"2238610","latitude":"11.18333330","longitude":"30.31666670","name":"Ash Shawaia"},{"id":"2238612","latitude":"14.53333330","longitude":"30.41666670","name":"Ash Shawwaf"},{"id":"2238622","latitude":"13.75000000","longitude":"31.33333330","name":"Ash Shiqlah"},{"id":"2238624","latitude":"11.51666670","longitude":"28.93333330","name":"Ash Shiyab"},{"id":"2238641","latitude":"13.58333330","longitude":"30.61666670","name":"`Asida"},{"id":"2238642","latitude":"13.58333330","longitude":"30.61666670","name":"`Asidah"},{"id":"2238646","latitude":"13.61666670","longitude":"29.98333330","name":"As Sa`ata"},{"id":"2238648","latitude":"15.51666670","longitude":"30.11666670","name":"As Safiyah"},{"id":"2238649","latitude":"15.51666670","longitude":"30.11666670","name":"As Safya"},{"id":"2238651","latitude":"12.58333330","longitude":"30.35000000","name":"As Salamat"},{"id":"2238653","latitude":"12.06666670","longitude":"27.76666670","name":"As Samhat"},{"id":"2238660","latitude":"11.70000000","longitude":"31.40000000","name":"As Sarrarah"},{"id":"2238662","latitude":"14.01666670","longitude":"30.60000000","name":"As Sayyal"},{"id":"2238667","latitude":"12.45000000","longitude":"30.75000000","name":"As Sidra"},{"id":"2238681","latitude":"12.58333330","longitude":"29.83333330","name":"As Sulayk"},{"id":"2238682","latitude":"11.61666670","longitude":"29.13333330","name":"As Sultan"},{"id":"2238685","latitude":"12.73333330","longitude":"30.55000000","name":"As Sura"},{"id":"2238704","latitude":"12.88333330","longitude":"30.16666670","name":"Ath Thumayd"},{"id":"2238706","latitude":"13.08333330","longitude":"29.21666670","name":"`Ati"},{"id":"2238733","latitude":"12.65000000","longitude":"28.90000000","name":"At Tawm Halal"},{"id":"2238735","latitude":"13.20000000","longitude":"30.78333330","name":"At Tayyara"},{"id":"2238737","latitude":"13.20000000","longitude":"30.78333330","name":"At Tayyarah"},{"id":"2238738","latitude":"12.78333330","longitude":"31.21666670","name":"At Tayyibah"},{"id":"2238742","latitude":"11.93333330","longitude":"31.75000000","name":"At Terter"},{"id":"2238757","latitude":"12.71666670","longitude":"28.21666670","name":"At Tulayh"},{"id":"2238763","latitude":"13.56666670","longitude":"29.46666670","name":"At Tuweifra"},{"id":"2238771","latitude":"11.38333330","longitude":"30.51666670","name":"Audi"},{"id":"2238772","latitude":"12.46666670","longitude":"28.28333330","name":"Aulad Ghanam"},{"id":"2238786","latitude":"11.81666670","longitude":"31.11666670","name":"Awaiat"},{"id":"2238787","latitude":"11.81666670","longitude":"31.11666670","name":"Awai"},{"id":"2238803","latitude":"12.46666670","longitude":"28.28333330","name":"Awlad Ghanam"},{"id":"2238815","latitude":"10.50000000","longitude":"30.28333330","name":"Ayad"},{"id":"2238816","latitude":"12.45000000","longitude":"29.46666670","name":"Ayak Umm Rakubah"},{"id":"2238817","latitude":"12.45000000","longitude":"29.46666670","name":"Ayak Umm Rukuba"},{"id":"2238837","latitude":"11.53333330","longitude":"27.36666670","name":"Ayyal ed Daash"},{"id":"2238843","latitude":"13.61666670","longitude":"30.25000000","name":"Azhaf"},{"id":"2238854","latitude":"13.95000000","longitude":"30.80000000","name":"Az Zurayqa'"},{"id":"2238855","latitude":"13.95000000","longitude":"30.80000000","name":"Az Zureqa"},{"id":"2238862","latitude":"13.43333330","longitude":"31.30000000","name":"Ba`ashom"},{"id":"2238865","latitude":"11.33333330","longitude":"27.80000000","name":"Babanusa"},{"id":"2238867","latitude":"11.33333330","longitude":"27.80000000","name":"Babanusah"},{"id":"2238894","latitude":"11.20000000","longitude":"30.01666670","name":"Bagaia"},{"id":"2238900","latitude":"13.51666670","longitude":"30.46666670","name":"Bagbagi"},{"id":"2238901","latitude":"13.53333330","longitude":"31.25000000","name":"Bagera"},{"id":"2238913","latitude":"12.35000000","longitude":"28.41666670","name":"Bahr Umm Surein"},{"id":"2238918","latitude":"14.16666670","longitude":"29.35000000","name":"Bain Gedid"},{"id":"2238986","latitude":"13.13333330","longitude":"31.56666670","name":"Bani Muhammad"},{"id":"2239006","latitude":"13.51666670","longitude":"30.46666670","name":"Baqbaqi"},{"id":"2239013","latitude":"13.70000000","longitude":"30.36666670","name":"Bara"},{"id":"2239016","latitude":"13.70000000","longitude":"30.36666670","name":"Barah"},{"id":"2239018","latitude":"10.96666670","longitude":"27.98333330","name":"Baraka"},{"id":"2239020","latitude":"10.96666670","longitude":"27.98333330","name":"Barakah"},{"id":"2239025","latitude":"12.41666670","longitude":"31.20000000","name":"Barakia"},{"id":"2239026","latitude":"14.43333330","longitude":"30.16666670","name":"Barakin"},{"id":"2239027","latitude":"12.41666670","longitude":"31.20000000","name":"Barakiyah"},{"id":"2239040","latitude":"13.13333330","longitude":"28.53333330","name":"Bareir"},{"id":"2239044","latitude":"9.50000000","longitude":"28.46666670","name":"Bargnop"},{"id":"2239060","latitude":"12.73333330","longitude":"28.00000000","name":"Barud"},{"id":"2239069","latitude":"12.51666670","longitude":"30.30000000","name":"Bashamah"},{"id":"2239073","latitude":"13.18333330","longitude":"28.48333330","name":"Bashar"},{"id":"2239076","latitude":"13.43333330","longitude":"31.30000000","name":"Ba`shom"},{"id":"2239077","latitude":"13.43333330","longitude":"31.30000000","name":"Ba`shum"},{"id":"2239162","latitude":"12.23333330","longitude":"27.65000000","name":"Bernawi"},{"id":"2239165","latitude":"12.51666670","longitude":"30.30000000","name":"Beshama"},{"id":"2239181","latitude":"12.90000000","longitude":"30.11666670","name":"Bigga"},{"id":"2239182","latitude":"14.31666670","longitude":"30.86666670","name":"Biheil"},{"id":"2239201","latitude":"10.78333330","longitude":"30.91666670","name":"Bint al Kalb"},{"id":"2239202","latitude":"10.78333330","longitude":"30.91666670","name":"Bint el Kelb"},{"id":"2239203","latitude":"10.95000000","longitude":"31.11666670","name":"Bint Ghabat"},{"id":"2239205","latitude":"13.28333330","longitude":"31.55000000","name":"Bint Goda"},{"id":"2239206","latitude":"10.95000000","longitude":"31.11666670","name":"Bint Habab"},{"id":"2239207","latitude":"10.95000000","longitude":"31.11666670","name":"Bint Hahab"},{"id":"2239228","latitude":"12.56666670","longitude":"30.11666670","name":"Birka"},{"id":"2239229","latitude":"12.56666670","longitude":"30.11666670","name":"Birkah"},{"id":"2239274","latitude":"11.76666670","longitude":"29.30000000","name":"Bombori"},{"id":"2239302","latitude":"13.25000000","longitude":"29.71666670","name":"Boteh"},{"id":"2239319","latitude":"10.98333330","longitude":"30.60000000","name":"Bugra"},{"id":"2239322","latitude":"13.48333330","longitude":"30.16666670","name":"Buhayr"},{"id":"2239323","latitude":"13.48333330","longitude":"30.16666670","name":"Buheir"},{"id":"2239378","latitude":"12.51666670","longitude":"30.06666670","name":"Buraykah"},{"id":"2239379","latitude":"13.13333330","longitude":"28.53333330","name":"Burayr"},{"id":"2239388","latitude":"12.51666670","longitude":"30.06666670","name":"Bureika"},{"id":"2239422","latitude":"12.71666670","longitude":"27.63333330","name":"Buta"},{"id":"2239423","latitude":"12.71666670","longitude":"27.63333330","name":"Butah"},{"id":"2239426","latitude":"12.11666670","longitude":"30.86666670","name":"Buwaydah"},{"id":"2239428","latitude":"12.11666670","longitude":"30.86666670","name":"Buweida"},{"id":"2239442","latitude":"11.78333330","longitude":"31.03333330","name":"Chado"},{"id":"2239452","latitude":"11.38333330","longitude":"30.50000000","name":"Chando"},{"id":"2239459","latitude":"10.88333330","longitude":"31.55000000","name":"Chekka"},{"id":"2239460","latitude":"11.66666670","longitude":"31.03333330","name":"Cherawa"},{"id":"2239473","latitude":"11.90000000","longitude":"28.63333330","name":"Chocho"},{"id":"2239500","latitude":"11.38333330","longitude":"31.35000000","name":"Dabbat al Bukhas"},{"id":"2239501","latitude":"11.35000000","longitude":"28.85000000","name":"Dabbat `Ubayd"},{"id":"2239502","latitude":"11.01500000","longitude":"31.00361110","name":"Dabdob"},{"id":"2239511","latitude":"12.90000000","longitude":"28.23333330","name":"Dagalos"},{"id":"2239519","latitude":"12.60000000","longitude":"27.28333330","name":"Dagma"},{"id":"2239528","latitude":"11.58944440","longitude":"30.45638890","name":"Daira"},{"id":"2239532","latitude":"11.86472220","longitude":"30.47361110","name":"Dalami"},{"id":"2239541","latitude":"11.86472220","longitude":"30.47361110","name":"Dallami"},{"id":"2239542","latitude":"10.18333330","longitude":"30.71666670","name":"Dallas"},{"id":"2239560","latitude":"13.28333330","longitude":"27.46666670","name":"Dam Gamad"},{"id":"2239561","latitude":"14.15000000","longitude":"30.15000000","name":"Damira at Tom"},{"id":"2239562","latitude":"14.15000000","longitude":"30.15000000","name":"Damira et Tom"},{"id":"2239563","latitude":"14.15000000","longitude":"30.15000000","name":"Damira et Tora"},{"id":"2239564","latitude":"13.28333330","longitude":"27.46666670","name":"Dam Jamad"},{"id":"2239565","latitude":"13.26666670","longitude":"30.43333330","name":"Damukiyah"},{"id":"2239578","latitude":"13.40000000","longitude":"30.15000000","name":"Dankoj"},{"id":"2239586","latitude":"13.38333330","longitude":"31.98333330","name":"Darafisah"},{"id":"2239600","latitude":"12.65000000","longitude":"27.48333330","name":"Dardog"},{"id":"2239621","latitude":"14.96666670","longitude":"30.31666670","name":"Dar Zangol"},{"id":"2239627","latitude":"12.68333330","longitude":"27.78333330","name":"Daweina"},{"id":"2239630","latitude":"12.81666670","longitude":"29.48333330","name":"Dawmah"},{"id":"2239641","latitude":"11.58944440","longitude":"30.45638890","name":"Dayrah"},{"id":"2239644","latitude":"14.96666670","longitude":"30.31666670","name":"Dazingor"},{"id":"2239648","latitude":"11.35000000","longitude":"28.85000000","name":"Debbat Abeid"},{"id":"2239649","latitude":"11.38333330","longitude":"31.35000000","name":"Debbat el Bukhas"},{"id":"2239658","latitude":"12.35000000","longitude":"29.43333330","name":"Debkar"},{"id":"2239659","latitude":"12.35000000","longitude":"29.43333330","name":"Debker"},{"id":"2239665","latitude":"10.90000000","longitude":"31.71666670","name":"Defadi"},{"id":"2239666","latitude":"13.30000000","longitude":"31.96666670","name":"Defeis"},{"id":"2239693","latitude":"11.85000000","longitude":"30.63333330","name":"Delaba"},{"id":"2239695","latitude":"11.86472220","longitude":"30.47361110","name":"Delami"},{"id":"2239697","latitude":"10.23333330","longitude":"30.75000000","name":"Deldum"},{"id":"2239707","latitude":"13.26666670","longitude":"30.43333330","name":"Demokia"},{"id":"2239721","latitude":"13.38333330","longitude":"31.98333330","name":"Derafisa"},{"id":"2239724","latitude":"13.28333330","longitude":"30.78333330","name":"Dereisa"},{"id":"2239729","latitude":"12.38333330","longitude":"29.93333330","name":"Deroti"},{"id":"2239747","latitude":"12.60000000","longitude":"30.71666670","name":"Didan `Abbas"},{"id":"2239755","latitude":"10.51666670","longitude":"30.03333330","name":"Digaia"},{"id":"2239767","latitude":"12.05000000","longitude":"29.65000000","name":"Dilling"},{"id":"2239796","latitude":"11.40000000","longitude":"29.00000000","name":"Dirrar"},{"id":"2239817","latitude":"11.98333330","longitude":"31.46666670","name":"Dogagin"},{"id":"2239819","latitude":"10.95000000","longitude":"30.96666670","name":"Dogilli"},{"id":"2239836","latitude":"11.00000000","longitude":"31.65000000","name":"Doleiba"},{"id":"2239845","latitude":"12.81666670","longitude":"29.48333330","name":"Doma"},{"id":"2239852","latitude":"12.16666670","longitude":"27.15000000","name":"Domi"},{"id":"2239885","latitude":"13.26666670","longitude":"30.90000000","name":"Doteit"},{"id":"2239892","latitude":"11.05000000","longitude":"30.48333330","name":"Doweir"},{"id":"2239913","latitude":"14.11666670","longitude":"31.08333330","name":"Dueima"},{"id":"2239916","latitude":"15.13333330","longitude":"30.51666670","name":"Dugaga"},{"id":"2239940","latitude":"11.00000000","longitude":"31.65000000","name":"Dulaybah"},{"id":"2239959","latitude":"10.21666670","longitude":"30.70000000","name":"Dumbalo"},{"id":"2239986","latitude":"13.28333330","longitude":"30.78333330","name":"Duraysah"},{"id":"2240004","latitude":"13.41666670","longitude":"31.38333330","name":"Dus"},{"id":"2240007","latitude":"12.68333330","longitude":"27.78333330","name":"Duwaynah"},{"id":"2240008","latitude":"11.05000000","longitude":"30.48333330","name":"Duwayr"},{"id":"2240022","latitude":"10.63833330","longitude":"29.77361110","name":"Ed Dabkar"},{"id":"2240023","latitude":"12.01666670","longitude":"31.51666670","name":"Ed Dabker"},{"id":"2240026","latitude":"13.25000000","longitude":"31.50000000","name":"Ed Dai"},{"id":"2240037","latitude":"10.95000000","longitude":"31.66666670","name":"Ed Debba"},{"id":"2240041","latitude":"12.35000000","longitude":"30.53333330","name":"Ed Debeilu"},{"id":"2240042","latitude":"10.63833330","longitude":"29.77361110","name":"Ed Debkar"},{"id":"2240047","latitude":"11.73333330","longitude":"27.45000000","name":"Ed Dereis"},{"id":"2240050","latitude":"10.86666670","longitude":"32.06666670","name":"Ed Dikeidik"},{"id":"2240051","latitude":"10.53333330","longitude":"30.30000000","name":"Ed Dikeri"},{"id":"2240059","latitude":"11.90000000","longitude":"31.63333330","name":"Ed Doleib"},{"id":"2240066","latitude":"14.11666670","longitude":"31.08333330","name":"Ed Dueima"},{"id":"2240068","latitude":"14.11666670","longitude":"31.08333330","name":"Ed Duweima"},{"id":"2240084","latitude":"12.26666670","longitude":"27.98333330","name":"Eina"},{"id":"2240087","latitude":"11.06666670","longitude":"30.31666670","name":"Eiri"},{"id":"2240093","latitude":"12.16666670","longitude":"31.30000000","name":"El Abassiya"},{"id":"2240094","latitude":"12.16666670","longitude":"31.30000000","name":"El `Abbasiya"},{"id":"2240095","latitude":"12.13333330","longitude":"28.80000000","name":"El `Abdiya"},{"id":"2240097","latitude":"13.50000000","longitude":"27.50000000","name":"El Abyad"},{"id":"2240101","latitude":"10.78333330","longitude":"30.91666670","name":"El Ahmar"},{"id":"2240102","latitude":"12.36666670","longitude":"27.45000000","name":"El Ait"},{"id":"2240111","latitude":"12.16666670","longitude":"28.05000000","name":"El Amin"},{"id":"2240115","latitude":"13.56666670","longitude":"30.93333330","name":"El `Araisa"},{"id":"2240118","latitude":"11.45000000","longitude":"28.93333330","name":"El Arak"},{"id":"2240123","latitude":"13.51666670","longitude":"29.26666670","name":"El `Arqan"},{"id":"2240124","latitude":"13.86666670","longitude":"31.31666670","name":"El `Arsha"},{"id":"2240149","latitude":"13.80000000","longitude":"30.18333330","name":"El Bashiri"},{"id":"2240153","latitude":"12.13333330","longitude":"31.26666670","name":"El Bedeina"},{"id":"2240154","latitude":"12.13333330","longitude":"31.26666670","name":"El Bedeiriya"},{"id":"2240155","latitude":"12.13333330","longitude":"31.26666670","name":"El Bederiria"},{"id":"2240158","latitude":"10.51666670","longitude":"30.30000000","name":"El Beiri"},{"id":"2240159","latitude":"13.21666670","longitude":"30.01666670","name":"El Beniya"},{"id":"2240160","latitude":"11.20000000","longitude":"29.63277780","name":"El Berdab"},{"id":"2240162","latitude":"11.11666670","longitude":"30.30000000","name":"El Biri"},{"id":"2240165","latitude":"14.10000000","longitude":"30.76666670","name":"El Buheir"},{"id":"2240168","latitude":"11.05000000","longitude":"30.13333330","name":"El Byeara"},{"id":"2240172","latitude":"12.05000000","longitude":"28.28333330","name":"El Eddaiya"},{"id":"2240173","latitude":"12.78333330","longitude":"30.95000000","name":"El Eddaiyat"},{"id":"2240176","latitude":"12.38333330","longitude":"30.61666670","name":"El `Ein"},{"id":"2240181","latitude":"13.10000000","longitude":"30.08333330","name":"El Eseilat"},{"id":"2240186","latitude":"12.56666670","longitude":"31.30000000","name":"El Fakharin"},{"id":"2240195","latitude":"11.51666670","longitude":"31.13333330","name":"El Feid"},{"id":"2240209","latitude":"13.48333330","longitude":"30.76666670","name":"El Fure`ia"},{"id":"2240210","latitude":"14.38333330","longitude":"30.63333330","name":"El Furei`"},{"id":"2240211","latitude":"14.26666670","longitude":"29.98333330","name":"El Ga`a"},{"id":"2240224","latitude":"13.95000000","longitude":"30.58333330","name":"El Gannah"},{"id":"2240229","latitude":"13.71666670","longitude":"29.81666670","name":"El Gebir"},{"id":"2240233","latitude":"13.16666670","longitude":"30.51666670","name":"El Geifil"},{"id":"2240235","latitude":"11.78333330","longitude":"30.68333330","name":"El Gemmeiza"},{"id":"2240244","latitude":"12.90000000","longitude":"31.45000000","name":"El Ghabsha"},{"id":"2240247","latitude":"14.06666670","longitude":"30.61666670","name":"El Ghareid"},{"id":"2240248","latitude":"10.78333330","longitude":"27.55000000","name":"El Gharig"},{"id":"2240249","latitude":"12.76666670","longitude":"30.18333330","name":"El Ghassiba"},{"id":"2240253","latitude":"13.63333330","longitude":"30.78333330","name":"El Ghubeishab"},{"id":"2240264","latitude":"10.36666670","longitude":"30.73333330","name":"El Gohara"},{"id":"2240268","latitude":"14.63333330","longitude":"29.11666670","name":"El Gubeilat"},{"id":"2240283","latitude":"13.88333330","longitude":"30.31666670","name":"El Hadeid"},{"id":"2240287","latitude":"14.10000000","longitude":"31.05000000","name":"El Hagagia"},{"id":"2240290","latitude":"13.05000000","longitude":"31.61666670","name":"El Hageina"},{"id":"2240291","latitude":"13.05000000","longitude":"31.61666670","name":"El Hageina es Suq"},{"id":"2240297","latitude":"11.76666670","longitude":"27.38333330","name":"El Hamari"},{"id":"2240299","latitude":"13.20000000","longitude":"30.41666670","name":"El Hammadiya"},{"id":"2240300","latitude":"12.41666670","longitude":"30.05000000","name":"El Hamra"},{"id":"2240303","latitude":"13.51666670","longitude":"30.11666670","name":"El Haraz"},{"id":"2240304","latitude":"11.83333330","longitude":"31.66666670","name":"El Hariga"},{"id":"2240310","latitude":"14.13333330","longitude":"29.68333330","name":"El Hashaim"},{"id":"2240332","latitude":"12.10000000","longitude":"31.25000000","name":"El Hoi"},{"id":"2240339","latitude":"13.33333330","longitude":"30.16666670","name":"El Humr"},{"id":"2240343","latitude":"12.78333330","longitude":"30.06666670","name":"El Ibnoia"},{"id":"2240344","latitude":"12.78333330","longitude":"30.95000000","name":"El Idaiyat"},{"id":"2240352","latitude":"10.26666670","longitude":"30.70000000","name":"El Joghub"},{"id":"2240362","latitude":"10.36666670","longitude":"30.70000000","name":"El Karkarai"},{"id":"2240366","latitude":"11.81666670","longitude":"31.46666670","name":"El Kedada"},{"id":"2240405","latitude":"12.56666670","longitude":"30.20000000","name":"El Ku`"},{"id":"2240406","latitude":"11.30111110","longitude":"29.65972220","name":"El Kuik"},{"id":"2240409","latitude":"11.91666670","longitude":"30.66666670","name":"El Kur"},{"id":"2240410","latitude":"12.95000000","longitude":"30.71666670","name":"El Kurnuk"},{"id":"2240412","latitude":"13.60000000","longitude":"29.81666670","name":"El Kurra"},{"id":"2240414","latitude":"14.36666670","longitude":"30.70000000","name":"El Kurumusia"},{"id":"2240416","latitude":"11.40000000","longitude":"29.13333330","name":"El Lagowa"},{"id":"2240426","latitude":"13.11666670","longitude":"30.55000000","name":"El Mafri"},{"id":"2240429","latitude":"15.46666670","longitude":"32.01666670","name":"El Magarr"},{"id":"2240430","latitude":"12.30000000","longitude":"31.33333330","name":"El Mahalabi"},{"id":"2240437","latitude":"12.31666670","longitude":"28.81666670","name":"El Mamsuka"},{"id":"2240450","latitude":"15.15000000","longitude":"30.45000000","name":"El Matara"},{"id":"2240457","latitude":"9.81666670","longitude":"28.75000000","name":"El Melemm"},{"id":"2240459","latitude":"14.26666670","longitude":"29.55000000","name":"El Mereikha"},{"id":"2240461","latitude":"13.43333330","longitude":"28.61666670","name":"El Mes"},{"id":"2240462","latitude":"12.20000000","longitude":"31.33333330","name":"El Messin"},{"id":"2240464","latitude":"11.03333330","longitude":"28.05000000","name":"El Miallug"},{"id":"2240469","latitude":"12.48333330","longitude":"30.03333330","name":"El Milh"},{"id":"2240476","latitude":"11.03333330","longitude":"27.73333330","name":"El Muglad"},{"id":"2240479","latitude":"13.08333330","longitude":"30.13333330","name":"El Mureikib"},{"id":"2240481","latitude":"13.73333330","longitude":"30.06666670","name":"El Murra"},{"id":"2240483","latitude":"13.25000000","longitude":"28.81666670","name":"El Musein"},{"id":"2240486","latitude":"14.26666670","longitude":"29.98333330","name":"El Oa`a"},{"id":"2240488","latitude":"12.05000000","longitude":"28.28333330","name":"El Odaiya"},{"id":"2240489","latitude":"12.45000000","longitude":"30.03333330","name":"El Oddaiya"},{"id":"2240493","latitude":"14.30000000","longitude":"29.53333330","name":"El Qafalat"},{"id":"2240498","latitude":"11.00000000","longitude":"31.70000000","name":"El Qardud"},{"id":"2240499","latitude":"13.70000000","longitude":"30.76666670","name":"El Qeizan"},{"id":"2240513","latitude":"14.65000000","longitude":"30.43333330","name":"El Qulei`a"},{"id":"2240533","latitude":"12.78333330","longitude":"30.95000000","name":"El Udaiyat"},{"id":"2240534","latitude":"12.66666670","longitude":"30.13333330","name":"El `Udeidat"},{"id":"2240536","latitude":"13.48333330","longitude":"30.30000000","name":"El `Ud"},{"id":"2240537","latitude":"11.78333330","longitude":"31.33333330","name":"El `Ufeina"},{"id":"2240541","latitude":"11.78333330","longitude":"28.03333330","name":"El `Umda"},{"id":"2240550","latitude":"11.96666670","longitude":"31.43333330","name":"El Uzeing"},{"id":"2240552","latitude":"11.96666670","longitude":"31.43333330","name":"El Uzeiriq"},{"id":"2240558","latitude":"15.01666670","longitude":"30.16666670","name":"El Wuz"},{"id":"2240559","latitude":"10.50000000","longitude":"30.31666670","name":"El Yoi"},{"id":"2240568","latitude":"12.70000000","longitude":"28.43333330","name":"En Nahud"},{"id":"2240572","latitude":"14.61666670","longitude":"29.13333330","name":"En Nebelat"},{"id":"2240574","latitude":"11.95000000","longitude":"28.40000000","name":"En Nisf"},{"id":"2240579","latitude":"12.61666670","longitude":"30.30000000","name":"En Nugei`a"},{"id":"2240581","latitude":"13.13333330","longitude":"29.83333330","name":"En Numeir"},{"id":"2240582","latitude":"12.61666670","longitude":"30.30000000","name":"En Nuqei`a"},{"id":"2240584","latitude":"11.96666670","longitude":"28.05000000","name":"En Nur"},{"id":"2240585","latitude":"11.83333330","longitude":"28.05000000","name":"En Nur Musa"},{"id":"2240594","latitude":"13.61666670","longitude":"27.60000000","name":"Ermil"},{"id":"2240595","latitude":"13.61666670","longitude":"27.60000000","name":"Ermil Post"},{"id":"2240597","latitude":"11.66666670","longitude":"30.40000000","name":"Er Ragaba"},{"id":"2240598","latitude":"12.71666670","longitude":"30.65000000","name":"Er Rahad"},{"id":"2240601","latitude":"11.66666670","longitude":"30.40000000","name":"Er Raqaba"},{"id":"2240610","latitude":"13.26666670","longitude":"29.58333330","name":"Er Riheiwa"},{"id":"2240615","latitude":"13.78333330","longitude":"29.93333330","name":"Er Rubshan"},{"id":"2240617","latitude":"13.80000000","longitude":"30.11666670","name":"Er Rudda"},{"id":"2240621","latitude":"14.61666670","longitude":"29.11666670","name":"Er Rukab"},{"id":"2240638","latitude":"13.60000000","longitude":"30.01666670","name":"Esh Shana"},{"id":"2240646","latitude":"14.53333330","longitude":"30.41666670","name":"Esh Shawwaf"},{"id":"2240657","latitude":"13.81666670","longitude":"29.73333330","name":"Esh Shigla"},{"id":"2240662","latitude":"11.51666670","longitude":"28.93333330","name":"Esh Shiyab"},{"id":"2240667","latitude":"13.60000000","longitude":"30.01666670","name":"Esh Shuna"},{"id":"2240671","latitude":"13.61666670","longitude":"29.98333330","name":"Es Sa`ata"},{"id":"2240674","latitude":"15.51666670","longitude":"30.11666670","name":"Es Safiya"},{"id":"2240675","latitude":"14.01666670","longitude":"30.60000000","name":"Es Saiyal"},{"id":"2240678","latitude":"12.58333330","longitude":"30.35000000","name":"Es Salamat"},{"id":"2240681","latitude":"12.06666670","longitude":"27.76666670","name":"Es Samhat"},{"id":"2240686","latitude":"11.70000000","longitude":"31.40000000","name":"Es Sarrara"},{"id":"2240706","latitude":"12.58333330","longitude":"29.83333330","name":"Es Suleik"},{"id":"2240707","latitude":"11.61666670","longitude":"29.13333330","name":"Es Sultan"},{"id":"2240709","latitude":"12.73333330","longitude":"30.55000000","name":"Es Sura"},{"id":"2240715","latitude":"13.20000000","longitude":"30.78333330","name":"Et Taiyara"},{"id":"2240716","latitude":"12.78333330","longitude":"31.21666670","name":"Et Taiyiba"},{"id":"2240724","latitude":"11.93333330","longitude":"31.75000000","name":"Et Terter"},{"id":"2240731","latitude":"12.65000000","longitude":"28.90000000","name":"Et Tom Halal"},{"id":"2240737","latitude":"12.71666670","longitude":"28.21666670","name":"Et Tuleih"},{"id":"2240739","latitude":"12.88333330","longitude":"30.16666670","name":"Et Tumeid"},{"id":"2240743","latitude":"13.56666670","longitude":"29.46666670","name":"Et Tuweifra"},{"id":"2240753","latitude":"13.95000000","longitude":"30.80000000","name":"Ez Zureiqa"},{"id":"2240756","latitude":"12.98333330","longitude":"28.66666670","name":"Faafaa"},{"id":"2240792","latitude":"14.46666670","longitude":"30.93333330","name":"Fadliya"},{"id":"2240793","latitude":"14.46666670","longitude":"30.93333330","name":"Fadliyah"},{"id":"2240800","latitude":"13.48333330","longitude":"31.28333330","name":"Fadwa"},{"id":"2240802","latitude":"12.98333330","longitude":"28.66666670","name":"Fa`fa`"},{"id":"2240809","latitude":"13.56666670","longitude":"28.93333330","name":"Fag al Qash"},{"id":"2240814","latitude":"11.96666670","longitude":"27.68333330","name":"Fag el Halla"},{"id":"2240815","latitude":"13.56666670","longitude":"28.93333330","name":"Fag el Qash"},{"id":"2240830","latitude":"11.73333330","longitude":"27.55000000","name":"Faiyuk"},{"id":"2240833","latitude":"11.96666670","longitude":"27.68333330","name":"Fajj al Hallah"},{"id":"2240842","latitude":"13.58333330","longitude":"31.45000000","name":"Fakheig"},{"id":"2240848","latitude":"12.10000000","longitude":"28.90000000","name":"Faki Hud"},{"id":"2240854","latitude":"13.13333330","longitude":"27.81666670","name":"Faki Uzayriq"},{"id":"2240855","latitude":"13.13333330","longitude":"27.81666670","name":"Faki Uzeiriq"},{"id":"2240874","latitude":"10.06666670","longitude":"30.75000000","name":"Fallata"},{"id":"2240899","latitude":"13.01666670","longitude":"30.65000000","name":"Fangoga"},{"id":"2240928","latitude":"12.53333330","longitude":"27.38333330","name":"Fanyer"},{"id":"2240933","latitude":"13.71666670","longitude":"30.66666670","name":"Faragab"},{"id":"2240940","latitude":"13.36666670","longitude":"30.28333330","name":"Faragullah"},{"id":"2240942","latitude":"13.71666670","longitude":"30.66666670","name":"Farajab"},{"id":"2240945","latitude":"13.36666670","longitude":"30.28333330","name":"Faraj Allah"},{"id":"2240959","latitude":"12.41666670","longitude":"30.75000000","name":"Farla"},{"id":"2240960","latitude":"13.51666670","longitude":"29.96666670","name":"Faroga"},{"id":"2240961","latitude":"13.51666670","longitude":"29.96666670","name":"Farroga"},{"id":"2240970","latitude":"14.33333330","longitude":"31.15000000","name":"Fassa"},{"id":"2241000","latitude":"11.55000000","longitude":"30.75000000","name":"Fayd at Tayr"},{"id":"2241002","latitude":"11.77833330","longitude":"30.06833330","name":"Fayu"},{"id":"2241007","latitude":"11.55000000","longitude":"30.75000000","name":"Feid et Tei'"},{"id":"2241008","latitude":"11.55000000","longitude":"30.75000000","name":"Feid et Teir"},{"id":"2241014","latitude":"13.50000000","longitude":"31.45000000","name":"Feraik"},{"id":"2241039","latitude":"12.96666670","longitude":"27.63333330","name":"Fofaya"},{"id":"2241040","latitude":"13.71666670","longitude":"28.03333330","name":"Foga"},{"id":"2241065","latitude":"13.50000000","longitude":"31.45000000","name":"Furayk"},{"id":"2241067","latitude":"13.48333330","longitude":"30.76666670","name":"Furei`a"},{"id":"2241076","latitude":"13.15000000","longitude":"31.76666670","name":"Fuwaylah"},{"id":"2241077","latitude":"13.15000000","longitude":"31.76666670","name":"Fuweila"},{"id":"2241081","latitude":"9.56666670","longitude":"28.53333330","name":"Fyok"},{"id":"2241100","latitude":"11.48333330","longitude":"27.46666670","name":"Gabr ad Dar"},{"id":"2241102","latitude":"11.48333330","longitude":"27.46666670","name":"Gabr ed Dar"},{"id":"2241103","latitude":"12.15000000","longitude":"30.26666670","name":"Gabrin"},{"id":"2241108","latitude":"12.86666670","longitude":"31.15000000","name":"Gadadim"},{"id":"2241115","latitude":"11.61666670","longitude":"29.10000000","name":"Gadida"},{"id":"2241116","latitude":"12.05000000","longitude":"28.48333330","name":"Gadid"},{"id":"2241121","latitude":"13.96666670","longitude":"30.98333330","name":"Gafala"},{"id":"2241123","latitude":"11.68333330","longitude":"28.31666670","name":"Gaghamni"},{"id":"2241124","latitude":"12.73333330","longitude":"31.25000000","name":"Gaia"},{"id":"2241125","latitude":"12.58333330","longitude":"30.15000000","name":"Gaibat"},{"id":"2241147","latitude":"13.60000000","longitude":"28.06666670","name":"Galusa"},{"id":"2241149","latitude":"12.50000000","longitude":"28.13333330","name":"Gamal"},{"id":"2241150","latitude":"13.40000000","longitude":"27.65000000","name":"Gamaniya"},{"id":"2241169","latitude":"11.23333330","longitude":"29.33333330","name":"Gangara"},{"id":"2241200","latitude":"11.01666670","longitude":"31.86666670","name":"Gawadalia"},{"id":"2241201","latitude":"13.10000000","longitude":"30.65000000","name":"Gawad"},{"id":"2241204","latitude":"12.73333330","longitude":"31.25000000","name":"Gaya"},{"id":"2241211","latitude":"13.60000000","longitude":"30.65000000","name":"Gedadim"},{"id":"2241214","latitude":"13.60000000","longitude":"30.65000000","name":"Geddadim"},{"id":"2241217","latitude":"10.98333330","longitude":"31.73333330","name":"Gedeid"},{"id":"2241219","latitude":"12.86666670","longitude":"31.15000000","name":"Gedeidim"},{"id":"2241224","latitude":"12.05000000","longitude":"28.48333330","name":"Gedid"},{"id":"2241226","latitude":"11.98333330","longitude":"31.48333330","name":"Gedihat"},{"id":"2241228","latitude":"10.83333330","longitude":"31.13333330","name":"Gedir"},{"id":"2241231","latitude":"14.41666670","longitude":"30.46666670","name":"Gehaniya"},{"id":"2241234","latitude":"13.16666670","longitude":"30.51666670","name":"Geifil"},{"id":"2241240","latitude":"13.20000000","longitude":"31.38333330","name":"Geili"},{"id":"2241243","latitude":"13.56666670","longitude":"32.00000000","name":"Gelaga"},{"id":"2241248","latitude":"13.16666670","longitude":"30.11666670","name":"Gellabiya"},{"id":"2241267","latitude":"14.25000000","longitude":"29.46666670","name":"Genneto"},{"id":"2241270","latitude":"13.30000000","longitude":"29.41666670","name":"Gerad"},{"id":"2241275","latitude":"10.81666670","longitude":"31.76666670","name":"Gereid"},{"id":"2241280","latitude":"14.03333330","longitude":"30.46666670","name":"Gereigih"},{"id":"2241297","latitude":"13.36666670","longitude":"31.36666670","name":"Ghabasab"},{"id":"2241303","latitude":"12.15000000","longitude":"27.35000000","name":"Ghabeish"},{"id":"2241304","latitude":"12.21666670","longitude":"27.75000000","name":"Ghabish"},{"id":"2241305","latitude":"12.90000000","longitude":"31.45000000","name":"Ghabsha"},{"id":"2241306","latitude":"14.35000000","longitude":"30.95000000","name":"Ghabshan"},{"id":"2241307","latitude":"13.43333330","longitude":"30.26666670","name":"Ghabush"},{"id":"2241315","latitude":"11.51666670","longitude":"28.98333330","name":"Gharama"},{"id":"2241323","latitude":"10.78333330","longitude":"27.55000000","name":"Gharig"},{"id":"2241336","latitude":"13.36666670","longitude":"31.36666670","name":"Ghubayshab"},{"id":"2241340","latitude":"12.15000000","longitude":"27.35000000","name":"Ghubaysh"},{"id":"2241341","latitude":"13.36666670","longitude":"31.36666670","name":"Ghubeishab"},{"id":"2241345","latitude":"12.15000000","longitude":"27.35000000","name":"Ghubeish"},{"id":"2241346","latitude":"12.15000000","longitude":"27.35000000","name":"Ghubesh"},{"id":"2241376","latitude":"13.98333330","longitude":"31.03333330","name":"Gimbir"},{"id":"2241381","latitude":"13.58333330","longitude":"30.31666670","name":"Gineina"},{"id":"2241389","latitude":"10.91666670","longitude":"31.11666670","name":"Girada"},{"id":"2241391","latitude":"11.05000000","longitude":"30.60000000","name":"Girban"},{"id":"2241430","latitude":"10.36666670","longitude":"30.73333330","name":"Gohur"},{"id":"2241450","latitude":"9.55000000","longitude":"28.46666670","name":"Gong Limok"},{"id":"2241474","latitude":"11.66666670","longitude":"31.03333330","name":"Goz Kabara"},{"id":"2241490","latitude":"14.38333330","longitude":"28.98333330","name":"Gufala"},{"id":"2241492","latitude":"9.85000000","longitude":"30.76666670","name":"Gughan"},{"id":"2241504","latitude":"9.68333330","longitude":"28.55000000","name":"Gulud"},{"id":"2241509","latitude":"9.51666670","longitude":"28.51666670","name":"Gumamo"},{"id":"2241511","latitude":"12.08333330","longitude":"31.25000000","name":"Gumberaia"},{"id":"2241513","latitude":"13.46666670","longitude":"30.35000000","name":"Gumbil"},{"id":"2241539","latitude":"11.73333330","longitude":"31.63333330","name":"Gureis"},{"id":"2241540","latitude":"12.41666670","longitude":"30.60000000","name":"Gurgur"},{"id":"2241581","latitude":"12.83333330","longitude":"30.81666670","name":"Habeil"},{"id":"2241582","latitude":"13.88333330","longitude":"30.60000000","name":"Habeina"},{"id":"2241588","latitude":"13.26666670","longitude":"31.76666670","name":"Habiko"},{"id":"2241590","latitude":"11.94138890","longitude":"30.03583330","name":"Habila"},{"id":"2241592","latitude":"13.21666670","longitude":"31.83333330","name":"Habilah"},{"id":"2241593","latitude":"12.83333330","longitude":"30.81666670","name":"Habil"},{"id":"2241594","latitude":"10.96666670","longitude":"31.21666670","name":"Habis al Humar"},{"id":"2241595","latitude":"10.96666670","longitude":"31.21666670","name":"Habis el Humar"},{"id":"2241596","latitude":"13.43333330","longitude":"31.28333330","name":"Hablul"},{"id":"2241597","latitude":"14.31666670","longitude":"31.08333330","name":"Habos"},{"id":"2241602","latitude":"13.90000000","longitude":"30.38333330","name":"Hadeid esh Sherifi"},{"id":"2241603","latitude":"13.90000000","longitude":"30.38333330","name":"Hadeid"},{"id":"2241604","latitude":"13.83333330","longitude":"30.36666670","name":"Hadeid Wad Shaib"},{"id":"2241619","latitude":"11.93333330","longitude":"30.65000000","name":"Hagar"},{"id":"2241662","latitude":"13.98333330","longitude":"30.73333330","name":"Hajlij"},{"id":"2241667","latitude":"14.43333330","longitude":"30.65000000","name":"Halasa"},{"id":"2241680","latitude":"13.18333330","longitude":"31.13333330","name":"Halgarma"},{"id":"2241683","latitude":"13.18333330","longitude":"31.13333330","name":"Haljarma"},{"id":"2241687","latitude":"11.20000000","longitude":"29.38333330","name":"Halufaya"},{"id":"2241698","latitude":"14.58333330","longitude":"27.96666670","name":"Hamarar Ash Shekh"},{"id":"2241709","latitude":"12.81666670","longitude":"28.05000000","name":"Hamdan"},{"id":"2241721","latitude":"12.81666670","longitude":"28.76666670","name":"Hamir"},{"id":"2241724","latitude":"12.68333330","longitude":"29.98333330","name":"Hammadi"},{"id":"2241725","latitude":"13.20000000","longitude":"30.41666670","name":"Hammadiya"},{"id":"2241726","latitude":"13.78333330","longitude":"30.43333330","name":"Hammad Shuraym ad Dawm"},{"id":"2241731","latitude":"10.90361110","longitude":"29.90333330","name":"Hamra'"},{"id":"2241732","latitude":"12.41666670","longitude":"30.05000000","name":"Hamra"},{"id":"2241733","latitude":"14.58333330","longitude":"27.96666670","name":"Hamrat ash Shaykh"},{"id":"2241734","latitude":"14.58333330","longitude":"27.96666670","name":"Hamrat esh Sheikh"},{"id":"2241735","latitude":"14.58333330","longitude":"27.96666670","name":"Hamr esh Sheikho"},{"id":"2241737","latitude":"13.40000000","longitude":"27.90000000","name":"Hanatir"},{"id":"2241744","latitude":"14.45000000","longitude":"30.58333330","name":"Hara'iz"},{"id":"2241746","latitude":"11.61666670","longitude":"31.66666670","name":"Haran"},{"id":"2241756","latitude":"13.25000000","longitude":"31.63333330","name":"Hariq"},{"id":"2241764","latitude":"13.65000000","longitude":"29.56666670","name":"Hasab al Karim"},{"id":"2241765","latitude":"13.71666670","longitude":"31.38333330","name":"Hasab Allah"},{"id":"2241767","latitude":"13.65000000","longitude":"29.56666670","name":"Hasab el Karim"},{"id":"2241769","latitude":"13.71666670","longitude":"31.38333330","name":"Hasabullah"},{"id":"2241777","latitude":"13.30000000","longitude":"31.63333330","name":"Hashaba"},{"id":"2241780","latitude":"13.76666670","longitude":"31.45000000","name":"Hashabah"},{"id":"2241781","latitude":"13.30000000","longitude":"31.63333330","name":"Hashaba Muhammed Ahmed"},{"id":"2241782","latitude":"13.30000000","longitude":"31.63333330","name":"Hashabat Muhammad Ahmad"},{"id":"2241792","latitude":"14.23333330","longitude":"29.33333330","name":"Haskanit"},{"id":"2241795","latitude":"13.55000000","longitude":"30.85000000","name":"Hauli"},{"id":"2241796","latitude":"11.71666670","longitude":"31.26666670","name":"Hauta"},{"id":"2241812","latitude":"11.71666670","longitude":"31.26666670","name":"Hawtah"},{"id":"2241816","latitude":"11.21861110","longitude":"30.51722220","name":"Hayban"},{"id":"2241824","latitude":"11.21861110","longitude":"30.51722220","name":"Heban"},{"id":"2241828","latitude":"13.53333330","longitude":"30.85000000","name":"Hegam"},{"id":"2241830","latitude":"13.98333330","longitude":"30.73333330","name":"Hegleg"},{"id":"2241835","latitude":"13.98333330","longitude":"30.73333330","name":"Heglig"},{"id":"2241837","latitude":"11.21861110","longitude":"30.51722220","name":"Heiban"},{"id":"2241853","latitude":"11.93333330","longitude":"30.65000000","name":"Higar"},{"id":"2241854","latitude":"14.61666670","longitude":"30.40000000","name":"Higeina"},{"id":"2241859","latitude":"14.26666670","longitude":"29.35000000","name":"Hileila"},{"id":"2241992","latitude":"11.57388890","longitude":"29.86388890","name":"Hillat Yatu"},{"id":"2242008","latitude":"12.91666670","longitude":"27.58333330","name":"Holi"},{"id":"2242024","latitude":"13.90000000","longitude":"30.38333330","name":"Hudayd ash Sharifi"},{"id":"2242025","latitude":"13.83333330","longitude":"30.36666670","name":"Hudayd Wad Shayb"},{"id":"2242031","latitude":"11.98333330","longitude":"27.86666670","name":"Hugeilig"},{"id":"2242032","latitude":"10.95000000","longitude":"31.15000000","name":"Hugeir al Farag"},{"id":"2242038","latitude":"12.90000000","longitude":"28.03333330","name":"Hugeir"},{"id":"2242041","latitude":"10.95000000","longitude":"31.15000000","name":"Hugier el Farag"},{"id":"2242042","latitude":"11.98333330","longitude":"27.86666670","name":"Hujaylij"},{"id":"2242046","latitude":"12.90000000","longitude":"28.03333330","name":"Hujayr"},{"id":"2242053","latitude":"14.26666670","longitude":"29.35000000","name":"Hulaylah"},{"id":"2242058","latitude":"13.38333330","longitude":"29.60000000","name":"Humaiyir Kurkab"},{"id":"2242062","latitude":"11.83333330","longitude":"27.63333330","name":"Humaydan"},{"id":"2242064","latitude":"12.85000000","longitude":"27.73333330","name":"Humayr ar Ru'us"},{"id":"2242065","latitude":"12.48333330","longitude":"27.46666670","name":"Humayr Dirrah"},{"id":"2242067","latitude":"12.06666670","longitude":"27.91666670","name":"Humayr"},{"id":"2242068","latitude":"13.11666670","longitude":"28.88333330","name":"Humayr Jabir"},{"id":"2242069","latitude":"12.36666670","longitude":"27.30000000","name":"Humayr Koko"},{"id":"2242070","latitude":"12.90000000","longitude":"27.30000000","name":"Humayr Sibil"},{"id":"2242072","latitude":"13.38333330","longitude":"29.60000000","name":"Humayyir Kurkab"},{"id":"2242073","latitude":"11.83333330","longitude":"27.63333330","name":"Humeidan"},{"id":"2242076","latitude":"12.48333330","longitude":"27.46666670","name":"Humeir Dirra"},{"id":"2242077","latitude":"12.85000000","longitude":"27.73333330","name":"Humeir er Rus"},{"id":"2242078","latitude":"13.11666670","longitude":"28.88333330","name":"Humeir Gabir"},{"id":"2242080","latitude":"12.06666670","longitude":"27.91666670","name":"Humeir"},{"id":"2242081","latitude":"12.36666670","longitude":"27.30000000","name":"Humeir Koko"},{"id":"2242082","latitude":"12.90000000","longitude":"27.30000000","name":"Humeir Sibil"},{"id":"2242083","latitude":"13.11666670","longitude":"28.88333330","name":"Humer Jabir"},{"id":"2242112","latitude":"12.18333330","longitude":"30.66666670","name":"Ibrahim al Futah"},{"id":"2242113","latitude":"12.18333330","longitude":"30.66666670","name":"Ibrahim el Futa"},{"id":"2242115","latitude":"13.88333330","longitude":"27.60000000","name":"Ibrahim Wad `Arabi"},{"id":"2242123","latitude":"10.88333330","longitude":"31.65000000","name":"`Idd ad Dam"},{"id":"2242128","latitude":"10.80000000","longitude":"32.13333330","name":"`Idd al Halluf"},{"id":"2242132","latitude":"14.13333330","longitude":"31.41666670","name":"`Idd an Nabaq"},{"id":"2242133","latitude":"11.20000000","longitude":"31.53333330","name":"`Idd an Nakhi"},{"id":"2242135","latitude":"10.88333330","longitude":"31.65000000","name":"`Idd ed Dam"},{"id":"2242139","latitude":"10.80000000","longitude":"32.13333330","name":"`Idd el Halluf"},{"id":"2242143","latitude":"14.13333330","longitude":"31.41666670","name":"`Idd en Nabaq"},{"id":"2242146","latitude":"11.20000000","longitude":"31.53333330","name":"Id en Nakhi"},{"id":"2242149","latitude":"12.50000000","longitude":"28.70000000","name":"Idris Abu Umm Duluk"},{"id":"2242167","latitude":"12.21666670","longitude":"31.06666670","name":"Indasseina"},{"id":"2242168","latitude":"13.30000000","longitude":"31.83333330","name":"Inderaba"},{"id":"2242176","latitude":"11.98333330","longitude":"27.53333330","name":"Ingliterra"},{"id":"2242178","latitude":"11.98333330","longitude":"27.53333330","name":"Injiltarra"},{"id":"2242183","latitude":"13.61666670","longitude":"27.60000000","name":"Irmil"},{"id":"2242186","latitude":"13.16666670","longitude":"31.48333330","name":"`Isa Hamadayn"},{"id":"2242187","latitude":"13.16666670","longitude":"31.48333330","name":"`Isa Hamadein"},{"id":"2242190","latitude":"10.60000000","longitude":"31.55000000","name":"Iskut"},{"id":"2242203","latitude":"11.53333330","longitude":"27.36666670","name":"`Iyal ad Da`ash"},{"id":"2242206","latitude":"11.93333330","longitude":"28.00000000","name":"`Iyal ash Shayn"},{"id":"2242207","latitude":"13.41666670","longitude":"28.68333330","name":"`Iyal Bakhit"},{"id":"2242208","latitude":"13.18333330","longitude":"28.48333330","name":"`Iyal Basharo"},{"id":"2242209","latitude":"11.53333330","longitude":"27.36666670","name":"`Iyal ed Da`ash"},{"id":"2242211","latitude":"11.93333330","longitude":"28.00000000","name":"`Iyal esh Shein"},{"id":"2242227","latitude":"14.20000000","longitude":"30.88333330","name":"Jabra"},{"id":"2242229","latitude":"12.15000000","longitude":"30.26666670","name":"Jabrin"},{"id":"2242235","latitude":"11.61666670","longitude":"29.10000000","name":"Jadidah"},{"id":"2242238","latitude":"12.05000000","longitude":"28.48333330","name":"Jadid"},{"id":"2242241","latitude":"14.41666670","longitude":"30.46666670","name":"Jahaniyah"},{"id":"2242254","latitude":"13.16666670","longitude":"30.11666670","name":"Jallabiyah"},{"id":"2242271","latitude":"13.20000000","longitude":"31.38333330","name":"Jayli"},{"id":"2242300","latitude":"11.05000000","longitude":"30.60000000","name":"Jirban"},{"id":"2242305","latitude":"12.13500000","longitude":"29.05555560","name":"Joghba"},{"id":"2242310","latitude":"10.98333330","longitude":"30.85000000","name":"Jokba"},{"id":"2242313","latitude":"12.96666670","longitude":"30.16666670","name":"Joku"},{"id":"2242329","latitude":"10.91666670","longitude":"30.96666670","name":"Jubaylat"},{"id":"2242330","latitude":"10.20000000","longitude":"30.76666670","name":"Jubayl"},{"id":"2242332","latitude":"10.91666670","longitude":"30.96666670","name":"Jubeilat"},{"id":"2242333","latitude":"10.20000000","longitude":"30.76666670","name":"Jubeil"},{"id":"2242335","latitude":"10.98333330","longitude":"31.73333330","name":"Judayd"},{"id":"2242343","latitude":"12.13333330","longitude":"31.21666670","name":"Julia"},{"id":"2242345","latitude":"12.13333330","longitude":"31.21666670","name":"Juluia"},{"id":"2242358","latitude":"13.58333330","longitude":"30.31666670","name":"Junaynah"},{"id":"2242360","latitude":"13.16666670","longitude":"27.66666670","name":"Junga Jura"},{"id":"2242385","latitude":"11.91666670","longitude":"31.61666670","name":"Kabai"},{"id":"2242386","latitude":"13.11666670","longitude":"30.16666670","name":"Kaba"},{"id":"2242391","latitude":"11.66666670","longitude":"31.03333330","name":"Kabara"},{"id":"2242393","latitude":"10.96666670","longitude":"29.30000000","name":"Kabbah"},{"id":"2242394","latitude":"10.96666670","longitude":"29.30000000","name":"Kabba"},{"id":"2242408","latitude":"10.23333330","longitude":"30.75000000","name":"Kabongo"},{"id":"2242414","latitude":"13.26666670","longitude":"31.45000000","name":"Kabur"},{"id":"2242415","latitude":"13.35000000","longitude":"31.15000000","name":"Kabushah"},{"id":"2242416","latitude":"13.35000000","longitude":"31.15000000","name":"Kabusha"},{"id":"2242419","latitude":"11.73472220","longitude":"31.24083330","name":"Kabus"},{"id":"2242422","latitude":"11.13333330","longitude":"30.53333330","name":"Kachama"},{"id":"2242425","latitude":"13.06666670","longitude":"30.81666670","name":"Kadadah"},{"id":"2242426","latitude":"13.06666670","longitude":"30.81666670","name":"Kadada"},{"id":"2242437","latitude":"11.06666670","longitude":"29.51666670","name":"Kadodo"},{"id":"2242453","latitude":"14.40000000","longitude":"30.41666670","name":"Kagmar"},{"id":"2242475","latitude":"14.40000000","longitude":"30.41666670","name":"Kajmar"},{"id":"2242482","latitude":"14.30000000","longitude":"29.38333330","name":"Kakeri"},{"id":"2242488","latitude":"10.93333330","longitude":"30.93333330","name":"Kalacha"},{"id":"2242495","latitude":"11.93333330","longitude":"27.58333330","name":"Kaleil"},{"id":"2242500","latitude":"10.96666670","longitude":"30.58333330","name":"Kalkadda"},{"id":"2242502","latitude":"11.31666670","longitude":"30.60000000","name":"Kallo Ghubsh"},{"id":"2242505","latitude":"10.90000000","longitude":"30.88333330","name":"Kaloqi"},{"id":"2242520","latitude":"12.05000000","longitude":"31.26666670","name":"Kamrogia"},{"id":"2242522","latitude":"12.35000000","longitude":"31.18333330","name":"Kamsura"},{"id":"2242547","latitude":"11.10000000","longitude":"30.65000000","name":"Kanyuro"},{"id":"2242548","latitude":"13.16666670","longitude":"30.46666670","name":"Kao"},{"id":"2242552","latitude":"9.45000000","longitude":"28.70000000","name":"Kapu-urnur"},{"id":"2242553","latitude":"11.01666670","longitude":"30.63333330","name":"Karadilla"},{"id":"2242567","latitude":"11.01666670","longitude":"30.63333330","name":"Kardilla"},{"id":"2242574","latitude":"13.36666670","longitude":"29.20000000","name":"Karenka"},{"id":"2242584","latitude":"11.97111110","longitude":"29.66833330","name":"Karkarava"},{"id":"2242585","latitude":"11.28333330","longitude":"29.91666670","name":"Karkaray"},{"id":"2242592","latitude":"12.30000000","longitude":"30.90000000","name":"Karling"},{"id":"2242593","latitude":"12.30000000","longitude":"30.90000000","name":"Karlinq"},{"id":"2242600","latitude":"12.05000000","longitude":"31.53333330","name":"Karnak"},{"id":"2242642","latitude":"11.75000000","longitude":"29.31666670","name":"Katla"},{"id":"2242643","latitude":"11.31666670","longitude":"30.50000000","name":"Kato"},{"id":"2242645","latitude":"11.10000000","longitude":"30.51666670","name":"Kauda"},{"id":"2242647","latitude":"10.61666670","longitude":"31.50000000","name":"Kau"},{"id":"2242653","latitude":"11.10000000","longitude":"30.51666670","name":"Kawdah"},{"id":"2242654","latitude":"11.10000000","longitude":"30.51666670","name":"Kawda"},{"id":"2242655","latitude":"13.85000000","longitude":"31.01666670","name":"Kaweimat"},{"id":"2242660","latitude":"11.93333330","longitude":"31.68333330","name":"Kaylan"},{"id":"2242666","latitude":"12.78333330","longitude":"30.15000000","name":"Kazgeil"},{"id":"2242667","latitude":"12.78333330","longitude":"30.15000000","name":"Kazqeil"},{"id":"2242672","latitude":"11.60000000","longitude":"28.93333330","name":"Kedeida"},{"id":"2242676","latitude":"11.36666670","longitude":"29.75000000","name":"Kega Timero"},{"id":"2242681","latitude":"10.83250000","longitude":"29.36666670","name":"Keilak"},{"id":"2242682","latitude":"11.93333330","longitude":"31.68333330","name":"Keilan"},{"id":"2242689","latitude":"11.15000000","longitude":"27.71666670","name":"Kelabna"},{"id":"2242705","latitude":"12.38333330","longitude":"29.08333330","name":"Kenana"},{"id":"2242710","latitude":"12.90000000","longitude":"31.65000000","name":"Kenisal"},{"id":"2242729","latitude":"13.50000000","longitude":"31.40000000","name":"Kerkow"},{"id":"2242733","latitude":"12.05000000","longitude":"31.53333330","name":"Kernak"},{"id":"2242735","latitude":"13.48333330","longitude":"31.43333330","name":"Kerow"},{"id":"2242769","latitude":"14.23333330","longitude":"29.45000000","name":"Kharif"},{"id":"2242771","latitude":"13.36666670","longitude":"30.31666670","name":"Khartah"},{"id":"2242773","latitude":"13.36666670","longitude":"30.31666670","name":"Kharta"},{"id":"2242781","latitude":"10.31666670","longitude":"30.63333330","name":"Khash Khashaia"},{"id":"2242784","latitude":"12.45000000","longitude":"28.03333330","name":"Khashum"},{"id":"2242795","latitude":"14.13333330","longitude":"28.20000000","name":"Khawr as Sant"},{"id":"2242798","latitude":"15.03333330","longitude":"30.36666670","name":"Khawr Gadein"},{"id":"2242799","latitude":"10.25000000","longitude":"30.76666670","name":"Khawr"},{"id":"2242800","latitude":"11.85000000","longitude":"31.18333330","name":"Khawr Koshi"},{"id":"2242801","latitude":"13.20000000","longitude":"30.30000000","name":"Khawr Teggat"},{"id":"2242817","latitude":"13.36666670","longitude":"30.31666670","name":"Kheir Wagid"},{"id":"2242821","latitude":"14.23333330","longitude":"29.45000000","name":"Kherif"},{"id":"2242843","latitude":"14.13333330","longitude":"28.20000000","name":"Khor es Sunt"},{"id":"2242844","latitude":"15.03333330","longitude":"30.36666670","name":"Khor Gadein"},{"id":"2242845","latitude":"10.25000000","longitude":"30.76666670","name":"Khor"},{"id":"2242846","latitude":"11.85000000","longitude":"31.18333330","name":"Khor Koshi"},{"id":"2242847","latitude":"13.20000000","longitude":"30.30000000","name":"Khor Taqqat"},{"id":"2242848","latitude":"13.20000000","longitude":"30.30000000","name":"Khor Teggat"},{"id":"2242858","latitude":"13.53333330","longitude":"30.41666670","name":"Khummi"},{"id":"2242861","latitude":"13.08333330","longitude":"29.23333330","name":"Khuwayy"},{"id":"2242862","latitude":"13.08333330","longitude":"29.23333330","name":"Khuwei `Ati"},{"id":"2242863","latitude":"13.08333330","longitude":"29.23333330","name":"Khuwei"},{"id":"2242867","latitude":"11.78333330","longitude":"29.33333330","name":"Kiddu"},{"id":"2242876","latitude":"13.71666670","longitude":"31.08333330","name":"Kilawati"},{"id":"2242877","latitude":"12.56666670","longitude":"27.81666670","name":"Kileigau"},{"id":"2242886","latitude":"12.38333330","longitude":"30.66666670","name":"Kimla"},{"id":"2242890","latitude":"12.38333330","longitude":"29.08333330","name":"Kinanah"},{"id":"2242892","latitude":"13.15000000","longitude":"28.13333330","name":"Kinyeir"},{"id":"2242902","latitude":"11.63333330","longitude":"29.11666670","name":"Kirkir"},{"id":"2242911","latitude":"12.65000000","longitude":"31.28333330","name":"Kitir Fatass"},{"id":"2242912","latitude":"12.65000000","longitude":"31.28333330","name":"Kitir Fattis"},{"id":"2242913","latitude":"12.65000000","longitude":"31.28333330","name":"Kitir Fattiss"},{"id":"2242916","latitude":"11.46666670","longitude":"31.43333330","name":"Kitrah"},{"id":"2242920","latitude":"11.46666670","longitude":"31.43333330","name":"Kitra"},{"id":"2242926","latitude":"12.85000000","longitude":"31.10000000","name":"Koanamusa"},{"id":"2242944","latitude":"12.80000000","longitude":"31.15000000","name":"Kohl"},{"id":"2242951","latitude":"12.91666670","longitude":"28.10000000","name":"Kokada"},{"id":"2242952","latitude":"10.35000000","longitude":"30.65000000","name":"Kokai"},{"id":"2242954","latitude":"11.91666670","longitude":"30.41666670","name":"Kokaya"},{"id":"2242959","latitude":"11.03333330","longitude":"29.18333330","name":"Kokudu"},{"id":"2242965","latitude":"12.05000000","longitude":"30.26666670","name":"Koldegi"},{"id":"2242968","latitude":"13.13333330","longitude":"30.85000000","name":"Kol"},{"id":"2242969","latitude":"11.78333330","longitude":"30.95000000","name":"Kolobo"},{"id":"2242970","latitude":"10.86055560","longitude":"30.98111110","name":"Kologi"},{"id":"2243012","latitude":"13.08333330","longitude":"30.35000000","name":"Kordofan"},{"id":"2243036","latitude":"12.08333330","longitude":"30.30000000","name":"Kortala"},{"id":"2243063","latitude":"11.63333330","longitude":"29.55000000","name":"Kowara"},{"id":"2243065","latitude":"13.25000000","longitude":"30.63333330","name":"Kowil an Na`am"},{"id":"2243066","latitude":"13.25000000","longitude":"30.63333330","name":"Kowil en Na`am"},{"id":"2243074","latitude":"12.85000000","longitude":"31.10000000","name":"Ku` an Namusah"},{"id":"2243076","latitude":"11.03333330","longitude":"30.48333330","name":"Kuarday"},{"id":"2243077","latitude":"11.10000000","longitude":"30.50000000","name":"Kuartal"},{"id":"2243080","latitude":"12.76666670","longitude":"30.76666670","name":"Kubbaka"},{"id":"2243095","latitude":"11.60000000","longitude":"28.93333330","name":"Kudaydah"},{"id":"2243098","latitude":"11.83333330","longitude":"30.53333330","name":"Kudba"},{"id":"2243099","latitude":"11.83333330","longitude":"30.53333330","name":"Kudbir"},{"id":"2243106","latitude":"12.80000000","longitude":"31.15000000","name":"Kuhl"},{"id":"2243112","latitude":"11.61666670","longitude":"29.08333330","name":"Kujur"},{"id":"2243115","latitude":"12.56666670","longitude":"30.20000000","name":"Ku`"},{"id":"2243122","latitude":"13.30000000","longitude":"29.43333330","name":"Kul `Abd al `Al"},{"id":"2243123","latitude":"13.30000000","longitude":"29.43333330","name":"Kul Abd el Ali"},{"id":"2243124","latitude":"13.30000000","longitude":"29.43333330","name":"Kul `Abd el `Al"},{"id":"2243126","latitude":"11.93333330","longitude":"27.58333330","name":"Kulayl"},{"id":"2243131","latitude":"11.60000000","longitude":"29.71666670","name":"Kuli"},{"id":"2243132","latitude":"13.30000000","longitude":"29.43333330","name":"Kul"},{"id":"2243138","latitude":"11.08333330","longitude":"30.48333330","name":"Kulonong"},{"id":"2243139","latitude":"11.00000000","longitude":"28.66666670","name":"Kulshabi"},{"id":"2243148","latitude":"12.05000000","longitude":"30.26666670","name":"Kumbar"},{"id":"2243159","latitude":"12.85000000","longitude":"31.10000000","name":"Ku `Namusa"},{"id":"2243171","latitude":"13.08333330","longitude":"30.35000000","name":"Kurdufan"},{"id":"2243217","latitude":"12.16666670","longitude":"31.33333330","name":"Kuturi"},{"id":"2243218","latitude":"11.63333330","longitude":"29.55000000","name":"Kuwarah"},{"id":"2243219","latitude":"13.85000000","longitude":"31.01666670","name":"Kuwaymat"},{"id":"2243226","latitude":"10.95000000","longitude":"30.93333330","name":"Kwaga"},{"id":"2243285","latitude":"10.23333330","longitude":"30.75000000","name":"Lafofa"},{"id":"2243289","latitude":"12.31666670","longitude":"30.25000000","name":"Laiyuna"},{"id":"2243346","latitude":"11.90000000","longitude":"31.20000000","name":"Lau Lau"},{"id":"2243354","latitude":"11.58333330","longitude":"28.93333330","name":"Layuna"},{"id":"2243358","latitude":"14.00000000","longitude":"30.16666670","name":"Leban"},{"id":"2243414","latitude":"11.10000000","longitude":"30.51666670","name":"Limma"},{"id":"2243420","latitude":"12.46666670","longitude":"27.30000000","name":"Lingu"},{"id":"2243453","latitude":"13.25000000","longitude":"30.36666670","name":"Loeib"},{"id":"2243482","latitude":"10.16666670","longitude":"30.75000000","name":"Lokoia"},{"id":"2243484","latitude":"10.16666670","longitude":"30.75000000","name":"Lokola"},{"id":"2243519","latitude":"10.18333330","longitude":"30.80000000","name":"Lono"},{"id":"2243562","latitude":"11.05000000","longitude":"29.48333330","name":"Luba"},{"id":"2243565","latitude":"12.36666670","longitude":"31.10000000","name":"Luban"},{"id":"2243585","latitude":"9.70000000","longitude":"28.43333330","name":"Lukji"},{"id":"2243602","latitude":"11.71666670","longitude":"30.45000000","name":"Lunga"},{"id":"2243609","latitude":"11.30000000","longitude":"28.06666670","name":"Luwaybid"},{"id":"2243610","latitude":"13.25000000","longitude":"30.36666670","name":"Luwayb"},{"id":"2243611","latitude":"11.30000000","longitude":"28.06666670","name":"Luweibid"},{"id":"2243614","latitude":"11.58333330","longitude":"28.93333330","name":"Luyunah"},{"id":"2243620","latitude":"11.93333330","longitude":"30.65000000","name":"Ma`ad al Hijar"},{"id":"2243622","latitude":"11.93333330","longitude":"30.65000000","name":"Ma`ad el Higar"},{"id":"2243623","latitude":"14.05000000","longitude":"30.43333330","name":"Maafa"},{"id":"2243627","latitude":"12.96666670","longitude":"27.81666670","name":"Ma`arka"},{"id":"2243630","latitude":"9.56666670","longitude":"28.56666670","name":"Mabeig"},{"id":"2243635","latitude":"12.28333330","longitude":"31.00000000","name":"Mabsut"},{"id":"2243637","latitude":"9.48333330","longitude":"28.65000000","name":"Mabuk"},{"id":"2243643","latitude":"13.31666670","longitude":"30.61666670","name":"Madasis"},{"id":"2243663","latitude":"13.11666670","longitude":"30.55000000","name":"Mafri"},{"id":"2243667","latitude":"13.96666670","longitude":"30.98333330","name":"Maganin"},{"id":"2243674","latitude":"10.96666670","longitude":"31.61666670","name":"Maghani"},{"id":"2243678","latitude":"12.15000000","longitude":"30.75000000","name":"Magolin"},{"id":"2243679","latitude":"11.68333330","longitude":"27.48333330","name":"Magrur"},{"id":"2243696","latitude":"13.35000000","longitude":"29.23333330","name":"Mahbub"},{"id":"2243697","latitude":"13.35000000","longitude":"29.23333330","name":"Mahbut"},{"id":"2243718","latitude":"11.68333330","longitude":"27.48333330","name":"Majrur"},{"id":"2243753","latitude":"12.80000000","longitude":"31.31666670","name":"Malaga"},{"id":"2243757","latitude":"13.21666670","longitude":"30.30000000","name":"Malakiyah"},{"id":"2243760","latitude":"13.21666670","longitude":"30.30000000","name":"Malakiya"},{"id":"2243762","latitude":"11.50000000","longitude":"31.18333330","name":"Malamm al Kar"},{"id":"2243797","latitude":"13.16666670","longitude":"30.73333330","name":"Maltut"},{"id":"2243813","latitude":"11.91666670","longitude":"31.75000000","name":"Managir"},{"id":"2243823","latitude":"11.91666670","longitude":"31.75000000","name":"Manaqir"},{"id":"2243835","latitude":"11.26666670","longitude":"30.48333330","name":"Mandur"},{"id":"2243892","latitude":"12.96666670","longitude":"27.81666670","name":"Ma`rakah"},{"id":"2243894","latitude":"12.98333330","longitude":"30.83333330","name":"Marakha"},{"id":"2243904","latitude":"12.25000000","longitude":"28.85000000","name":"Marbutah"},{"id":"2243905","latitude":"12.25000000","longitude":"28.85000000","name":"Marbuta"},{"id":"2243926","latitude":"12.91666670","longitude":"28.91666670","name":"Markib"},{"id":"2243927","latitude":"14.55000000","longitude":"30.78333330","name":"Markukah"},{"id":"2243928","latitude":"14.55000000","longitude":"30.78333330","name":"Markuka"},{"id":"2243963","latitude":"11.96666670","longitude":"31.73333330","name":"Masheifat"},{"id":"2243965","latitude":"12.41666670","longitude":"29.96666670","name":"Mashishah"},{"id":"2243974","latitude":"10.98333330","longitude":"29.46666670","name":"Massa"},{"id":"2244003","latitude":"9.51666670","longitude":"28.58333330","name":"Mayak Adhulik"},{"id":"2244007","latitude":"11.55833330","longitude":"29.61666670","name":"Mayda"},{"id":"2244025","latitude":"13.15000000","longitude":"31.48333330","name":"Mealla"},{"id":"2244030","latitude":"13.31666670","longitude":"30.61666670","name":"Medesis"},{"id":"2244045","latitude":"14.55000000","longitude":"30.75000000","name":"Meikhaha"},{"id":"2244064","latitude":"11.50000000","longitude":"31.18333330","name":"Melemm el Kar"},{"id":"2244076","latitude":"13.03333330","longitude":"31.03333330","name":"Menfor"},{"id":"2244106","latitude":"12.41666670","longitude":"29.96666670","name":"Meshisha"},{"id":"2244140","latitude":"12.48333330","longitude":"30.03333330","name":"Milh"},{"id":"2244150","latitude":"12.01666670","longitude":"31.46666670","name":"Minbanb"},{"id":"2244165","latitude":"11.06638890","longitude":"29.58250000","name":"Miri Bara"},{"id":"2244166","latitude":"11.06638890","longitude":"29.58250000","name":"Miri Barra"},{"id":"2244167","latitude":"11.01666670","longitude":"29.50000000","name":"Miri Guwa"},{"id":"2244190","latitude":"11.50000000","longitude":"31.15000000","name":"Mi`wan"},{"id":"2244207","latitude":"10.91666670","longitude":"30.98333330","name":"Mogolil"},{"id":"2244222","latitude":"9.46666670","longitude":"28.56666670","name":"Mokwei"},{"id":"2244273","latitude":"12.73333330","longitude":"29.98333330","name":"Muaddir"},{"id":"2244285","latitude":"14.30000000","longitude":"30.10000000","name":"Mugelledat"},{"id":"2244286","latitude":"13.65000000","longitude":"30.40000000","name":"Mugheisiba"},{"id":"2244291","latitude":"11.03333330","longitude":"27.73333330","name":"Muglad"},{"id":"2244300","latitude":"11.91666670","longitude":"28.38333330","name":"Muhammad `Ali"},{"id":"2244303","latitude":"13.28333330","longitude":"28.53333330","name":"Muhammadayn"},{"id":"2244305","latitude":"13.28333330","longitude":"28.53333330","name":"Muhammadein"},{"id":"2244318","latitude":"13.30000000","longitude":"31.63333330","name":"Muhammed Ahmed"},{"id":"2244329","latitude":"13.16666670","longitude":"30.98333330","name":"Mukhafaz"},{"id":"2244330","latitude":"13.96666670","longitude":"27.81666670","name":"Mukhaizana"},{"id":"2244332","latitude":"13.96666670","longitude":"27.81666670","name":"Mukhayzinah"},{"id":"2244337","latitude":"13.01666670","longitude":"30.23333330","name":"Mulbas"},{"id":"2244353","latitude":"14.38333330","longitude":"30.65000000","name":"Mungara"},{"id":"2244367","latitude":"10.80000000","longitude":"27.53333330","name":"Muqaddimah"},{"id":"2244368","latitude":"14.30000000","longitude":"30.10000000","name":"Muqalladat"},{"id":"2244370","latitude":"10.80000000","longitude":"27.53333330","name":"Muqoddima"},{"id":"2244380","latitude":"13.08333330","longitude":"30.13333330","name":"Mureikib"},{"id":"2244401","latitude":"14.43333330","longitude":"30.66666670","name":"Musa`ad"},{"id":"2244404","latitude":"14.43333330","longitude":"30.66666670","name":"Mus`ad"},{"id":"2244411","latitude":"13.56666670","longitude":"30.10000000","name":"Musa"},{"id":"2244413","latitude":"11.96666670","longitude":"31.73333330","name":"Mushayfat"},{"id":"2244421","latitude":"13.08333330","longitude":"28.26666670","name":"Mustafa"},{"id":"2244429","latitude":"11.36666670","longitude":"31.01666670","name":"Muwaylih"},{"id":"2244430","latitude":"11.36666670","longitude":"31.01666670","name":"Muweilih"},{"id":"2244431","latitude":"14.53333330","longitude":"30.48333330","name":"Muzawaq"},{"id":"2244435","latitude":"9.51666670","longitude":"28.68333330","name":"Myordol"},{"id":"2244436","latitude":"9.70000000","longitude":"28.45000000","name":"Na`am"},{"id":"2244437","latitude":"13.21666670","longitude":"29.03333330","name":"Nabalat al Hajanah"},{"id":"2244438","latitude":"14.05000000","longitude":"31.13333330","name":"Nabalat"},{"id":"2244439","latitude":"12.61666670","longitude":"30.38333330","name":"Nabaliyah"},{"id":"2244449","latitude":"12.71666670","longitude":"30.80000000","name":"Nagak"},{"id":"2244456","latitude":"12.15000000","longitude":"28.36666670","name":"Nagm ed Din"},{"id":"2244461","latitude":"12.70000000","longitude":"28.43333330","name":"Nahad"},{"id":"2244467","latitude":"9.61666670","longitude":"28.45000000","name":"Nainaya"},{"id":"2244470","latitude":"12.15000000","longitude":"28.36666670","name":"Najm ad Din"},{"id":"2244478","latitude":"13.41666670","longitude":"30.76666670","name":"Namli"},{"id":"2244505","latitude":"13.08333330","longitude":"29.40000000","name":"Nawaiat Madani"},{"id":"2244506","latitude":"13.08333330","longitude":"29.40000000","name":"Nawaiat Medani"},{"id":"2244518","latitude":"12.61666670","longitude":"30.38333330","name":"Nebaliya"},{"id":"2244519","latitude":"13.21666670","longitude":"29.03333330","name":"Nebelat el Hagana"},{"id":"2244520","latitude":"14.08333330","longitude":"28.81666670","name":"Nebelat"},{"id":"2244573","latitude":"13.23333330","longitude":"28.30000000","name":"Nialota"},{"id":"2244579","latitude":"10.63333330","longitude":"31.51666670","name":"Niaro"},{"id":"2244582","latitude":"13.21666670","longitude":"29.03333330","name":"Niblat al Hajjanah"},{"id":"2244593","latitude":"11.70000000","longitude":"31.16666670","name":"Nila Suleiman"},{"id":"2244594","latitude":"11.70000000","longitude":"31.16666670","name":"Nilat Sulayman"},{"id":"2244597","latitude":"14.35000000","longitude":"29.08333330","name":"Ni`ma Sirkatti"},{"id":"2244599","latitude":"14.06666670","longitude":"30.48333330","name":"Nimr"},{"id":"2244605","latitude":"11.95000000","longitude":"28.40000000","name":"Nisf"},{"id":"2244621","latitude":"14.05000000","longitude":"31.13333330","name":"Nubala"},{"id":"2244622","latitude":"13.96666670","longitude":"30.05000000","name":"Nubda"},{"id":"2244623","latitude":"13.96666670","longitude":"30.05000000","name":"Nubdhah"},{"id":"2244627","latitude":"12.61666670","longitude":"30.30000000","name":"Nugeia"},{"id":"2244639","latitude":"12.91666670","longitude":"30.08333330","name":"Nur al Qubbah"},{"id":"2244641","latitude":"14.56666670","longitude":"28.98333330","name":"Nurayn"},{"id":"2244644","latitude":"14.56666670","longitude":"28.98333330","name":"Nurein"},{"id":"2244647","latitude":"12.91666670","longitude":"30.08333330","name":"Nur el Qubba"},{"id":"2244653","latitude":"12.66666670","longitude":"30.61666670","name":"Nur"},{"id":"2244711","latitude":"9.58333330","longitude":"28.40000000","name":"Nyendachuar"},{"id":"2244743","latitude":"12.30000000","longitude":"31.23333330","name":"Nyukr"},{"id":"2244756","latitude":"12.45000000","longitude":"30.03333330","name":"Oddaiya"},{"id":"2244768","latitude":"12.03333330","longitude":"27.10000000","name":"Ogr"},{"id":"2244784","latitude":"11.78333330","longitude":"30.91666670","name":"Omdurman"},{"id":"2244788","latitude":"12.61666670","longitude":"30.15000000","name":"Omm Garun"},{"id":"2244791","latitude":"11.01666670","longitude":"30.63333330","name":"Omuri"},{"id":"2244798","latitude":"12.03333330","longitude":"27.10000000","name":"Oqr"},{"id":"2244802","latitude":"13.25000000","longitude":"30.18333330","name":"Oreil"},{"id":"2245001","latitude":"13.60000000","longitude":"30.65000000","name":"Qadadim"},{"id":"2245002","latitude":"11.53333330","longitude":"31.11666670","name":"Qadd al Habub"},{"id":"2245003","latitude":"11.53333330","longitude":"31.11666670","name":"Qadd el Habub"},{"id":"2245008","latitude":"13.96666670","longitude":"30.98333330","name":"Qafalah"},{"id":"2245010","latitude":"13.96666670","longitude":"30.98333330","name":"Qafla"},{"id":"2245017","latitude":"13.35000000","longitude":"30.96666670","name":"Qamar Dauwa"},{"id":"2245022","latitude":"11.56666670","longitude":"31.66666670","name":"Qandil"},{"id":"2245028","latitude":"11.98333330","longitude":"30.68333330","name":"Qardad el Kheima"},{"id":"2245029","latitude":"12.41666670","longitude":"30.53333330","name":"Qardud el Arraniya"},{"id":"2245030","latitude":"11.98333330","longitude":"30.68333330","name":"Qardud el Kheima"},{"id":"2245031","latitude":"12.30000000","longitude":"30.60000000","name":"Qardud el Luban"},{"id":"2245032","latitude":"12.41666670","longitude":"31.05000000","name":"Qardud Nyama"},{"id":"2245034","latitude":"10.28333330","longitude":"29.93333330","name":"Qardud"},{"id":"2245044","latitude":"11.50000000","longitude":"31.25000000","name":"Qawz al Kulum"},{"id":"2245045","latitude":"12.70000000","longitude":"30.36666670","name":"Qawz al Kursan"},{"id":"2245048","latitude":"13.18333330","longitude":"27.36666670","name":"Qawz ar Rayy"},{"id":"2245052","latitude":"12.65000000","longitude":"30.76666670","name":"Qawz Bisharah"},{"id":"2245056","latitude":"12.15000000","longitude":"31.61666670","name":"Qawz Gangar"},{"id":"2245072","latitude":"13.33333330","longitude":"29.73333330","name":"Qereiwid"},{"id":"2245076","latitude":"11.56666670","longitude":"31.66666670","name":"Qindil"},{"id":"2245079","latitude":"12.60000000","longitude":"28.35000000","name":"Qireiwid"},{"id":"2245086","latitude":"12.65000000","longitude":"30.76666670","name":"Qoz Bishara"},{"id":"2245091","latitude":"11.50000000","longitude":"31.25000000","name":"Qoz el Kulum"},{"id":"2245092","latitude":"12.70000000","longitude":"30.36666670","name":"Qoz el Kursan"},{"id":"2245096","latitude":"13.18333330","longitude":"27.36666670","name":"Qoz er Rai"},{"id":"2245102","latitude":"12.15000000","longitude":"31.61666670","name":"Qoz Gangar"},{"id":"2245122","latitude":"12.86666670","longitude":"31.15000000","name":"Qudaydim"},{"id":"2245123","latitude":"14.98333330","longitude":"30.21666670","name":"Qufala"},{"id":"2245131","latitude":"9.68333330","longitude":"28.55000000","name":"Qulud"},{"id":"2245133","latitude":"12.08333330","longitude":"31.25000000","name":"Qunburayah"},{"id":"2245135","latitude":"10.91666670","longitude":"31.11666670","name":"Quradah"},{"id":"2245137","latitude":"13.30000000","longitude":"29.41666670","name":"Qurad"},{"id":"2245140","latitude":"10.81666670","longitude":"31.76666670","name":"Qurayd"},{"id":"2245142","latitude":"12.60000000","longitude":"28.35000000","name":"Quraywid"},{"id":"2245143","latitude":"12.41666670","longitude":"30.53333330","name":"Qurdud al `Arraniyah"},{"id":"2245144","latitude":"11.98333330","longitude":"30.68333330","name":"Qurdud al Khaymah"},{"id":"2245145","latitude":"12.30000000","longitude":"30.60000000","name":"Qurdud al Luban"},{"id":"2245146","latitude":"12.41666670","longitude":"31.05000000","name":"Qurdud Nyama"},{"id":"2245148","latitude":"10.28333330","longitude":"29.93333330","name":"Qurdud"},{"id":"2245172","latitude":"13.08333330","longitude":"31.70000000","name":"Rabeita"},{"id":"2245176","latitude":"13.13333330","longitude":"30.75000000","name":"Radona"},{"id":"2245189","latitude":"11.81666670","longitude":"28.28333330","name":"Rahad al Ghannayah"},{"id":"2245193","latitude":"11.81666670","longitude":"28.28333330","name":"Rahad el Ghannaya"},{"id":"2245196","latitude":"12.71666670","longitude":"30.65000000","name":"Rahad"},{"id":"2245200","latitude":"10.97972220","longitude":"31.16555560","name":"Rahmanya"},{"id":"2245202","latitude":"11.98333330","longitude":"28.08333330","name":"Rahuma"},{"id":"2245208","latitude":"11.80000000","longitude":"31.43333330","name":"Rakaba"},{"id":"2245210","latitude":"11.80000000","longitude":"31.43333330","name":"Rakubah"},{"id":"2245211","latitude":"11.80000000","longitude":"31.43333330","name":"Rakuba"},{"id":"2245218","latitude":"11.93333330","longitude":"31.40000000","name":"Raml"},{"id":"2245224","latitude":"11.88333330","longitude":"29.65833330","name":"Ras al Fil"},{"id":"2245229","latitude":"11.85000000","longitude":"31.06666670","name":"Rashad"},{"id":"2245236","latitude":"11.53333330","longitude":"31.46666670","name":"Rasrasah"},{"id":"2245238","latitude":"11.53333330","longitude":"31.46666670","name":"Rasrasa"},{"id":"2245239","latitude":"14.38333330","longitude":"30.71666670","name":"Ratabat"},{"id":"2245282","latitude":"12.70000000","longitude":"30.61666670","name":"Rigeila"},{"id":"2245290","latitude":"13.26666670","longitude":"29.58333330","name":"Riheiwa"},{"id":"2245294","latitude":"12.78333330","longitude":"31.30000000","name":"Rimta"},{"id":"2245296","latitude":"12.78333330","longitude":"31.30000000","name":"Rimthah"},{"id":"2245300","latitude":"12.06666670","longitude":"27.61666670","name":"Ritreirit"},{"id":"2245309","latitude":"13.21666670","longitude":"30.86666670","name":"Rofa"},{"id":"2245315","latitude":"13.51666670","longitude":"31.28333330","name":"Rokab"},{"id":"2245336","latitude":"13.08333330","longitude":"31.70000000","name":"Rubaytah"},{"id":"2245343","latitude":"14.20000000","longitude":"30.05000000","name":"Rubshan"},{"id":"2245350","latitude":"14.18333330","longitude":"30.51666670","name":"Rugeigilat"},{"id":"2245351","latitude":"11.36666670","longitude":"27.36666670","name":"Rugeil"},{"id":"2245354","latitude":"14.18333330","longitude":"30.51666670","name":"Rujayjilat"},{"id":"2245356","latitude":"12.70000000","longitude":"30.61666670","name":"Rujaylah"},{"id":"2245358","latitude":"13.51666670","longitude":"31.28333330","name":"Rukab"},{"id":"2245400","latitude":"12.70000000","longitude":"29.36666670","name":"Ruqaybah"},{"id":"2245402","latitude":"12.70000000","longitude":"29.36666670","name":"Ruqeiba"},{"id":"2245404","latitude":"10.66666670","longitude":"30.43333330","name":"Rut Rut"},{"id":"2245406","latitude":"12.75000000","longitude":"30.16666670","name":"Ruwabah"},{"id":"2245407","latitude":"12.75000000","longitude":"30.16666670","name":"Ruwaba"},{"id":"2245414","latitude":"12.68333330","longitude":"29.56666670","name":"Sa`ata"},{"id":"2245447","latitude":"10.58333330","longitude":"31.76666670","name":"Safa"},{"id":"2245448","latitude":"10.96666670","longitude":"31.56666670","name":"Safira"},{"id":"2245449","latitude":"14.58333330","longitude":"28.98333330","name":"Safi"},{"id":"2245450","latitude":"15.51666670","longitude":"30.11666670","name":"Safiya"},{"id":"2245451","latitude":"12.01666670","longitude":"31.46666670","name":"Safura"},{"id":"2245456","latitude":"13.73333330","longitude":"27.66666670","name":"Sagha"},{"id":"2245466","latitude":"14.53333330","longitude":"30.75000000","name":"Said Kassir"},{"id":"2245471","latitude":"13.31666670","longitude":"31.08333330","name":"Saiyala"},{"id":"2245476","latitude":"14.01666670","longitude":"30.60000000","name":"Saiyal"},{"id":"2245482","latitude":"13.23333330","longitude":"31.80000000","name":"Sakerana"},{"id":"2245484","latitude":"13.55000000","longitude":"27.81666670","name":"Sakramoj"},{"id":"2245485","latitude":"13.23333330","longitude":"31.80000000","name":"Sakrana"},{"id":"2245496","latitude":"10.58333330","longitude":"30.30000000","name":"Salamat"},{"id":"2245502","latitude":"12.86666670","longitude":"28.66666670","name":"Salim"},{"id":"2245514","latitude":"12.95000000","longitude":"30.95000000","name":"Samandia"},{"id":"2245526","latitude":"10.85000000","longitude":"31.05000000","name":"Sania"},{"id":"2245529","latitude":"10.85000000","longitude":"31.05000000","name":"Saniyah"},{"id":"2245548","latitude":"11.58333330","longitude":"29.60000000","name":"Sarafayah"},{"id":"2245550","latitude":"11.58333330","longitude":"29.60000000","name":"Sarafaya"},{"id":"2245552","latitude":"11.28333330","longitude":"31.65000000","name":"Saragia"},{"id":"2245555","latitude":"12.33333330","longitude":"27.86666670","name":"Sarambi"},{"id":"2245557","latitude":"14.06666670","longitude":"28.81666670","name":"Sarar Baqar"},{"id":"2245558","latitude":"14.51666670","longitude":"29.01666670","name":"Sarar Fa'r"},