[{"id":"2281205","latitude":"48.71666670","longitude":"17.05000000","name":"Adamov"},{"id":"2281217","latitude":"47.93333330","longitude":"17.71666670","name":"Alist\ufffdl"},{"id":"2281221","latitude":"47.78333330","longitude":"17.81666670","name":"Alm\ufffds Pusta"},{"id":"2281222","latitude":"47.78333330","longitude":"17.81666670","name":"Alm\ufffds Puszta"},{"id":"2281244","latitude":"47.96666670","longitude":"17.58333330","name":"Amad\ufffd-Karcsa"},{"id":"2281245","latitude":"47.96666670","longitude":"17.58333330","name":"Amadeovske Korcany"},{"id":"2281259","latitude":"47.95000000","longitude":"17.51666670","name":"Antonia"},{"id":"2281261","latitude":"47.90000000","longitude":"17.81666670","name":"Ap\ufffdca-Szak\ufffdllas"},{"id":"2281265","latitude":"47.76666670","longitude":"17.96666670","name":"Aranyos"},{"id":"2281267","latitude":"47.76666670","longitude":"17.90000000","name":"Arcibiskupsk\ufffd L\ufffdl"},{"id":"2281286","latitude":"48.01666670","longitude":"17.38333330","name":"Bac"},{"id":"2281288","latitude":"48.01666670","longitude":"17.38333330","name":"Bacfa"},{"id":"2281311","latitude":"47.90000000","longitude":"17.53333330","name":"Baka"},{"id":"2281315","latitude":"47.98333330","longitude":"17.66666670","name":"Bal\ufffdzsfa"},{"id":"2281322","latitude":"47.83333330","longitude":"17.66666670","name":"Balon"},{"id":"2281323","latitude":"47.83333330","longitude":"17.66666670","name":"Balony"},{"id":"2281394","latitude":"48.06666670","longitude":"17.38333330","name":"B\ufffdke"},{"id":"2281410","latitude":"47.91666670","longitude":"17.75000000","name":"B\ufffdlle Pusta"},{"id":"2281412","latitude":"48.08333330","longitude":"17.51666670","name":"Bellova Ves"},{"id":"2281419","latitude":"48.10000000","longitude":"17.48333330","name":"B\ufffdl-Vata"},{"id":"2281429","latitude":"47.90000000","longitude":"17.65000000","name":"Bendopuszta"},{"id":"2281435","latitude":"48.03333330","longitude":"17.50000000","name":"Benke Patony"},{"id":"2281436","latitude":"48.03333330","longitude":"17.50000000","name":"Benkova Poton"},{"id":"2281444","latitude":"48.08333330","longitude":"17.55000000","name":"Benyovski Majer"},{"id":"2281452","latitude":"48.20000000","longitude":"17.30000000","name":"Bernol\ufffdkovo"},{"id":"2281457","latitude":"47.90000000","longitude":"17.58333330","name":"Bes"},{"id":"2281491","latitude":"48.13333330","longitude":"17.21666670","name":"Biskupice"},{"id":"2281493","latitude":"48.13333330","longitude":"17.21666670","name":"Biskupice pri Dunaji"},{"id":"2281499","latitude":"48.00000000","longitude":"17.43333330","name":"Blatn\ufffd na Ostrove"},{"id":"2281513","latitude":"47.98333330","longitude":"17.66666670","name":"Blazov"},{"id":"2281533","latitude":"47.83333330","longitude":"17.83333330","name":"Boda"},{"id":"2281534","latitude":"47.91666670","longitude":"17.46666670","name":"Bodak"},{"id":"2281537","latitude":"47.91666670","longitude":"17.46666670","name":"Bod\ufffdky"},{"id":"2281550","latitude":"47.83333330","longitude":"17.83333330","name":"Bodza"},{"id":"2281552","latitude":"47.91666670","longitude":"17.70000000","name":"Bogello"},{"id":"2281554","latitude":"48.01666670","longitude":"17.55000000","name":"B\ufffdg\ufffdly Patony"},{"id":"2281555","latitude":"47.83333330","longitude":"17.83333330","name":"Bogya"},{"id":"2281559","latitude":"47.91666670","longitude":"17.70000000","name":"Bohelov"},{"id":"2281585","latitude":"48.26666670","longitude":"17.08333330","name":"Borinka"},{"id":"2281596","latitude":"48.61666670","longitude":"17.05000000","name":"Borsk\ufffd Jur"},{"id":"2281597","latitude":"48.61666670","longitude":"17.05000000","name":"Borsk\ufffd Sv\ufffdt\ufffd Jur"},{"id":"2281605","latitude":"47.90000000","longitude":"17.58333330","name":"B\ufffds"},{"id":"2281619","latitude":"48.15000000","longitude":"17.11666670","name":"Bratislava"},{"id":"2281620","latitude":"48.15000000","longitude":"17.11666670","name":"Bratislava-mesto"},{"id":"2281628","latitude":"48.13333330","longitude":"17.15000000","name":"Brenner"},{"id":"2281633","latitude":"47.86666670","longitude":"17.81666670","name":"Brestovec"},{"id":"2281673","latitude":"48.70000000","longitude":"17.01666670","name":"Brodsk\ufffd"},{"id":"2281677","latitude":"48.15000000","longitude":"17.26666670","name":"Bruck"},{"id":"2281696","latitude":"48.03333330","longitude":"17.33333330","name":"Bucsuh\ufffdza"},{"id":"2281697","latitude":"47.96666670","longitude":"17.46666670","name":"Budafa"},{"id":"2281698","latitude":"47.96666670","longitude":"17.46666670","name":"Budafalva"},{"id":"2281707","latitude":"47.96666670","longitude":"17.46666670","name":"Bud\ufffdn"},{"id":"2281731","latitude":"48.61666670","longitude":"17.05000000","name":"Bur Sankt Georg"},{"id":"2281732","latitude":"48.61666670","longitude":"17.05000000","name":"B\ufffdrsky Sv\ufffdty Jur"},{"id":"2281733","latitude":"48.61666670","longitude":"17.05000000","name":"Bursujuri"},{"id":"2281778","latitude":"48.30000000","longitude":"17.26666670","name":"Cajla"},{"id":"2281783","latitude":"48.11666670","longitude":"17.36666670","name":"Cakany"},{"id":"2281789","latitude":"47.86666670","longitude":"17.76666670","name":"Calovo"},{"id":"2281794","latitude":"47.96666670","longitude":"17.75000000","name":"Canadsky Dvor"},{"id":"2281800","latitude":"48.65000000","longitude":"17.10000000","name":"Cary"},{"id":"2281812","latitude":"48.01666670","longitude":"17.48333330","name":"Cechova"},{"id":"2281815","latitude":"48.03333330","longitude":"17.51666670","name":"Cecinska Poton"},{"id":"2281818","latitude":"48.20000000","longitude":"17.30000000","name":"Ceklis"},{"id":"2281820","latitude":"48.10000000","longitude":"17.23333330","name":"Cela"},{"id":"2281832","latitude":"48.10000000","longitude":"17.43333330","name":"Cenkovce"},{"id":"2281899","latitude":"48.23333330","longitude":"17.30000000","name":"Chorv\ufffdtsk\ufffd Grob"},{"id":"2281923","latitude":"48.51666670","longitude":"17.16666670","name":"Chv\ufffdlov"},{"id":"2281934","latitude":"47.76666670","longitude":"17.76666670","name":"Cicov"},{"id":"2281945","latitude":"48.61666670","longitude":"16.96666670","name":"Cierne Pole"},{"id":"2281952","latitude":"47.88333330","longitude":"17.63333330","name":"Cierny Haj"},{"id":"2281960","latitude":"48.56666670","longitude":"17.00000000","name":"Ciglad"},{"id":"2281963","latitude":"48.01666670","longitude":"17.31666670","name":"Cilistov"},{"id":"2281964","latitude":"47.83333330","longitude":"17.70000000","name":"Cilizska Radvan"},{"id":"2281965","latitude":"47.83333330","longitude":"17.61666670","name":"Cilizsky Narad"},{"id":"2281977","latitude":"47.83333330","longitude":"17.61666670","name":"Clizsky Narad"},{"id":"2281987","latitude":"47.98333330","longitude":"17.70000000","name":"Csall\ufffdk\ufffdz K\ufffdrt"},{"id":"2281990","latitude":"48.03333330","longitude":"17.51666670","name":"Cs\ufffdcs\ufffdny Patony"},{"id":"2281991","latitude":"48.01666670","longitude":"17.48333330","name":"Cs\ufffdfa"},{"id":"2281993","latitude":"48.10000000","longitude":"17.43333330","name":"Csenke"},{"id":"2281995","latitude":"48.10000000","longitude":"17.46666670","name":"Csenke Pusta"},{"id":"2282000","latitude":"47.76666670","longitude":"17.76666670","name":"Csics\ufffd"},{"id":"2282001","latitude":"47.83333330","longitude":"17.61666670","name":"Csiliz Ny\ufffdrad"},{"id":"2282002","latitude":"47.83333330","longitude":"17.70000000","name":"Csiliz-Radv\ufffdny"},{"id":"2282003","latitude":"48.01666670","longitude":"17.31666670","name":"Csoloszto"},{"id":"2282007","latitude":"48.10000000","longitude":"17.35000000","name":"Cs\ufffdt\ufffdrt\ufffdk"},{"id":"2282010","latitude":"48.03333330","longitude":"17.38333330","name":"Cukarska Paka"},{"id":"2282012","latitude":"48.03333330","longitude":"17.21666670","name":"Cunovo"},{"id":"2282019","latitude":"48.11666670","longitude":"17.36666670","name":"Czakany"},{"id":"2282047","latitude":"48.18333330","longitude":"17.35000000","name":"Dedinka pri Dunaji"},{"id":"2282058","latitude":"48.08333330","longitude":"17.26666670","name":"D\ufffdnesd"},{"id":"2282059","latitude":"47.93333330","longitude":"17.51666670","name":"Dercsika"},{"id":"2282082","latitude":"48.01666670","longitude":"17.53333330","name":"Di\ufffdsf\ufffdrge Patony"},{"id":"2282112","latitude":"47.98333330","longitude":"17.36666670","name":"Doborgaz"},{"id":"2282125","latitude":"47.98333330","longitude":"17.36666670","name":"Dobrohost"},{"id":"2282168","latitude":"48.01666670","longitude":"17.55000000","name":"Dolna Poton"},{"id":"2282253","latitude":"47.96666670","longitude":"17.68333330","name":"Doln\ufffd Bar"},{"id":"2282310","latitude":"47.93333330","longitude":"17.71666670","name":"Dolni Stal"},{"id":"2282323","latitude":"47.96666670","longitude":"17.68333330","name":"Doln\ufffd Bar"},{"id":"2282349","latitude":"47.93333330","longitude":"17.71666670","name":"Dolny Stal"},{"id":"2282428","latitude":"48.18333330","longitude":"17.03333330","name":"D\ufffdbravka"},{"id":"2282443","latitude":"48.03333330","longitude":"17.21666670","name":"Dunacs\ufffdn"},{"id":"2282445","latitude":"47.98333330","longitude":"17.61666670","name":"Dunajsk\ufffd Streda"},{"id":"2282446","latitude":"48.03333330","longitude":"17.70000000","name":"Dunajsk\ufffd Kl\ufffdtov"},{"id":"2282449","latitude":"47.98333330","longitude":"17.61666670","name":"Duna-Szerdahely"},{"id":"2282450","latitude":"48.18333330","longitude":"17.36666670","name":"Duna-\ufffdjfalu"},{"id":"2282451","latitude":"47.96666670","longitude":"17.38333330","name":"Duna-Vajka"},{"id":"2282470","latitude":"48.71666670","longitude":"17.05000000","name":"Dvor Adamov"},{"id":"2282473","latitude":"47.95000000","longitude":"17.51666670","name":"Dvor Antonia"},{"id":"2282503","latitude":"48.21666670","longitude":"17.23333330","name":"Dvor Cierna Voda"},{"id":"2282504","latitude":"47.88333330","longitude":"17.63333330","name":"Dvor Cierny Haj"},{"id":"2282521","latitude":"47.90000000","longitude":"17.53333330","name":"Dvor Halomsz\ufffdl"},{"id":"2282548","latitude":"47.95000000","longitude":"17.50000000","name":"Dvor Jatov"},{"id":"2282553","latitude":"47.98333330","longitude":"17.41666670","name":"Dvor Kamenec"},{"id":"2282589","latitude":"47.98333330","longitude":"17.78333330","name":"Dvor Na Ostrove"},{"id":"2282591","latitude":"48.20000000","longitude":"17.20000000","name":"Dvorn\ufffdk"},{"id":"2282597","latitude":"48.15000000","longitude":"17.46666670","name":"Dvor Nov\ufffd Jelka"},{"id":"2282616","latitude":"48.18333330","longitude":"17.23333330","name":"Dvor Prebosek"},{"id":"2282620","latitude":"47.86666670","longitude":"17.90000000","name":"Dvor Rakotty\ufffds"},{"id":"2282634","latitude":"48.01666670","longitude":"17.73333330","name":"Dvor Sosovsky Ostrov"},{"id":"2282643","latitude":"47.88333330","longitude":"17.55000000","name":"Dvor Tejke"},{"id":"2282647","latitude":"47.86666670","longitude":"17.56666670","name":"Dvor Velke Vranie"},{"id":"2282650","latitude":"47.91666670","longitude":"17.53333330","name":"Dvor Vermes"},{"id":"2282654","latitude":"48.41666670","longitude":"17.00000000","name":"Dvor Vinohr\ufffddok"},{"id":"2282656","latitude":"47.83333330","longitude":"17.71666670","name":"Dvor Vrbina"},{"id":"2282664","latitude":"48.16666670","longitude":"17.30000000","name":"Eberhart"},{"id":"2282665","latitude":"48.71666670","longitude":"17.13333330","name":"Egbell"},{"id":"2282669","latitude":"48.18333330","longitude":"17.43333330","name":"Egyh\ufffdzfa"},{"id":"2282670","latitude":"47.98333330","longitude":"17.58333330","name":"Egyh\ufffdz-Karcsa"},{"id":"2282672","latitude":"48.18333330","longitude":"17.06666670","name":"Eisenbr\ufffdnndel"},{"id":"2282673","latitude":"47.88333330","longitude":"17.81666670","name":"Ekec"},{"id":"2282674","latitude":"47.88333330","longitude":"17.81666670","name":"Ekecs"},{"id":"2282675","latitude":"47.80000000","longitude":"17.93333330","name":"Ekel"},{"id":"2282676","latitude":"48.11666670","longitude":"17.46666670","name":"Eliasovce"},{"id":"2282677","latitude":"48.03333330","longitude":"17.48333330","name":"Elo Patony"},{"id":"2282679","latitude":"48.13333330","longitude":"17.11666670","name":"Engerau"},{"id":"2282681","latitude":"48.05000000","longitude":"17.70000000","name":"Eperjes"},{"id":"2282683","latitude":"48.00000000","longitude":"17.56666670","name":"Erdohat Karcsa"},{"id":"2282686","latitude":"47.76666670","longitude":"17.90000000","name":"Ersek-L\ufffdl"},{"id":"2282688","latitude":"47.98333330","longitude":"17.55000000","name":"Etre-Karcsa"},{"id":"2282689","latitude":"47.98333330","longitude":"17.55000000","name":"Etreove Kracany"},{"id":"2282711","latitude":"47.78333330","longitude":"17.95000000","name":"Felaranyos Pusta"},{"id":"2282712","latitude":"47.95000000","longitude":"17.46666670","name":"Felb\ufffdr"},{"id":"2282715","latitude":"48.15000000","longitude":"17.33333330","name":"F\ufffdl"},{"id":"2282716","latitude":"47.95000000","longitude":"17.71666670","name":"Felist\ufffdl"},{"id":"2282728","latitude":"48.01666670","longitude":"17.76666670","name":"Felso Vamos"},{"id":"2282742","latitude":"47.78333330","longitude":"17.80000000","name":"Fis"},{"id":"2282768","latitude":"47.78333330","longitude":"17.80000000","name":"F\ufffdss"},{"id":"2282771","latitude":"47.90000000","longitude":"17.58333330","name":"Gabcikovo"},{"id":"2282781","latitude":"48.05000000","longitude":"17.31666670","name":"Gancsh\ufffdza"},{"id":"2282796","latitude":"48.71666670","longitude":"17.13333330","name":"Gbely"},{"id":"2282800","latitude":"47.83333330","longitude":"17.81666670","name":"Gell\ufffdr"},{"id":"2282826","latitude":"48.16666670","longitude":"17.28333330","name":"Gesajov"},{"id":"2282827","latitude":"48.16666670","longitude":"17.28333330","name":"Gessayov"},{"id":"2282845","latitude":"48.10000000","longitude":"17.40000000","name":"Gomba"},{"id":"2282852","latitude":"47.96666670","longitude":"17.56666670","name":"G\ufffdnc\ufffdl-Karcsa"},{"id":"2282865","latitude":"48.26666670","longitude":"17.25000000","name":"Grinava"},{"id":"2282873","latitude":"48.26666670","longitude":"17.25000000","name":"Gr\ufffdnau"},{"id":"2282881","latitude":"48.03333330","longitude":"17.25000000","name":"Gutor"},{"id":"2282919","latitude":"47.90000000","longitude":"17.53333330","name":"Halomsz\ufffdl"},{"id":"2282929","latitude":"48.03333330","longitude":"17.25000000","name":"Hamuliakovo"},{"id":"2282957","latitude":"48.53333330","longitude":"17.13333330","name":"Hasprunka"},{"id":"2282958","latitude":"48.18333330","longitude":"17.43333330","name":"Hasvar"},{"id":"2282975","latitude":"47.96666670","longitude":"17.66666670","name":"Hegybene\ufffdte"},{"id":"2282979","latitude":"48.16666670","longitude":"17.41666670","name":"Hegy-S\ufffdr"},{"id":"2282998","latitude":"48.13333330","longitude":"17.30000000","name":"Hidegh\ufffdt"},{"id":"2283009","latitude":"48.28333330","longitude":"17.21666670","name":"Hlin\ufffdk"},{"id":"2283038","latitude":"48.01666670","longitude":"17.58333330","name":"Hodos"},{"id":"2283041","latitude":"47.83333330","longitude":"17.85000000","name":"Hodzovo"},{"id":"2283045","latitude":"47.83333330","longitude":"17.81666670","name":"Holiare"},{"id":"2283046","latitude":"47.98333330","longitude":"17.48333330","name":"Holice"},{"id":"2283047","latitude":"48.80000000","longitude":"17.16666670","name":"Holic"},{"id":"2283065","latitude":"48.06666670","longitude":"17.11666670","name":"Horb\ufffdtj\ufffdrfalu"},{"id":"2283092","latitude":"48.03333330","longitude":"17.48333330","name":"Horna Poton"},{"id":"2283132","latitude":"48.01666670","longitude":"17.76666670","name":"Horn\ufffd M\ufffdto"},{"id":"2283180","latitude":"47.95000000","longitude":"17.46666670","name":"Horn\ufffd Bar"},{"id":"2283185","latitude":"48.23333330","longitude":"17.36666670","name":"Horn\ufffd Dvor"},{"id":"2283197","latitude":"48.01666670","longitude":"17.76666670","name":"Hornie M\ufffdto"},{"id":"2283229","latitude":"48.01666670","longitude":"17.76666670","name":"Horn\ufffd M\ufffdto"},{"id":"2283255","latitude":"47.95000000","longitude":"17.46666670","name":"Horn\ufffd Bar"},{"id":"2283260","latitude":"48.23333330","longitude":"17.36666670","name":"Horn\ufffd Dvor"},{"id":"2283281","latitude":"47.95000000","longitude":"17.71666670","name":"Horny Stal"},{"id":"2283295","latitude":"48.06666670","longitude":"17.11666670","name":"Horvathjarfalu"},{"id":"2283297","latitude":"48.23333330","longitude":"17.30000000","name":"Horvatsk\ufffd Grob"},{"id":"2283329","latitude":"47.75000000","longitude":"17.88333330","name":"Hrachov\ufffd Dvor"},{"id":"2283362","latitude":"47.93333330","longitude":"17.71666670","name":"Hrobonovo"},{"id":"2283376","latitude":"48.18333330","longitude":"17.48333330","name":"Hruba Borsa"},{"id":"2283378","latitude":"48.16666670","longitude":"17.41666670","name":"Hruby Sur"},{"id":"2283389","latitude":"48.10000000","longitude":"17.40000000","name":"Hubice"},{"id":"2283406","latitude":"48.15000000","longitude":"17.41666670","name":"Hurbanova Ves"},{"id":"2283412","latitude":"48.56666670","longitude":"17.05000000","name":"Husek"},{"id":"2283427","latitude":"48.06666670","longitude":"17.35000000","name":"Hviezdoslavov"},{"id":"2283447","latitude":"48.11666670","longitude":"17.46666670","name":"Ill\ufffdsh\ufffdza"},{"id":"2283477","latitude":"48.18333330","longitude":"17.26666670","name":"Ivanka"},{"id":"2283479","latitude":"48.18333330","longitude":"17.26666670","name":"Ivanka pri Dunaji"},{"id":"2283486","latitude":"47.85000000","longitude":"17.75000000","name":"Izap"},{"id":"2283487","latitude":"47.86666670","longitude":"17.71666670","name":"Izapska Pusta"},{"id":"2283492","latitude":"47.85000000","longitude":"17.75000000","name":"Izop"},{"id":"2283500","latitude":"48.35000000","longitude":"17.10000000","name":"Jablonov\ufffd"},{"id":"2283509","latitude":"48.05000000","longitude":"17.70000000","name":"Jahodn\ufffd"},{"id":"2283536","latitude":"48.10000000","longitude":"17.11666670","name":"Jan\ufffdkov"},{"id":"2283537","latitude":"48.15000000","longitude":"17.40000000","name":"Jan\ufffdky"},{"id":"2283539","latitude":"48.15000000","longitude":"17.40000000","name":"J\ufffdnok"},{"id":"2283543","latitude":"48.08333330","longitude":"17.26666670","name":"Janosikova"},{"id":"2283544","latitude":"47.91666670","longitude":"17.75000000","name":"Janosikovo na Ostrove"},{"id":"2283548","latitude":"47.95000000","longitude":"17.80000000","name":"J\ufffdnostelek Majer"},{"id":"2283565","latitude":"48.06666670","longitude":"17.11666670","name":"Jarovce"},{"id":"2283588","latitude":"48.00000000","longitude":"17.55000000","name":"Jastrabie Kracany"},{"id":"2283604","latitude":"48.15000000","longitude":"17.51666670","name":"Jelka"},{"id":"2283629","latitude":"48.15000000","longitude":"17.51666670","name":"J\ufffdka"},{"id":"2283643","latitude":"47.93333330","longitude":"17.51666670","name":"Jurov\ufffd"},{"id":"2283644","latitude":"48.25000000","longitude":"17.21666670","name":"Jur pri Bratislave"},{"id":"2283663","latitude":"48.06666670","longitude":"17.25000000","name":"Kalinkovo"},{"id":"2283722","latitude":"48.05000000","longitude":"17.15000000","name":"Karlburg"},{"id":"2283724","latitude":"48.15000000","longitude":"17.06666670","name":"Karlova Ves"},{"id":"2283759","latitude":"48.03333330","longitude":"17.66666670","name":"Kele Majer"},{"id":"2283773","latitude":"47.78333330","longitude":"17.76666670","name":"Kereszt Majer"},{"id":"2283776","latitude":"47.98333330","longitude":"17.70000000","name":"Kert na Ostrove"},{"id":"2283781","latitude":"47.98333330","longitude":"17.38333330","name":"Kesz\ufffdlc\ufffds"},{"id":"2283791","latitude":"47.98333330","longitude":"17.55000000","name":"Kir\ufffdlyfia-Karcsa"},{"id":"2283792","latitude":"48.01666670","longitude":"17.35000000","name":"Kiralyfia"},{"id":"2283799","latitude":"48.16666670","longitude":"17.46666670","name":"Kis-Borsa"},{"id":"2283802","latitude":"48.00000000","longitude":"17.53333330","name":"Kisfalud"},{"id":"2283809","latitude":"47.75000000","longitude":"17.88333330","name":"Kis-Keszi"},{"id":"2283814","latitude":"47.98333330","longitude":"17.50000000","name":"Kis-L\ufffdcs"},{"id":"2283816","latitude":"48.15000000","longitude":"17.36666670","name":"Kis-Madar\ufffdsz"},{"id":"2283817","latitude":"48.11666670","longitude":"17.43333330","name":"Kis-Magyar"},{"id":"2283821","latitude":"48.05000000","longitude":"17.38333330","name":"Kis-Paka"},{"id":"2283833","latitude":"48.01666670","longitude":"17.65000000","name":"Kis Udvarnok"},{"id":"2283863","latitude":"47.75000000","longitude":"17.81666670","name":"Klizska Nema"},{"id":"2283872","latitude":"47.96666670","longitude":"17.53333330","name":"Kluciarove Kracany"},{"id":"2283873","latitude":"47.80000000","longitude":"17.71666670","name":"Kl'ucovec"},{"id":"2283930","latitude":"48.16666670","longitude":"17.11666670","name":"Koliba"},{"id":"2283934","latitude":"48.08333330","longitude":"17.31666670","name":"Kolonie Alzbeta"},{"id":"2283938","latitude":"47.75000000","longitude":"17.81666670","name":"Kolozs-N\ufffdma"},{"id":"2283950","latitude":"48.13333330","longitude":"17.20000000","name":"Kom\ufffdrov"},{"id":"2283979","latitude":"48.78333330","longitude":"17.11666670","name":"Kopcany"},{"id":"2283987","latitude":"47.96666670","longitude":"17.58333330","name":"Korcany"},{"id":"2284026","latitude":"48.18333330","longitude":"17.43333330","name":"Kostolany"},{"id":"2284032","latitude":"48.18333330","longitude":"17.43333330","name":"Kostoln\ufffd pri Dunaji"},{"id":"2284036","latitude":"47.96666670","longitude":"17.58333330","name":"Kostolne Kracany"},{"id":"2284044","latitude":"48.10000000","longitude":"17.20000000","name":"K\ufffdt\ufffdlszer Pusta"},{"id":"2284083","latitude":"48.20000000","longitude":"17.45000000","name":"Kralova"},{"id":"2284084","latitude":"48.20000000","longitude":"17.45000000","name":"Kr\ufffdl'ov\ufffd"},{"id":"2284093","latitude":"48.01666670","longitude":"17.35000000","name":"Kralovianky"},{"id":"2284094","latitude":"47.98333330","longitude":"17.55000000","name":"Kralovicove Korcany"},{"id":"2284095","latitude":"47.98333330","longitude":"17.55000000","name":"Kralovicove Kracany"},{"id":"2284156","latitude":"48.20000000","longitude":"17.45000000","name":"Krmes"},{"id":"2284161","latitude":"48.06666670","longitude":"17.11666670","name":"Kroatisch Jahrndorf"},{"id":"2284193","latitude":"48.40000000","longitude":"17.16666670","name":"Kuchyna"},{"id":"2284196","latitude":"48.31666670","longitude":"17.28333330","name":"Kucisdorf"},{"id":"2284198","latitude":"48.63333330","longitude":"17.08333330","name":"Kuklov"},{"id":"2284202","latitude":"47.96666670","longitude":"17.53333330","name":"Kulcs\ufffdr Karcsa"},{"id":"2284203","latitude":"47.80000000","longitude":"17.71666670","name":"Kulcsod"},{"id":"2284229","latitude":"47.96666670","longitude":"17.66666670","name":"K\ufffdtniky"},{"id":"2284230","latitude":"48.66666670","longitude":"17.01666670","name":"K\ufffdty"},{"id":"2284241","latitude":"48.05000000","longitude":"17.35000000","name":"Kvetoslavov"},{"id":"2284248","latitude":"47.96666670","longitude":"17.56666670","name":"Kyncelove Kracany"},{"id":"2284253","latitude":"47.98333330","longitude":"17.38333330","name":"Kyselica"},{"id":"2284278","latitude":"47.85000000","longitude":"17.83333330","name":"Lak"},{"id":"2284279","latitude":"48.58333330","longitude":"17.18333330","name":"Laksarska Nova Ves"},{"id":"2284281","latitude":"48.20000000","longitude":"17.05000000","name":"Lamac"},{"id":"2284300","latitude":"48.01666670","longitude":"17.13333330","name":"Lauramajor"},{"id":"2284324","latitude":"48.05000000","longitude":"17.46666670","name":"L\ufffdg"},{"id":"2284326","latitude":"48.05000000","longitude":"17.46666670","name":"Lehnice"},{"id":"2284354","latitude":"48.00000000","longitude":"17.56666670","name":"Lesne Kracany"},{"id":"2284361","latitude":"48.71666670","longitude":"17.18333330","name":"Letnicie"},{"id":"2284399","latitude":"48.28333330","longitude":"17.21666670","name":"Limbach"},{"id":"2284449","latitude":"48.03333330","longitude":"17.48333330","name":"L\ufffdger Patony"},{"id":"2284450","latitude":"47.83333330","longitude":"17.91666670","name":"Logorretitanyak"},{"id":"2284482","latitude":"48.33333330","longitude":"17.05000000","name":"Lozorno"},{"id":"2284555","latitude":"48.01666670","longitude":"17.43333330","name":"Mach\ufffdza"},{"id":"2284558","latitude":"48.01666670","longitude":"17.43333330","name":"Macov"},{"id":"2284565","latitude":"48.21666670","longitude":"17.36666670","name":"Madarsky Bel"},{"id":"2284568","latitude":"47.95000000","longitude":"17.66666670","name":"Mad"},{"id":"2284575","latitude":"48.21666670","longitude":"17.36666670","name":"Magyar-B\ufffdl"},{"id":"2284592","latitude":"48.16666670","longitude":"17.46666670","name":"Mala Borsa"},{"id":"2284598","latitude":"48.43333330","longitude":"17.01666670","name":"Malacke"},{"id":"2284599","latitude":"48.43333330","longitude":"17.01666670","name":"Malacky"},{"id":"2284600","latitude":"48.43333330","longitude":"17.01666670","name":"Malaczka"},{"id":"2284611","latitude":"47.98333330","longitude":"17.50000000","name":"Mala Luc"},{"id":"2284617","latitude":"48.05000000","longitude":"17.38333330","name":"Mal\ufffd Paka"},{"id":"2284631","latitude":"48.43333330","longitude":"17.01666670","name":"Malczka"},{"id":"2284636","latitude":"48.00000000","longitude":"17.61666670","name":"Mal\ufffd Blahovo"},{"id":"2284647","latitude":"48.01666670","longitude":"17.65000000","name":"Mal\ufffd Dvorn\ufffdky"},{"id":"2284654","latitude":"47.75000000","longitude":"17.88333330","name":"Mal\ufffd Kosihy"},{"id":"2284665","latitude":"48.11666670","longitude":"17.43333330","name":"Mal\ufffd Rastice"},{"id":"2284673","latitude":"48.31666670","longitude":"17.30000000","name":"Mal\ufffd Trnie"},{"id":"2284676","latitude":"47.85000000","longitude":"17.55000000","name":"Mal\ufffd Vranie"},{"id":"2284685","latitude":"48.16666670","longitude":"17.30000000","name":"Malinovo"},{"id":"2284686","latitude":"47.86666670","longitude":"17.53333330","name":"Malomf\ufffdle"},{"id":"2284687","latitude":"47.91666670","longitude":"17.61666670","name":"Malomhely Pusta"},{"id":"2284691","latitude":"48.00000000","longitude":"17.61666670","name":"Maly Abon"},{"id":"2284693","latitude":"48.21666670","longitude":"17.36666670","name":"Mal\ufffd Biel"},{"id":"2284717","latitude":"48.15000000","longitude":"17.36666670","name":"Mal\ufffd Madaras"},{"id":"2284718","latitude":"48.11666670","longitude":"17.43333330","name":"Mal\ufffd Mager"},{"id":"2284727","latitude":"48.18333330","longitude":"17.43333330","name":"Maly Sur"},{"id":"2284746","latitude":"48.25000000","longitude":"17.06666670","name":"Marianka"},{"id":"2284767","latitude":"48.10000000","longitude":"17.45000000","name":"Maslovce"},{"id":"2284768","latitude":"48.03333330","longitude":"17.48333330","name":"Masn\ufffdkovo"},{"id":"2284770","latitude":"48.26666670","longitude":"17.03333330","name":"M\ufffdst"},{"id":"2284800","latitude":"47.80000000","longitude":"17.66666670","name":"Medvedov"},{"id":"2284803","latitude":"47.80000000","longitude":"17.66666670","name":"Medve"},{"id":"2284863","latitude":"48.03333330","longitude":"17.53333330","name":"Mih\ufffdlfai Majer"},{"id":"2284886","latitude":"47.86666670","longitude":"17.66666670","name":"Milenium"},{"id":"2284890","latitude":"48.10000000","longitude":"17.30000000","name":"Miloslavov"},{"id":"2284898","latitude":"48.08333330","longitude":"17.26666670","name":"Mischdorf"},{"id":"2284900","latitude":"48.08333330","longitude":"17.26666670","name":"Mis\ufffdrdorf"},{"id":"2284909","latitude":"47.96666670","longitude":"17.60000000","name":"Mliecany"},{"id":"2284910","latitude":"48.01666670","longitude":"17.33333330","name":"Mliecno"},{"id":"2284938","latitude":"48.33333330","longitude":"17.31666670","name":"Modra"},{"id":"2284969","latitude":"47.96666670","longitude":"17.56666670","name":"Moravske Kracany"},{"id":"2284971","latitude":"48.58333330","longitude":"17.01666670","name":"Moravsk\ufffd J\ufffdn"},{"id":"2284972","latitude":"48.58333330","longitude":"17.01666670","name":"Moravsk\ufffd Sv\ufffdt\ufffd J\ufffdn"},{"id":"2284973","latitude":"47.96666670","longitude":"17.56666670","name":"M\ufffdroc-Karcsa"},{"id":"2284981","latitude":"48.15000000","longitude":"17.26666670","name":"Most na Ostrove"},{"id":"2285010","latitude":"48.26666670","longitude":"17.25000000","name":"Myslenice"},{"id":"2285020","latitude":"47.91666670","longitude":"17.50000000","name":"N\ufffddasd"},{"id":"2285025","latitude":"47.86666670","longitude":"17.53333330","name":"Nad Mlynmi"},{"id":"2285036","latitude":"48.01666670","longitude":"17.58333330","name":"Nagy Abony"},{"id":"2285038","latitude":"48.18333330","longitude":"17.48333330","name":"Nagy-Borsa"},{"id":"2285043","latitude":"47.90000000","longitude":"17.73333330","name":"Nagyd\ufffdrpuszta"},{"id":"2285052","latitude":"47.76666670","longitude":"17.88333330","name":"Nagy-Keszi"},{"id":"2285054","latitude":"47.98333330","longitude":"17.51666670","name":"Nagy-L\ufffdcs"},{"id":"2285056","latitude":"48.11666670","longitude":"17.41666670","name":"Nagy-Magyar"},{"id":"2285057","latitude":"47.86666670","longitude":"17.76666670","name":"Nagy Meder"},{"id":"2285058","latitude":"47.86666670","longitude":"17.76666670","name":"Nagy Megyer"},{"id":"2285060","latitude":"48.03333330","longitude":"17.40000000","name":"Nagy-Paka"},{"id":"2285066","latitude":"48.00000000","longitude":"17.40000000","name":"Nagy-Szarva"},{"id":"2285071","latitude":"48.00000000","longitude":"17.65000000","name":"Nagy Udvarnok"},{"id":"2285082","latitude":"47.98333330","longitude":"17.78333330","name":"Na Ostrove"},{"id":"2285085","latitude":"47.83333330","longitude":"17.61666670","name":"Narad"},{"id":"2285086","latitude":"47.96666670","longitude":"17.78333330","name":"Narazd"},{"id":"2285102","latitude":"47.95000000","longitude":"17.60000000","name":"Nekyje na Ostrove"},{"id":"2285117","latitude":"48.21666670","longitude":"17.36666670","name":"Nemeck\ufffd B\ufffdl"},{"id":"2285121","latitude":"48.06666670","longitude":"17.36666670","name":"Nemecky Sok"},{"id":"2285124","latitude":"47.80000000","longitude":"17.86666670","name":"Nemes Olcsa"},{"id":"2285125","latitude":"48.21666670","longitude":"17.36666670","name":"N\ufffdmet-Bel"},{"id":"2285134","latitude":"48.25000000","longitude":"17.21666670","name":"Nestich"},{"id":"2285170","latitude":"48.15000000","longitude":"17.13333330","name":"Nivy"},{"id":"2285284","latitude":"48.13333330","longitude":"17.50000000","name":"Nov\ufffd Jelka"},{"id":"2285289","latitude":"48.08333330","longitude":"17.28333330","name":"Nov\ufffd Lipnica"},{"id":"2285301","latitude":"48.18333330","longitude":"17.36666670","name":"Nov\ufffd Ves pri Dunaji"},{"id":"2285304","latitude":"48.08333330","longitude":"17.26666670","name":"Nove Kosariska"},{"id":"2285307","latitude":"48.16666670","longitude":"17.11666670","name":"Nov\ufffd Mesto"},{"id":"2285321","latitude":"47.86666670","longitude":"17.73333330","name":"Nov\ufffd Dvor"},{"id":"2285324","latitude":"47.78333330","longitude":"17.78333330","name":"Novy Fis"},{"id":"2285338","latitude":"47.96666670","longitude":"17.78333330","name":"Ny\ufffdrasd"},{"id":"2285340","latitude":"47.95000000","longitude":"17.60000000","name":"Ny\ufffdk"},{"id":"2285341","latitude":"47.95000000","longitude":"17.60000000","name":"Ny\ufffdkv\ufffdrkony"},{"id":"2285352","latitude":"48.15000000","longitude":"17.18333330","name":"Oberufer"},{"id":"2285367","latitude":"47.98333330","longitude":"17.48333330","name":"\ufffd-Gelle"},{"id":"2285370","latitude":"47.98333330","longitude":"17.70000000","name":"Ohrady"},{"id":"2285373","latitude":"47.78333330","longitude":"17.88333330","name":"Ok\ufffdnikov"},{"id":"2285374","latitude":"47.88333330","longitude":"17.81666670","name":"Okoc"},{"id":"2285375","latitude":"47.80000000","longitude":"17.93333330","name":"Okolicna na Ostrove"},{"id":"2285381","latitude":"48.08333330","longitude":"17.41666670","name":"Oldza"},{"id":"2285385","latitude":"48.08333330","longitude":"17.41666670","name":"Olgya"},{"id":"2285387","latitude":"47.96666670","longitude":"17.60000000","name":"Oll\ufffd-Tejed"},{"id":"2285419","latitude":"47.90000000","longitude":"17.81666670","name":"Opatovsk\ufffd Sokolec"},{"id":"2285437","latitude":"48.01666670","longitude":"17.53333330","name":"Orechova Poton"},{"id":"2285448","latitude":"48.05000000","longitude":"17.15000000","name":"Orosh\ufffdza"},{"id":"2285452","latitude":"48.05000000","longitude":"17.15000000","name":"Oroszv\ufffdr"},{"id":"2285490","latitude":"48.13333330","longitude":"17.13333330","name":"Ovsiste"},{"id":"2285497","latitude":"47.93333330","longitude":"17.68333330","name":"Padan"},{"id":"2285498","latitude":"47.93333330","longitude":"17.68333330","name":"Pad\ufffdny"},{"id":"2285499","latitude":"47.90000000","longitude":"17.66666670","name":"Pad\ufffdnyr\ufffdtimajer"},{"id":"2285500","latitude":"47.90000000","longitude":"17.66666670","name":"Pad\ufffdnyr\ufffdtimajor"},{"id":"2285504","latitude":"48.26666670","longitude":"17.08333330","name":"Pajstun"},{"id":"2285519","latitude":"47.81666670","longitude":"17.61666670","name":"Palkovicovo"},{"id":"2285564","latitude":"47.86666670","longitude":"17.66666670","name":"Past\ufffdchy"},{"id":"2285567","latitude":"47.86666670","longitude":"17.66666670","name":"Patas"},{"id":"2285568","latitude":"47.86666670","longitude":"17.66666670","name":"Patasska Kolonie"},{"id":"2285604","latitude":"48.18333330","longitude":"17.43333330","name":"P\ufffdntek-S\ufffdr"},{"id":"2285617","latitude":"48.36666670","longitude":"17.15000000","name":"Pernek"},{"id":"2285634","latitude":"48.71666670","longitude":"17.16666670","name":"Petrova Ves"},{"id":"2285644","latitude":"48.13333330","longitude":"17.11666670","name":"Petrzalka"},{"id":"2285646","latitude":"48.28333330","longitude":"17.26666670","name":"Pezinok"},{"id":"2285655","latitude":"48.38333330","longitude":"17.26666670","name":"Piesok"},{"id":"2285671","latitude":"47.96666670","longitude":"17.58333330","name":"Pinke-Karcsa"},{"id":"2285673","latitude":"47.96666670","longitude":"17.58333330","name":"Pinkove Kracany"},{"id":"2285686","latitude":"48.36666670","longitude":"17.00000000","name":"Plavecky Stvrtok"},{"id":"2285713","latitude":"47.96666670","longitude":"17.63333330","name":"P\ufffdda-Tejed"},{"id":"2285761","latitude":"48.13333330","longitude":"17.21666670","name":"Podunaj Biskupice"},{"id":"2285762","latitude":"48.13333330","longitude":"17.21666670","name":"Podunajsk\ufffd Biskupice"},{"id":"2285842","latitude":"47.96666670","longitude":"17.63333330","name":"Povoda"},{"id":"2285847","latitude":"48.15000000","longitude":"17.11666670","name":"Pozsony"},{"id":"2285867","latitude":"48.03333330","longitude":"17.48333330","name":"Predna Poton"},{"id":"2285873","latitude":"48.15000000","longitude":"17.11666670","name":"Presburg"},{"id":"2285878","latitude":"48.15000000","longitude":"17.11666670","name":"Presporok"},{"id":"2285879","latitude":"48.15000000","longitude":"17.11666670","name":"Prespurk"},{"id":"2285880","latitude":"48.15000000","longitude":"17.11666670","name":"Pressburg"},{"id":"2285882","latitude":"48.15000000","longitude":"17.11666670","name":"Preszburg"},{"id":"2285893","latitude":"48.56666670","longitude":"17.06666670","name":"Priecne"},{"id":"2285900","latitude":"48.15000000","longitude":"17.18333330","name":"Prievoz"},{"id":"2285942","latitude":"48.13333330","longitude":"17.21666670","name":"P\ufffdsp\ufffdki"},{"id":"2285945","latitude":"47.91666670","longitude":"17.70000000","name":"Pusta Kar\ufffdb"},{"id":"2285949","latitude":"47.78333330","longitude":"17.95000000","name":"Pusta Nad Zlatnou"},{"id":"2285960","latitude":"47.78333330","longitude":"17.95000000","name":"Pustatina nad Zlatnou"},{"id":"2285979","latitude":"48.21666670","longitude":"17.15000000","name":"Raca"},{"id":"2285981","latitude":"48.21666670","longitude":"17.15000000","name":"Racistorf"},{"id":"2286012","latitude":"47.86666670","longitude":"17.90000000","name":"Rakotty\ufffds"},{"id":"2286028","latitude":"48.46666670","longitude":"17.16666670","name":"Rarbok"},{"id":"2286035","latitude":"48.11666670","longitude":"17.41666670","name":"Rastice"},{"id":"2286046","latitude":"48.21666670","longitude":"17.15000000","name":"Ratzersdorf"},{"id":"2286055","latitude":"48.21666670","longitude":"17.15000000","name":"R\ufffdcse"},{"id":"2286108","latitude":"48.00000000","longitude":"17.40000000","name":"Rohovce"},{"id":"2286111","latitude":"48.46666670","longitude":"17.16666670","name":"Rohoznik"},{"id":"2286121","latitude":"47.76666670","longitude":"17.80000000","name":"Ronka Pusta"},{"id":"2286129","latitude":"48.10000000","longitude":"17.23333330","name":"Rovinka"},{"id":"2286190","latitude":"48.05000000","longitude":"17.15000000","name":"Rusovce"},{"id":"2286244","latitude":"48.03333330","longitude":"17.31666670","name":"Samorin"},{"id":"2286245","latitude":"48.03333330","longitude":"17.35000000","name":"S\ufffdmot Pusta"},{"id":"2286257","latitude":"47.81666670","longitude":"17.61666670","name":"Sap"},{"id":"2286273","latitude":"47.88333330","longitude":"17.70000000","name":"Sarkanovska Pusta"},{"id":"2286275","latitude":"47.88333330","longitude":"17.70000000","name":"Sarkanska Pusta"},{"id":"2286276","latitude":"48.03333330","longitude":"17.61666670","name":"S\ufffdrk\ufffdnyt\ufffd Pusta"},{"id":"2286282","latitude":"48.00000000","longitude":"17.43333330","name":"S\ufffdrosfa"},{"id":"2286286","latitude":"48.06666670","longitude":"17.45000000","name":"S\ufffdsa"},{"id":"2286291","latitude":"48.63333330","longitude":"17.15000000","name":"Sastin"},{"id":"2286298","latitude":"48.08333330","longitude":"17.26666670","name":"Schildern"},{"id":"2286318","latitude":"48.11666670","longitude":"17.58333330","name":"Sed\ufffdn"},{"id":"2286327","latitude":"48.60000000","longitude":"17.00000000","name":"Sekule"},{"id":"2286347","latitude":"48.21666670","longitude":"17.40000000","name":"Senec"},{"id":"2286352","latitude":"48.30000000","longitude":"17.35000000","name":"Senkvice"},{"id":"2286372","latitude":"48.00000000","longitude":"17.61666670","name":"Sik-Abony"},{"id":"2286395","latitude":"47.96666670","longitude":"17.58333330","name":"S\ufffdpos-Karcsa"},{"id":"2286396","latitude":"47.96666670","longitude":"17.58333330","name":"Siposovske Kracany"},{"id":"2286411","latitude":"48.55000000","longitude":"17.06666670","name":"Sisulakov Mlyn"},{"id":"2286412","latitude":"48.56666670","longitude":"17.13333330","name":"Sisulaky"},{"id":"2286433","latitude":"48.06666670","longitude":"17.38333330","name":"Sklen\ufffdrovo"},{"id":"2286497","latitude":"48.25000000","longitude":"17.28333330","name":"Slovensk\ufffd Grob"},{"id":"2286502","latitude":"47.90000000","longitude":"17.80000000","name":"Smataj"},{"id":"2286512","latitude":"48.68333330","longitude":"17.13333330","name":"Smolinsk\ufffd"},{"id":"2286532","latitude":"47.85000000","longitude":"17.83333330","name":"Sokolce"},{"id":"2286545","latitude":"48.46666670","longitude":"17.23333330","name":"Solosnica"},{"id":"2286548","latitude":"48.00000000","longitude":"17.55000000","name":"Solymos-Karcsa"},{"id":"2286550","latitude":"48.03333330","longitude":"17.31666670","name":"Somorja"},{"id":"2286556","latitude":"48.13333330","longitude":"17.48333330","name":"Sorj\ufffdkmajor"},{"id":"2286557","latitude":"48.01666670","longitude":"17.73333330","name":"Sosovsky Ostrov"},{"id":"2286559","latitude":"48.73333330","longitude":"17.15000000","name":"Sov\ufffdkovsk\ufffd Dvor"},{"id":"2286587","latitude":"48.28333330","longitude":"17.03333330","name":"Stampfen"},{"id":"2286596","latitude":"47.98333330","longitude":"17.48333330","name":"Star\ufffd Gala"},{"id":"2286607","latitude":"48.15000000","longitude":"17.11666670","name":"Star\ufffd Mesto"},{"id":"2286626","latitude":"48.10000000","longitude":"17.23333330","name":"Stefanikovce"},{"id":"2286651","latitude":"48.28333330","longitude":"17.03333330","name":"Stomfai"},{"id":"2286667","latitude":"48.65000000","longitude":"17.15000000","name":"Straze nad Morave"},{"id":"2286668","latitude":"48.65000000","longitude":"17.15000000","name":"Straze nad Myjavou"},{"id":"2286712","latitude":"48.16666670","longitude":"17.11666670","name":"Strohh\ufffdte"},{"id":"2286717","latitude":"48.53333330","longitude":"17.13333330","name":"Studienka"},{"id":"2286721","latitude":"48.28333330","longitude":"17.03333330","name":"Stupava"},{"id":"2286726","latitude":"48.10000000","longitude":"17.35000000","name":"Stvrtok na Ostrove"},{"id":"2286747","latitude":"47.95000000","longitude":"17.45000000","name":"Sulany"},{"id":"2286759","latitude":"47.95000000","longitude":"17.45000000","name":"S\ufffdly"},{"id":"2286776","latitude":"48.26666670","longitude":"17.30000000","name":"Svajnsbach"},{"id":"2286804","latitude":"48.25000000","longitude":"17.21666670","name":"Sv\ufffdt\ufffd Jur"},{"id":"2286814","latitude":"48.01666670","longitude":"17.51666670","name":"Sv\ufffdt\ufffd Michal"},{"id":"2286855","latitude":"47.81666670","longitude":"17.61666670","name":"Szap"},{"id":"2286857","latitude":"48.06666670","longitude":"17.45000000","name":"Sz\ufffdsz"},{"id":"2286863","latitude":"48.06666670","longitude":"17.25000000","name":"Szemet"},{"id":"2286866","latitude":"48.01666670","longitude":"17.51666670","name":"Szent-Mih\ufffdlyfa"},{"id":"2286880","latitude":"47.86666670","longitude":"17.81666670","name":"Szilas"},{"id":"2286881","latitude":"47.86666670","longitude":"17.81666670","name":"Szilvas"},{"id":"2286887","latitude":"48.11666670","longitude":"17.58333330","name":"Sz\ufffdgy\ufffdn Pusta"},{"id":"2286893","latitude":"48.13333330","longitude":"17.20000000","name":"Szunyogdi"},{"id":"2286907","latitude":"47.80000000","longitude":"17.83333330","name":"Tany"},{"id":"2286913","latitude":"48.01666670","longitude":"17.40000000","name":"T\ufffdrnok"},{"id":"2286916","latitude":"48.08333330","longitude":"17.28333330","name":"Tartschendorf"},{"id":"2286927","latitude":"48.01666670","longitude":"17.33333330","name":"Tejfalu"},{"id":"2286928","latitude":"47.88333330","longitude":"17.55000000","name":"Tejke"},{"id":"2286943","latitude":"47.88333330","longitude":"17.55000000","name":"Telke"},{"id":"2286991","latitude":"48.03333330","longitude":"17.70000000","name":"T\ufffdk\ufffds"},{"id":"2286998","latitude":"48.15000000","longitude":"17.33333330","name":"Tomasov"},{"id":"2287001","latitude":"48.56666670","longitude":"17.10000000","name":"Tomek"},{"id":"2287003","latitude":"47.93333330","longitude":"17.71666670","name":"T\ufffdne"},{"id":"2287004","latitude":"48.11666670","longitude":"17.45000000","name":"Tonkh\ufffdza"},{"id":"2287005","latitude":"48.11666670","longitude":"17.45000000","name":"Tonkovce"},{"id":"2287006","latitude":"47.80000000","longitude":"17.83333330","name":"Ton"},{"id":"2287007","latitude":"47.93333330","longitude":"17.71666670","name":"T\ufffdnye"},{"id":"2287013","latitude":"47.96666670","longitude":"17.78333330","name":"Topolniky"},{"id":"2287014","latitude":"47.83333330","longitude":"17.61666670","name":"Topolovec"},{"id":"2287017","latitude":"48.08333330","longitude":"17.28333330","name":"Torcs"},{"id":"2287026","latitude":"47.81666670","longitude":"17.85000000","name":"T\ufffdr\ufffdm Pusta"},{"id":"2287028","latitude":"48.18333330","longitude":"17.38333330","name":"Torony"},{"id":"2287040","latitude":"48.15000000","longitude":"17.15000000","name":"Tranka"},{"id":"2287043","latitude":"47.78333330","longitude":"17.80000000","name":"Tr\ufffdvnik"},{"id":"2287069","latitude":"47.98333330","longitude":"17.75000000","name":"Trhov\ufffd Hradsk\ufffd"},{"id":"2287075","latitude":"48.31666670","longitude":"17.30000000","name":"Trlinok"},{"id":"2287080","latitude":"48.01666670","longitude":"17.40000000","name":"Trn\ufffdvka"},{"id":"2287086","latitude":"48.80000000","longitude":"17.18333330","name":"Trnovec"},{"id":"2287092","latitude":"47.91666670","longitude":"17.50000000","name":"Trsten\ufffd na Ostrove"},{"id":"2287124","latitude":"48.18333330","longitude":"17.38333330","name":"Turen"},{"id":"2287143","latitude":"47.91666670","longitude":"17.80000000","name":"T\ufffdzok Pusta"},{"id":"2287185","latitude":"48.13333330","longitude":"17.50000000","name":"Ujhely-J\ufffdka"},{"id":"2287191","latitude":"48.13333330","longitude":"17.45000000","name":"Ujv\ufffds\ufffdr Pusta"},{"id":"2287226","latitude":"48.51666670","longitude":"17.13333330","name":"U Soj\ufffdkov"},{"id":"2287235","latitude":"48.05000000","longitude":"17.35000000","name":"\ufffdzor"},{"id":"2287249","latitude":"48.10000000","longitude":"17.45000000","name":"Vajas-Vata"},{"id":"2287251","latitude":"47.96666670","longitude":"17.38333330","name":"Vajka nad Dunajom"},{"id":"2287255","latitude":"48.20000000","longitude":"17.20000000","name":"Vajnory"},{"id":"2287292","latitude":"47.95000000","longitude":"17.60000000","name":"V\ufffdrkony"},{"id":"2287295","latitude":"47.98333330","longitude":"17.75000000","name":"V\ufffds\ufffdr\ufffdt"},{"id":"2287343","latitude":"47.98333330","longitude":"17.51666670","name":"Velka Luc"},{"id":"2287347","latitude":"48.03333330","longitude":"17.40000000","name":"Velka Paka"},{"id":"2287351","latitude":"48.00000000","longitude":"17.40000000","name":"Velka Sarva"},{"id":"2287362","latitude":"48.01666670","longitude":"17.58333330","name":"Velke Blahovo"},{"id":"2287367","latitude":"48.30000000","longitude":"17.35000000","name":"Velke Canikovce"},{"id":"2287374","latitude":"48.00000000","longitude":"17.65000000","name":"Velke Dvorniky"},{"id":"2287381","latitude":"47.76666670","longitude":"17.88333330","name":"Velke Kosihy"},{"id":"2287386","latitude":"48.50000000","longitude":"17.00000000","name":"Velke Levare"},{"id":"2287401","latitude":"48.30000000","longitude":"17.35000000","name":"Velke-Senkvice"},{"id":"2287409","latitude":"48.31666670","longitude":"17.28333330","name":"Velke Trnie"},{"id":"2287413","latitude":"47.86666670","longitude":"17.56666670","name":"Velke Vranie"},{"id":"2287421","latitude":"48.01666670","longitude":"17.58333330","name":"Velky Abon"},{"id":"2287423","latitude":"48.21666670","longitude":"17.36666670","name":"Velky Biel"},{"id":"2287447","latitude":"47.76666670","longitude":"17.95000000","name":"Velky Lel"},{"id":"2287451","latitude":"48.11666670","longitude":"17.41666670","name":"Velky Mager"},{"id":"2287452","latitude":"47.86666670","longitude":"17.76666670","name":"Velky Meder"},{"id":"2287469","latitude":"48.15000000","longitude":"17.21666670","name":"Verekne"},{"id":"2287473","latitude":"47.91666670","longitude":"17.53333330","name":"Vermes"},{"id":"2287496","latitude":"48.00000000","longitude":"17.53333330","name":"Vieska"},{"id":"2287506","latitude":"48.00000000","longitude":"17.68333330","name":"Vilmos Majer"},{"id":"2287511","latitude":"48.26666670","longitude":"17.30000000","name":"Vinicne"},{"id":"2287514","latitude":"48.41666670","longitude":"17.00000000","name":"Vinohr\ufffddok"},{"id":"2287515","latitude":"48.15000000","longitude":"17.10000000","name":"Vinohrady"},{"id":"2287555","latitude":"48.16666670","longitude":"17.36666670","name":"Vlky"},{"id":"2287559","latitude":"47.96666670","longitude":"17.38333330","name":"Vojka nad Dunajom"},{"id":"2287565","latitude":"48.10000000","longitude":"17.48333330","name":"Vojtechovce"},{"id":"2287567","latitude":"48.16666670","longitude":"17.36666670","name":"Vok"},{"id":"2287582","latitude":"48.15000000","longitude":"17.21666670","name":"Vrakuna"},{"id":"2287583","latitude":"47.95000000","longitude":"17.60000000","name":"Vrakun"},{"id":"2287591","latitude":"47.83333330","longitude":"17.71666670","name":"Vrbina"},{"id":"2287619","latitude":"48.01666670","longitude":"17.58333330","name":"Vydrany"},{"id":"2287762","latitude":"48.10000000","longitude":"17.23333330","name":"Waltersdorf"},{"id":"2287786","latitude":"48.23333330","longitude":"17.05000000","name":"Z\ufffdhorsk\ufffd Bystrica"},{"id":"2287839","latitude":"48.55000000","longitude":"17.03333330","name":"Z\ufffdvod"},{"id":"2287871","latitude":"48.18333330","longitude":"17.06666670","name":"Zelezna Studienka"},{"id":"2287872","latitude":"48.18333330","longitude":"17.06666670","name":"Zelezna"},{"id":"2287886","latitude":"47.80000000","longitude":"17.86666670","name":"Zemianska Olca"},{"id":"2287932","latitude":"47.76666670","longitude":"17.96666670","name":"Zlatn\ufffd na Ostrove"},{"id":"2287947","latitude":"48.18333330","longitude":"17.38333330","name":"Zoncturen"}]