[{"id":"2307209","latitude":"2.10000000","longitude":"45.46666670","name":"Caddey"},{"id":"2307492","latitude":"2.10000000","longitude":"45.40000000","name":"Colomat"},{"id":"2307595","latitude":"2.13333330","longitude":"45.35000000","name":"Dabandoob"},{"id":"2308174","latitude":"2.10000000","longitude":"45.46666670","name":"El Adda"},{"id":"2308730","latitude":"2.06666670","longitude":"45.26666670","name":"Garas Balley"},{"id":"2308992","latitude":"2.15000000","longitude":"45.38333330","name":"Godomei"},{"id":"2309147","latitude":"2.15000000","longitude":"45.40000000","name":"Guddo"},{"id":"2309296","latitude":"2.06666670","longitude":"45.36666670","name":"Hamar"},{"id":"2310292","latitude":"2.06666670","longitude":"45.36666670","name":"Magadiscio"},{"id":"2310378","latitude":"2.06666670","longitude":"45.36666670","name":"Maqdishu"},{"id":"2310570","latitude":"2.06666670","longitude":"45.36666670","name":"Mogadiisho"},{"id":"2310571","latitude":"2.06666670","longitude":"45.36666670","name":"Mogadiscio"},{"id":"2310572","latitude":"2.06666670","longitude":"45.36666670","name":"Mogadish"},{"id":"2310573","latitude":"2.06666670","longitude":"45.36666670","name":"Mogadisho"},{"id":"2310574","latitude":"2.06666670","longitude":"45.36666670","name":"Mogadishu"},{"id":"2310655","latitude":"2.06666670","longitude":"45.36666670","name":"Muqdisho"},{"id":"2310656","latitude":"2.06666670","longitude":"45.36666670","name":"Muqdishow"},{"id":"2310657","latitude":"2.06666670","longitude":"45.36666670","name":"Muqdishu"},{"id":"2310713","latitude":"1.96666670","longitude":"45.20000000","name":"Nimoow"},{"id":"2311146","latitude":"2.15000000","longitude":"45.46666670","name":"Scidle"},{"id":"2311823","latitude":"2.06666670","longitude":"45.36666670","name":"Xamar"}]