[{"id":"2312934","latitude":"13.86916670","longitude":"-89.25777780","name":"Agua Caliente"},{"id":"2312943","latitude":"13.83083330","longitude":"-89.35083330","name":"Agua Escondida"},{"id":"2312995","latitude":"13.73333330","longitude":"-89.26666670","name":"Alvares"},{"id":"2312996","latitude":"13.73333330","longitude":"-89.26666670","name":"\ufffdlvarez"},{"id":"2312999","latitude":"13.58333330","longitude":"-89.25000000","name":"Amaquilco"},{"id":"2313034","latitude":"13.67305560","longitude":"-89.24083330","name":"Antiguo Cuscatl\ufffdn"},{"id":"2313051","latitude":"13.53333330","longitude":"-89.53333330","name":"Argentina"},{"id":"2313060","latitude":"13.73333330","longitude":"-89.43333330","name":"Ateos"},{"id":"2313062","latitude":"14.01666670","longitude":"-89.28333330","name":"Atiocoyo"},{"id":"2313065","latitude":"13.63750000","longitude":"-89.28777780","name":"Ayagualo"},{"id":"2313085","latitude":"13.55000000","longitude":"-89.25000000","name":"Banco"},{"id":"2313086","latitude":"13.85000000","longitude":"-89.28333330","name":"Ba\ufffdos La Toma"},{"id":"2313092","latitude":"13.90138890","longitude":"-89.35861110","name":"Barranca Honda"},{"id":"2313108","latitude":"13.71666670","longitude":"-89.43333330","name":"Beneficio Curazao"},{"id":"2313110","latitude":"13.60000000","longitude":"-89.38333330","name":"Beneficio El Pe\ufffd\ufffdn"},{"id":"2313111","latitude":"13.68333330","longitude":"-89.38333330","name":"Beneficio La Quebrada"},{"id":"2313113","latitude":"13.68333330","longitude":"-89.38333330","name":"Beneficio Las Quebradas"},{"id":"2313114","latitude":"13.55000000","longitude":"-89.46666670","name":"Beneficio Las Term\ufffdpilas"},{"id":"2313117","latitude":"13.55000000","longitude":"-89.46666670","name":"Beneficio Term\ufffdpilas"},{"id":"2313121","latitude":"13.82944440","longitude":"-89.34444440","name":"Boca Tronadora"},{"id":"2313129","latitude":"13.73333330","longitude":"-89.35000000","name":"Botoncillal"},{"id":"2313136","latitude":"13.71666670","longitude":"-89.48333330","name":"Buena Vista"},{"id":"2313144","latitude":"13.53277780","longitude":"-89.38583330","name":"Buenos Aires"},{"id":"2313176","latitude":"13.99777780","longitude":"-89.37722220","name":"Campana"},{"id":"2313183","latitude":"13.82305560","longitude":"-89.42583330","name":"Ca\ufffda de Tarro"},{"id":"2313205","latitude":"13.46583330","longitude":"-89.17944440","name":"Cangrejera"},{"id":"2313211","latitude":"13.89638890","longitude":"-89.44027780","name":"Canterillas"},{"id":"2313221","latitude":"13.73333330","longitude":"-89.26666670","name":"Cant\ufffdn \ufffdlvarez"},{"id":"2313229","latitude":"13.70000000","longitude":"-89.28333330","name":"Cant\ufffdn Buena Vista"},{"id":"2313242","latitude":"13.83333330","longitude":"-89.40333330","name":"Cant\ufffdn Conacaste"},{"id":"2313279","latitude":"14.01666670","longitude":"-89.36666670","name":"Cant\ufffdn El Tr\ufffdnsito"},{"id":"2313300","latitude":"13.82777780","longitude":"-89.42500000","name":"Cant\ufffdn La Reforma"},{"id":"2313307","latitude":"13.57083330","longitude":"-89.34638890","name":"Cant\ufffdn La Shila"},{"id":"2313311","latitude":"13.99166670","longitude":"-89.33055560","name":"Cant\ufffdn Las Mesas"},{"id":"2313322","latitude":"13.73222220","longitude":"-89.37416670","name":"Cant\ufffdn Lourdes"},{"id":"2313324","latitude":"13.78111110","longitude":"-89.28111110","name":"Cant\ufffdn Macance"},{"id":"2313330","latitude":"13.97694440","longitude":"-89.39194440","name":"Cant\ufffdn Mogotes"},{"id":"2313355","latitude":"13.70000000","longitude":"-89.30000000","name":"Canton Quequeisque"},{"id":"2313383","latitude":"13.58333330","longitude":"-89.48333330","name":"Cant\ufffdn Santa Luc\ufffda"},{"id":"2313396","latitude":"13.71583330","longitude":"-89.30111110","name":"Cant\ufffdn Victoria"},{"id":"2313398","latitude":"13.60000000","longitude":"-89.38333330","name":"Canton y Beneficio El Pe\ufffd\ufffdn"},{"id":"2313451","latitude":"13.53333330","longitude":"-89.53333330","name":"Caser\ufffdo Comayan"},{"id":"2313461","latitude":"13.57472220","longitude":"-89.54972220","name":"Caser\ufffdo El \ufffdngel"},{"id":"2313463","latitude":"13.55000000","longitude":"-89.25000000","name":"Caser\ufffdo El Banco"},{"id":"2313504","latitude":"13.48333330","longitude":"-89.23333330","name":"Caser\ufffdo El Pulido"},{"id":"2313517","latitude":"13.71666670","longitude":"-89.41666670","name":"Caser\ufffdo El Tr\ufffdnsito"},{"id":"2313519","latitude":"13.99333330","longitude":"-89.38972220","name":"Caser\ufffdo El Zope"},{"id":"2313536","latitude":"13.57083330","longitude":"-89.34638890","name":"Caser\ufffdo La Chila"},{"id":"2313553","latitude":"13.97222220","longitude":"-89.27138890","name":"Caser\ufffdo Las Cerezas"},{"id":"2313569","latitude":"13.56166670","longitude":"-89.46972220","name":"Caser\ufffdo Las Term\ufffdpilas"},{"id":"2313571","latitude":"13.98333330","longitude":"-89.38333330","name":"Caser\ufffdo Lima"},{"id":"2313597","latitude":"13.96250000","longitude":"-89.38222220","name":"Caser\ufffdo Moncagua"},{"id":"2313621","latitude":"13.48444440","longitude":"-89.24500000","name":"Caser\ufffdo San Diego"},{"id":"2313641","latitude":"13.48333330","longitude":"-89.20000000","name":"Caser\ufffdo Santa Cruz"},{"id":"2313646","latitude":"13.58333330","longitude":"-89.48333330","name":"Caser\ufffdo Santa Luc\ufffda"},{"id":"2313660","latitude":"13.80416670","longitude":"-89.43333330","name":"Caser\ufffdo Veracruz"},{"id":"2313670","latitude":"13.68333330","longitude":"-89.25000000","name":"Ceiba de Guadalupe"},{"id":"2313677","latitude":"13.48333330","longitude":"-89.20000000","name":"Cerco de Piedra"},{"id":"2313712","latitude":"13.78722220","longitude":"-89.35638890","name":"Chanmico"},{"id":"2313713","latitude":"13.88666670","longitude":"-89.38277780","name":"Chantusnene"},{"id":"2313729","latitude":"13.84027780","longitude":"-89.44722220","name":"Chilamatal"},{"id":"2313743","latitude":"13.59055560","longitude":"-89.46888890","name":"Chiltiup\ufffdn"},{"id":"2313772","latitude":"13.84027780","longitude":"-89.44722220","name":"Ciudad Arce"},{"id":"2313774","latitude":"13.67694440","longitude":"-89.27972220","name":"Ciudad de Nueva San Salvador"},{"id":"2313776","latitude":"13.49861110","longitude":"-89.41972220","name":"Club Atami"},{"id":"2313784","latitude":"13.72666670","longitude":"-89.36888890","name":"Col\ufffdn"},{"id":"2313801","latitude":"13.81944440","longitude":"-89.36361110","name":"Colonia Joya de Cer\ufffdn"},{"id":"2313803","latitude":"13.68333330","longitude":"-89.31666670","name":"Colonia Las Delicias"},{"id":"2313811","latitude":"13.82944440","longitude":"-89.27722220","name":"Colonia Palmira"},{"id":"2313815","latitude":"13.82722220","longitude":"-89.26972220","name":"Colonia San Judas"},{"id":"2313817","latitude":"13.78638890","longitude":"-89.37277780","name":"Colonia Sitio del Ni\ufffdo"},{"id":"2313825","latitude":"13.63916670","longitude":"-89.37833330","name":"Comasagua"},{"id":"2313826","latitude":"13.53333330","longitude":"-89.53333330","name":"Comayl\ufffdn"},{"id":"2313830","latitude":"13.77500000","longitude":"-89.32916670","name":"Conacaste"},{"id":"2313865","latitude":"13.75194440","longitude":"-89.47111110","name":"Copapayo"},{"id":"2313899","latitude":"13.61666670","longitude":"-89.45000000","name":"Cuervo Abajo"},{"id":"2313900","latitude":"13.63333330","longitude":"-89.46666670","name":"Cuervo Arriba"},{"id":"2313915","latitude":"13.71666670","longitude":"-89.43333330","name":"Curazao"},{"id":"2313921","latitude":"13.71666670","longitude":"-89.38333330","name":"Cuyagualo"},{"id":"2313986","latitude":"13.57472220","longitude":"-89.54972220","name":"El \ufffdngel"},{"id":"2313989","latitude":"13.94138890","longitude":"-89.35055560","name":"El Angel Talcualhuya"},{"id":"2313990","latitude":"13.94138890","longitude":"-89.35055560","name":"El \ufffdngel Talcualuya"},{"id":"2314005","latitude":"13.61500000","longitude":"-89.28722220","name":"El Barillo"},{"id":"2314017","latitude":"13.73333330","longitude":"-89.35000000","name":"El Botoncillal"},{"id":"2314037","latitude":"13.82527780","longitude":"-89.25472220","name":"El Cambio"},{"id":"2314044","latitude":"13.71666670","longitude":"-89.36666670","name":"El Capul\ufffdn"},{"id":"2314063","latitude":"13.77000000","longitude":"-89.33833330","name":"El Carmen"},{"id":"2314088","latitude":"13.91111110","longitude":"-89.43972220","name":"El Castillo"},{"id":"2314101","latitude":"13.82027780","longitude":"-89.26888890","name":"El Cerrito"},{"id":"2314104","latitude":"13.94555560","longitude":"-89.47861110","name":"El Cerro"},{"id":"2314127","latitude":"13.84027780","longitude":"-89.44722220","name":"El Chilamatal"},{"id":"2314132","latitude":"13.82666670","longitude":"-89.35222220","name":"El Chilar"},{"id":"2314146","latitude":"13.83444440","longitude":"-89.35250000","name":"El Chorrer\ufffdn"},{"id":"2314151","latitude":"13.53333330","longitude":"-89.29638890","name":"El Cimarr\ufffdn"},{"id":"2314158","latitude":"13.71666670","longitude":"-89.33333330","name":"El Cobanal"},{"id":"2314169","latitude":"13.77500000","longitude":"-89.32916670","name":"El Conacastal"},{"id":"2314172","latitude":"13.61250000","longitude":"-89.35138890","name":"El Conacaste"},{"id":"2314205","latitude":"13.61666670","longitude":"-89.43333330","name":"El Cuervo"},{"id":"2314237","latitude":"13.85388890","longitude":"-89.42333330","name":"El Espinal"},{"id":"2314242","latitude":"13.68333330","longitude":"-89.25000000","name":"El Espino"},{"id":"2314249","latitude":"13.59166670","longitude":"-89.35694440","name":"El Faro"},{"id":"2314263","latitude":"13.70000000","longitude":"-89.50000000","name":"El Guamo"},{"id":"2314304","latitude":"13.76444440","longitude":"-89.30250000","name":"El Jabal\ufffd"},{"id":"2314305","latitude":"13.75833330","longitude":"-89.34361110","name":"El Jabalincito"},{"id":"2314314","latitude":"13.87000000","longitude":"-89.31333330","name":"El J\ufffdcaro"},{"id":"2314334","latitude":"13.91444440","longitude":"-89.28111110","name":"El Jocote"},{"id":"2314340","latitude":"13.52944440","longitude":"-89.46277780","name":"El Julupe"},{"id":"2314367","latitude":"13.71666670","longitude":"-89.40000000","name":"El Lim\ufffdn"},{"id":"2314376","latitude":"13.49416670","longitude":"-89.36805560","name":"El Majagual"},{"id":"2314377","latitude":"13.49416670","longitude":"-89.36805560","name":"El Majahual"},{"id":"2314381","latitude":"13.70000000","longitude":"-89.31666670","name":"El Manguito"},{"id":"2314392","latitude":"13.61666670","longitude":"-89.28333330","name":"El Matazano"},{"id":"2314405","latitude":"13.66666670","longitude":"-89.50000000","name":"El Moj\ufffdn"},{"id":"2314440","latitude":"13.53333330","longitude":"-89.55000000","name":"El N\ufffdspero"},{"id":"2314461","latitude":"13.53333330","longitude":"-89.41666670","name":"El Palmar"},{"id":"2314466","latitude":"13.51666670","longitude":"-89.25000000","name":"El Palomar"},{"id":"2314476","latitude":"14.05000000","longitude":"-89.31666670","name":"El Papaturral"},{"id":"2314494","latitude":"13.60000000","longitude":"-89.38333330","name":"El Pe\ufffd\ufffdn"},{"id":"2314516","latitude":"13.61666670","longitude":"-89.45000000","name":"El Pinal"},{"id":"2314539","latitude":"13.94777780","longitude":"-89.36333330","name":"El Portillo"},{"id":"2314559","latitude":"13.73833330","longitude":"-89.26944440","name":"El Progreso"},{"id":"2314564","latitude":"13.83277780","longitude":"-89.28555560","name":"El Puente"},{"id":"2314568","latitude":"13.48333330","longitude":"-89.23333330","name":"El Pulido"},{"id":"2314572","latitude":"13.70000000","longitude":"-89.30000000","name":"El Quequeishque"},{"id":"2314573","latitude":"13.70000000","longitude":"-89.30000000","name":"El Quequeisque"},{"id":"2314580","latitude":"13.53333330","longitude":"-89.45000000","name":"El Regad\ufffdo"},{"id":"2314605","latitude":"13.64083330","longitude":"-89.35250000","name":"El Rosario"},{"id":"2314616","latitude":"13.69777780","longitude":"-89.48833330","name":"El Sacamil"},{"id":"2314617","latitude":"13.63333330","longitude":"-89.31666670","name":"El Sacazil"},{"id":"2314642","latitude":"13.82694440","longitude":"-89.27777780","name":"El Se\ufffdor"},{"id":"2314650","latitude":"13.89194440","longitude":"-89.27277780","name":"El Sitio de los Nejapas"},{"id":"2314665","latitude":"13.50000000","longitude":"-89.38333330","name":"El Sunzal"},{"id":"2314666","latitude":"14.05000000","longitude":"-89.31666670","name":"El Tablazo"},{"id":"2314671","latitude":"13.53333330","longitude":"-89.36666670","name":"El Tabl\ufffdn"},{"id":"2314693","latitude":"13.60000000","longitude":"-89.46666670","name":"El Tecolote"},{"id":"2314711","latitude":"13.85055560","longitude":"-89.46916670","name":"El Tinteral"},{"id":"2314721","latitude":"13.71666670","longitude":"-89.41666670","name":"El Tr\ufffdnsito"},{"id":"2314730","latitude":"13.58333330","longitude":"-89.31666670","name":"El Triunfo"},{"id":"2314752","latitude":"13.69777780","longitude":"-89.48833330","name":"El Zacamil"},{"id":"2314768","latitude":"13.91750000","longitude":"-89.44666670","name":"El Zapote"},{"id":"2314782","latitude":"13.50000000","longitude":"-89.43333330","name":"El Zonte"},{"id":"2314784","latitude":"13.99333330","longitude":"-89.38972220","name":"El Zope"},{"id":"2314789","latitude":"13.50000000","longitude":"-89.38333330","name":"El Zunzal"},{"id":"2314792","latitude":"13.74472220","longitude":"-89.40888890","name":"Entre R\ufffdos"},{"id":"2314811","latitude":"13.70000000","longitude":"-89.28333330","name":"Finca Buenavista"},{"id":"2314816","latitude":"13.68333330","longitude":"-89.25000000","name":"Finca El Espino"},{"id":"2314818","latitude":"13.61666670","longitude":"-89.36666670","name":"Finca El Ranch\ufffdn"},{"id":"2314823","latitude":"13.65000000","longitude":"-89.46666670","name":"Finca La Marina"},{"id":"2314826","latitude":"13.86388890","longitude":"-89.43944440","name":"Finca Las Cruces"},{"id":"2314827","latitude":"13.68333330","longitude":"-89.48333330","name":"Finca Las Mercedes"},{"id":"2314830","latitude":"13.66666670","longitude":"-89.48333330","name":"Finca Las Tinieblas"},{"id":"2314841","latitude":"13.66666670","longitude":"-89.26666670","name":"Finca Santa Elena"},{"id":"2314846","latitude":"13.68333330","longitude":"-89.25000000","name":"Finca y Beneficio el Espino"},{"id":"2314861","latitude":"13.87222220","longitude":"-89.25694440","name":"Gir\ufffdn"},{"id":"2314878","latitude":"13.53333330","longitude":"-89.30000000","name":"Guadalupe"},{"id":"2314950","latitude":"14.01666670","longitude":"-89.30000000","name":"Hacienda Atiocoyo"},{"id":"2314959","latitude":"13.46583330","longitude":"-89.17944440","name":"Hacienda Cangrejera"},{"id":"2314977","latitude":"13.73333330","longitude":"-89.36666670","name":"Hacienda Cuyagualo"},{"id":"2314979","latitude":"13.55000000","longitude":"-89.25000000","name":"Hacienda El Banco"},{"id":"2314993","latitude":"13.91444440","longitude":"-89.28111110","name":"Hacienda El Jocote"},{"id":"2314997","latitude":"13.55000000","longitude":"-89.41666670","name":"Hacienda El Palmar"},{"id":"2315001","latitude":"13.73833330","longitude":"-89.26944440","name":"Hacienda El Progreso"},{"id":"2315016","latitude":"13.91444440","longitude":"-89.28111110","name":"Hacienda Jocote"},{"id":"2315023","latitude":"13.46583330","longitude":"-89.17944440","name":"Hacienda La Cangrejera"},{"id":"2315037","latitude":"13.84916670","longitude":"-89.33972220","name":"Hacienda La Isla"},{"id":"2315044","latitude":"13.90972220","longitude":"-89.31250000","name":"Hacienda La Puebla"},{"id":"2315047","latitude":"13.93750000","longitude":"-89.28750000","name":"Hacienda Las Flores"},{"id":"2315074","latitude":"13.48333330","longitude":"-89.21666670","name":"Hacienda Melara"},{"id":"2315082","latitude":"13.73333330","longitude":"-89.40000000","name":"Hacienda Nueva"},{"id":"2315097","latitude":"13.66666670","longitude":"-89.26666670","name":"Hacienda Plan de La Laguna"},{"id":"2315101","latitude":"13.71222220","longitude":"-89.49166670","name":"Hacienda San Antonio"},{"id":"2315104","latitude":"13.56666670","longitude":"-89.40000000","name":"Hacienda San Benito"},{"id":"2315110","latitude":"13.84972220","longitude":"-89.37888890","name":"Hacienda San Felipe"},{"id":"2315115","latitude":"14.03333330","longitude":"-89.36666670","name":"Hacienda San Isidro"},{"id":"2315123","latitude":"13.92916670","longitude":"-89.38944440","name":"Hacienda San Juan Buena Vista"},{"id":"2315126","latitude":"13.86250000","longitude":"-89.33666670","name":"Hacienda San Lorenzo"},{"id":"2315153","latitude":"13.93333330","longitude":"-89.23333330","name":"Hacienda Segura"},{"id":"2315157","latitude":"13.51666670","longitude":"-89.48333330","name":"Hacienda Taquillo"},{"id":"2315158","latitude":"13.51666670","longitude":"-89.48333330","name":"Hacienda Taquio"},{"id":"2315173","latitude":"13.80472220","longitude":"-89.44888890","name":"Hacienda Zapotit\ufffdn"},{"id":"2315206","latitude":"13.58944440","longitude":"-89.23833330","name":"Huiz\ufffdcar"},{"id":"2315216","latitude":"13.81833330","longitude":"-89.40444440","name":"Ingeniero San Andr\ufffds"},{"id":"2315221","latitude":"13.81666670","longitude":"-89.40000000","name":"Ingenio San Andres"},{"id":"2315222","latitude":"13.94138890","longitude":"-89.35055560","name":"Ingenio Talcualuya"},{"id":"2315238","latitude":"13.76472220","longitude":"-89.31861110","name":"Jabal\ufffd"},{"id":"2315239","latitude":"13.77194440","longitude":"-89.33694440","name":"Jabalin\ufffdn"},{"id":"2315245","latitude":"13.67333330","longitude":"-89.43972220","name":"Jayaque"},{"id":"2315251","latitude":"13.55277780","longitude":"-89.50666670","name":"Jicalapa"},{"id":"2315255","latitude":"13.87000000","longitude":"-89.31333330","name":"J\ufffdcaro"},{"id":"2315259","latitude":"13.87222220","longitude":"-89.25694440","name":"Jir\ufffdn"},{"id":"2315277","latitude":"13.82388890","longitude":"-89.35833330","name":"Joya de Cer\ufffdn"},{"id":"2315297","latitude":"13.53333330","longitude":"-89.50000000","name":"Joya Verde"},{"id":"2315298","latitude":"13.66138890","longitude":"-89.47361110","name":"Juan Higinio"},{"id":"2315299","latitude":"13.66138890","longitude":"-89.47361110","name":"Juan Higinjo"},{"id":"2315305","latitude":"13.52944440","longitude":"-89.46277780","name":"Julupe"},{"id":"2315318","latitude":"13.74166670","longitude":"-89.33111110","name":"La Angostura"},{"id":"2315323","latitude":"13.53333330","longitude":"-89.53333330","name":"La Argentina"},{"id":"2315354","latitude":"13.46583330","longitude":"-89.17944440","name":"La Cangrejera"},{"id":"2315367","latitude":"13.68333330","longitude":"-89.25000000","name":"La Ceiba de Guadalupe"},{"id":"2315370","latitude":"13.68333330","longitude":"-89.25000000","name":"La Ceiba"},{"id":"2315381","latitude":"13.57083330","longitude":"-89.34638890","name":"La Chila"},{"id":"2315387","latitude":"13.67694440","longitude":"-89.27972220","name":"La Ciudad de Nueva San Salvador"},{"id":"2315416","latitude":"13.82722220","longitude":"-89.42416670","name":"La Cuchilla"},{"id":"2315422","latitude":"13.66138890","longitude":"-89.47361110","name":"La Cumbre"},{"id":"2315436","latitude":"13.82805560","longitude":"-89.44416670","name":"La Esperanza"},{"id":"2315469","latitude":"13.94111110","longitude":"-89.39361110","name":"Laguneta"},{"id":"2315481","latitude":"13.84916670","longitude":"-89.33972220","name":"La Isla"},{"id":"2315486","latitude":"13.70000000","longitude":"-89.46666670","name":"La Jabilla"},{"id":"2315490","latitude":"13.70000000","longitude":"-89.46666670","name":"La Jav\ufffda"},{"id":"2315495","latitude":"13.88277780","longitude":"-89.29861110","name":"La Joya"},{"id":"2315505","latitude":"13.83111110","longitude":"-89.44722220","name":"La Joyita"},{"id":"2315507","latitude":"13.70000000","longitude":"-89.41666670","name":"La Labor"},{"id":"2315511","latitude":"13.66666670","longitude":"-89.25000000","name":"La Laguna"},{"id":"2315523","latitude":"13.48833330","longitude":"-89.32222220","name":"La Libertad"},{"id":"2315525","latitude":"13.58333330","longitude":"-89.25000000","name":"La Lima"},{"id":"2315528","latitude":"13.90000000","longitude":"-89.31277780","name":"La Loma"},{"id":"2315552","latitude":"13.73333330","longitude":"-89.45000000","name":"La Monta\ufffdita"},{"id":"2315558","latitude":"13.86222220","longitude":"-89.41000000","name":"La Nueva Encarnaci\ufffdn"},{"id":"2315581","latitude":"13.53333330","longitude":"-89.51666670","name":"La Perla"},{"id":"2315599","latitude":"13.81777780","longitude":"-89.29833330","name":"La Primavera"},{"id":"2315601","latitude":"13.90972220","longitude":"-89.31250000","name":"La Puebla"},{"id":"2315603","latitude":"13.66666670","longitude":"-89.25000000","name":"La Puerta de La Laguna"},{"id":"2315618","latitude":"13.82777780","longitude":"-89.42500000","name":"La Reforma"},{"id":"2315626","latitude":"13.87277780","longitude":"-89.44083330","name":"Las Acosta"},{"id":"2315631","latitude":"13.74166670","longitude":"-89.33111110","name":"Las Angosturas"},{"id":"2315636","latitude":"13.94583330","longitude":"-89.31527780","name":"Las Anonas"},{"id":"2315643","latitude":"13.74916670","longitude":"-89.31055560","name":"Las Brisas"},{"id":"2315660","latitude":"13.97222220","longitude":"-89.27138890","name":"Las Cerezas"},{"id":"2315672","latitude":"13.86388890","longitude":"-89.43944440","name":"Las Cruces"},{"id":"2315686","latitude":"13.68333330","longitude":"-89.31666670","name":"Las Delicias"},{"id":"2315692","latitude":"13.58833330","longitude":"-89.27083330","name":"Las Dispensas"},{"id":"2315694","latitude":"13.63583330","longitude":"-89.46472220","name":"Las Flores"},{"id":"2315701","latitude":"13.61666670","longitude":"-89.30000000","name":"Las Granadillas"},{"id":"2315707","latitude":"13.57083330","longitude":"-89.34638890","name":"La Shila"},{"id":"2315729","latitude":"13.82805560","longitude":"-89.38805560","name":"Las Lomas"},{"id":"2315735","latitude":"13.96833330","longitude":"-89.29277780","name":"Las Mar\ufffdas"},{"id":"2315742","latitude":"13.68333330","longitude":"-89.48333330","name":"Las Mercedes"},{"id":"2315746","latitude":"13.99166670","longitude":"-89.33055560","name":"Las Mesas"},{"id":"2315756","latitude":"13.71666670","longitude":"-89.35000000","name":"Las Moras"},{"id":"2315762","latitude":"13.89333330","longitude":"-89.34555560","name":"Las Palmeras"},{"id":"2315782","latitude":"13.68333330","longitude":"-89.38333330","name":"Las Quebradas"},{"id":"2315797","latitude":"13.55000000","longitude":"-89.46666670","name":"Las Term\ufffdpilas"},{"id":"2315802","latitude":"13.66666670","longitude":"-89.48333330","name":"Las Tinieblas"},{"id":"2315810","latitude":"13.96666670","longitude":"-89.36666670","name":"Las Tunas"},{"id":"2315819","latitude":"13.71583330","longitude":"-89.30111110","name":"Las Victorias"},{"id":"2315827","latitude":"13.85000000","longitude":"-89.28333330","name":"La Toma"},{"id":"2315854","latitude":"13.98333330","longitude":"-89.38333330","name":"Lima"},{"id":"2315894","latitude":"13.90472220","longitude":"-89.40250000","name":"Loma Alta"},{"id":"2315910","latitude":"13.82972220","longitude":"-89.37694440","name":"Loma de Santiago"},{"id":"2315911","latitude":"13.87861110","longitude":"-89.25305560","name":"Loma El Espino"},{"id":"2315915","latitude":"13.68333330","longitude":"-89.36666670","name":"Loma Larga"},{"id":"2315923","latitude":"13.89666670","longitude":"-89.40583330","name":"Lomas del Copinol"},{"id":"2315926","latitude":"13.82972220","longitude":"-89.37694440","name":"Lomas de Santiago"},{"id":"2315931","latitude":"13.87277780","longitude":"-89.44083330","name":"Los Acosta"},{"id":"2315932","latitude":"13.87277780","longitude":"-89.44083330","name":"Los Acostas"},{"id":"2315934","latitude":"13.71666670","longitude":"-89.45000000","name":"Los Alpes"},{"id":"2315939","latitude":"13.67916670","longitude":"-89.34500000","name":"Los Amates"},{"id":"2315947","latitude":"13.74166670","longitude":"-89.33111110","name":"Los Angostures"},{"id":"2315973","latitude":"13.66666670","longitude":"-89.41666670","name":"Los Cipreses"},{"id":"2315980","latitude":"14.01666670","longitude":"-89.28333330","name":"Los Dos Cerros"},{"id":"2316014","latitude":"13.63333330","longitude":"-89.53333330","name":"Los Isotes"},{"id":"2316015","latitude":"13.63333330","longitude":"-89.53333330","name":"Los Izotes"},{"id":"2316021","latitude":"13.70361110","longitude":"-89.41222220","name":"Los Laureles"},{"id":"2316051","latitude":"13.97694440","longitude":"-89.39194440","name":"Los Mogotes"},{"id":"2316071","latitude":"13.53333330","longitude":"-89.31666670","name":"Los Pajales"},{"id":"2316073","latitude":"13.89333330","longitude":"-89.34555560","name":"Los Palmitos"},{"id":"2316123","latitude":"13.70000000","longitude":"-89.41666670","name":"Los Sitios"},{"id":"2316147","latitude":"13.73222220","longitude":"-89.37416670","name":"Lourdes"},{"id":"2316149","latitude":"13.78111110","longitude":"-89.28111110","name":"Macance"},{"id":"2316155","latitude":"13.88333330","longitude":"-89.33444440","name":"Majada"},{"id":"2316172","latitude":"13.88333330","longitude":"-89.33444440","name":"Masajapa"},{"id":"2316184","latitude":"13.88333330","longitude":"-89.33444440","name":"Mazajapa"},{"id":"2316192","latitude":"13.48333330","longitude":"-89.21666670","name":"Melara"},{"id":"2316197","latitude":"13.88833330","longitude":"-89.25472220","name":"Mercedes"},{"id":"2316208","latitude":"13.86000000","longitude":"-89.38722220","name":"Minas de Plomo"},{"id":"2316209","latitude":"13.69750000","longitude":"-89.44333330","name":"Minas"},{"id":"2316231","latitude":"13.52861110","longitude":"-89.58722220","name":"Mizata"},{"id":"2316232","latitude":"13.97694440","longitude":"-89.39194440","name":"Mogotes"},{"id":"2316240","latitude":"13.96250000","longitude":"-89.38222220","name":"Moncagua"},{"id":"2316300","latitude":"13.60000000","longitude":"-89.26666670","name":"Nazareth"},{"id":"2316301","latitude":"13.60000000","longitude":"-89.26666670","name":"Nazaret"},{"id":"2316304","latitude":"13.89194440","longitude":"-89.27277780","name":"Nejapa"},{"id":"2316309","latitude":"13.91777780","longitude":"-89.41638890","name":"Nombre de Dios"},{"id":"2316327","latitude":"13.73333330","longitude":"-89.40000000","name":"Nueva"},{"id":"2316328","latitude":"13.67694440","longitude":"-89.27972220","name":"Nueva San Salvador"},{"id":"2316330","latitude":"13.64861110","longitude":"-89.26527780","name":"Nuevo Cuscatl\ufffdn"},{"id":"2316336","latitude":"13.94777780","longitude":"-89.30916670","name":"Obraje Nuevo"},{"id":"2316354","latitude":"13.60416670","longitude":"-89.24277780","name":"Ojo de Agua"},{"id":"2316361","latitude":"13.60416670","longitude":"-89.24277780","name":"Ojos de Agua"},{"id":"2316371","latitude":"13.87611110","longitude":"-89.35972220","name":"Opico"},{"id":"2316389","latitude":"13.89333330","longitude":"-89.34555560","name":"Palmeras"},{"id":"2316484","latitude":"13.85000000","longitude":"-89.28333330","name":"Piscina La Toma"},{"id":"2316491","latitude":"13.66666670","longitude":"-89.26666670","name":"Plan de la Laguna"},{"id":"2316516","latitude":"13.85833330","longitude":"-89.26000000","name":"Platanillos"},{"id":"2316567","latitude":"13.81777780","longitude":"-89.29833330","name":"Primavera"},{"id":"2316579","latitude":"13.66666670","longitude":"-89.25000000","name":"Puerta de la Laguna"},{"id":"2316583","latitude":"13.77972220","longitude":"-89.48666670","name":"Puerto Arturo"},{"id":"2316588","latitude":"13.48833330","longitude":"-89.32222220","name":"Puerto La Libertad"},{"id":"2316607","latitude":"13.70000000","longitude":"-89.30000000","name":"Quequeisque"},{"id":"2316618","latitude":"13.83500000","longitude":"-89.27444440","name":"Quezaltepeque"},{"id":"2316619","latitude":"13.83500000","longitude":"-89.27444440","name":"Quezaltepque"},{"id":"2316626","latitude":"13.79666670","longitude":"-89.42555560","name":"Rancho Gracar"},{"id":"2316628","latitude":"13.82777780","longitude":"-89.42500000","name":"Reforma"},{"id":"2316644","latitude":"13.80833330","longitude":"-89.37250000","name":"R\ufffdo Sucio"},{"id":"2316645","latitude":"13.55611110","longitude":"-89.42138890","name":"R\ufffdo Tamanique"},{"id":"2316674","latitude":"13.73638890","longitude":"-89.47194440","name":"Sacacoyo"},{"id":"2316675","latitude":"13.69777780","longitude":"-89.48833330","name":"Sacamil"},{"id":"2316699","latitude":"13.95055560","longitude":"-89.29416670","name":"San Agust\ufffdn"},{"id":"2316703","latitude":"13.53333330","longitude":"-89.38333330","name":"San Alfonso"},{"id":"2316704","latitude":"13.46666670","longitude":"-89.16666670","name":"San Alfredo"},{"id":"2316709","latitude":"13.81666670","longitude":"-89.40000000","name":"San Andr\ufffds"},{"id":"2316748","latitude":"13.55000000","longitude":"-89.48333330","name":"San Antonio"},{"id":"2316771","latitude":"13.56666670","longitude":"-89.40000000","name":"San Benito"},{"id":"2316779","latitude":"13.66666670","longitude":"-89.40000000","name":"San Carlos"},{"id":"2316797","latitude":"13.48444440","longitude":"-89.24500000","name":"San Diego"},{"id":"2316802","latitude":"13.51666670","longitude":"-89.25000000","name":"San Dieguito"},{"id":"2316807","latitude":"13.65000000","longitude":"-89.40000000","name":"San Emilio"},{"id":"2316808","latitude":"13.65000000","longitude":"-89.40000000","name":"San Emillo"},{"id":"2316813","latitude":"13.84972220","longitude":"-89.37888890","name":"San Felipe"},{"id":"2316834","latitude":"13.63333330","longitude":"-89.36666670","name":"San Francisco El Potrer\ufffdn"},{"id":"2316843","latitude":"13.63333330","longitude":"-89.36666670","name":"San Francisco Potrer\ufffdn"},{"id":"2316844","latitude":"13.81250000","longitude":"-89.27416670","name":"San Francisco Realengua"},{"id":"2316845","latitude":"13.81250000","longitude":"-89.27416670","name":"San Francisco Rialengua"},{"id":"2316849","latitude":"13.54472220","longitude":"-89.29638890","name":"San Francisco"},{"id":"2316860","latitude":"13.93805560","longitude":"-89.29611110","name":"San Ignacio"},{"id":"2316867","latitude":"13.73333330","longitude":"-89.26666670","name":"San Isidro Los Planes"},{"id":"2316870","latitude":"13.58333330","longitude":"-89.45000000","name":"San Isidro"},{"id":"2316894","latitude":"13.96055560","longitude":"-89.30111110","name":"San Jorge"},{"id":"2316921","latitude":"13.66666670","longitude":"-89.35000000","name":"San Jos\ufffd El Porvenir"},{"id":"2316922","latitude":"13.55000000","longitude":"-89.50000000","name":"San Jos\ufffd El Tabl\ufffdn"},{"id":"2316928","latitude":"13.94694440","longitude":"-89.39361110","name":"San Jos\ufffd La Cueva"},{"id":"2316941","latitude":"13.70000000","longitude":"-89.41666670","name":"San Jos\ufffd Los Sitios"},{"id":"2316963","latitude":"13.57805560","longitude":"-89.26527780","name":"San Jos\ufffd Villanueva"},{"id":"2316968","latitude":"13.53527780","longitude":"-89.24500000","name":"San Juan Buena Vista"},{"id":"2316987","latitude":"13.75944440","longitude":"-89.27138890","name":"San Juan Los Planes"},{"id":"2316992","latitude":"13.87611110","longitude":"-89.35972220","name":"San Juan Opico"},{"id":"2316997","latitude":"13.53527780","longitude":"-89.24500000","name":"San Juan"},{"id":"2317015","latitude":"13.86250000","longitude":"-89.33666670","name":"San Lorenzo"},{"id":"2317030","latitude":"13.93194440","longitude":"-89.47750000","name":"San Luis Potos\ufffd"},{"id":"2317032","latitude":"13.61666670","longitude":"-89.35000000","name":"San Luis"},{"id":"2317043","latitude":"13.60000000","longitude":"-89.51666670","name":"San Marcos"},{"id":"2317052","latitude":"13.88694440","longitude":"-89.31750000","name":"San Mat\ufffdas"},{"id":"2317069","latitude":"13.87277780","longitude":"-89.38805560","name":"San Nicol\ufffds La Encarnaci\ufffdn"},{"id":"2317071","latitude":"13.84611110","longitude":"-89.36694440","name":"San Nicol\ufffds Los Encuentros"},{"id":"2317082","latitude":"13.97555560","longitude":"-89.34000000","name":"San Pablo Tacachico"},{"id":"2317085","latitude":"13.82444440","longitude":"-89.34388890","name":"San Pedro Las Flores"},{"id":"2317086","latitude":"13.89666670","longitude":"-89.39416670","name":"San Pedro M\ufffdrtir"},{"id":"2317090","latitude":"13.87194440","longitude":"-89.34083330","name":"San Pedro Oriente"},{"id":"2317095","latitude":"13.87194440","longitude":"-89.34083330","name":"San Pedro"},{"id":"2317113","latitude":"13.51666670","longitude":"-89.33333330","name":"San Rafael"},{"id":"2317143","latitude":"13.60000000","longitude":"-89.30000000","name":"San Sebasti\ufffdn"},{"id":"2317185","latitude":"13.48333330","longitude":"-89.20000000","name":"Santa Cruz"},{"id":"2317194","latitude":"13.66666670","longitude":"-89.26666670","name":"Santa Elena"},{"id":"2317214","latitude":"13.58333330","longitude":"-89.48333330","name":"Santa Luc\ufffda"},{"id":"2317223","latitude":"13.55000000","longitude":"-89.56666670","name":"Santa Mar\ufffda Mizata"},{"id":"2317225","latitude":"13.57083330","longitude":"-89.34638890","name":"Santa Maria"},{"id":"2317240","latitude":"13.83000000","longitude":"-89.26166670","name":"Santa Rosa"},{"id":"2317248","latitude":"13.67694440","longitude":"-89.27972220","name":"Santa Tecla"},{"id":"2317250","latitude":"13.88138890","longitude":"-89.30916670","name":"Santa Teresa"},{"id":"2317280","latitude":"13.93333330","longitude":"-89.23333330","name":"Segura"},{"id":"2317291","latitude":"13.56666670","longitude":"-89.45000000","name":"Siberia"},{"id":"2317297","latitude":"13.56666670","longitude":"-89.56666670","name":"Siguapilapa"},{"id":"2317299","latitude":"13.56666670","longitude":"-89.56666670","name":"Sihuapilapa"},{"id":"2317309","latitude":"13.89194440","longitude":"-89.27277780","name":"Sitio del Ni\ufffdo de los Nejapas"},{"id":"2317310","latitude":"13.80666670","longitude":"-89.35833330","name":"Sitio del Ni\ufffdo"},{"id":"2317311","latitude":"13.89194440","longitude":"-89.27277780","name":"Sitio de Los Nejapa"},{"id":"2317319","latitude":"14.05000000","longitude":"-89.31666670","name":"Sitio el Tablaso"},{"id":"2317320","latitude":"14.05000000","longitude":"-89.31666670","name":"Sitio El Tablazo"},{"id":"2317322","latitude":"13.78333330","longitude":"-89.33166670","name":"Sitio Grande"},{"id":"2317330","latitude":"13.95055560","longitude":"-89.29416670","name":"Sitio San Agust\ufffdn"},{"id":"2317353","latitude":"13.56666670","longitude":"-89.56666670","name":"Suhuapilapa"},{"id":"2317379","latitude":"13.91500000","longitude":"-89.26194440","name":"Tacachico"},{"id":"2317390","latitude":"13.94138890","longitude":"-89.35055560","name":"Talcualuya"},{"id":"2317391","latitude":"13.66694440","longitude":"-89.40916670","name":"Talnique"},{"id":"2317404","latitude":"13.59833330","longitude":"-89.42027780","name":"Tamanique"},{"id":"2317419","latitude":"13.51666670","longitude":"-89.48333330","name":"Taquillo"},{"id":"2317420","latitude":"13.51666670","longitude":"-89.48333330","name":"Taquio"},{"id":"2317421","latitude":"13.57305560","longitude":"-89.40777780","name":"Tarpeya"},{"id":"2317424","latitude":"13.60000000","longitude":"-89.46666670","name":"Tecolote"},{"id":"2317435","latitude":"13.90555560","longitude":"-89.37138890","name":"Tehuicho"},{"id":"2317446","latitude":"13.58527780","longitude":"-89.51833330","name":"Teotepeque"},{"id":"2317448","latitude":"13.51666670","longitude":"-89.30000000","name":"Tepeagua"},{"id":"2317450","latitude":"13.70027780","longitude":"-89.46777780","name":"Tepecoyo"},{"id":"2317474","latitude":"13.68333330","longitude":"-89.48333330","name":"Tierra Colorada"},{"id":"2317485","latitude":"13.56666670","longitude":"-89.23333330","name":"Tilapa"},{"id":"2317493","latitude":"13.45111110","longitude":"-89.21722220","name":"Toluca"},{"id":"2317515","latitude":"13.55000000","longitude":"-89.28333330","name":"Tula"},{"id":"2317540","latitude":"13.99777780","longitude":"-89.37722220","name":"Valle Campa\ufffda"},{"id":"2317552","latitude":"13.94583330","longitude":"-89.31527780","name":"Valle de Las Anonas"},{"id":"2317562","latitude":"13.85388890","longitude":"-89.42333330","name":"Valle El Espino"},{"id":"2317572","latitude":"13.82694440","longitude":"-89.27777780","name":"Valle El Se\ufffdor"},{"id":"2317575","latitude":"13.87944440","longitude":"-89.37944440","name":"Valle Gracia"},{"id":"2317592","latitude":"13.96833330","longitude":"-89.29277780","name":"Valle Las Mar\ufffdas"},{"id":"2317595","latitude":"13.96666670","longitude":"-89.36666670","name":"Valle Las Tunas"},{"id":"2317598","latitude":"13.71666670","longitude":"-89.40000000","name":"Valle Limon"},{"id":"2317606","latitude":"13.75694440","longitude":"-89.34583330","name":"Valle Nuevo"},{"id":"2317616","latitude":"13.95055560","longitude":"-89.29416670","name":"Valle San Agust\ufffdn"},{"id":"2317621","latitude":"13.96055560","longitude":"-89.30111110","name":"Valle San Jorge"},{"id":"2317627","latitude":"13.89666670","longitude":"-89.39416670","name":"Valle San Pedro M\ufffdrtir"},{"id":"2317629","latitude":"13.84527780","longitude":"-89.42583330","name":"Valle Santa Rosa"},{"id":"2317631","latitude":"13.90555560","longitude":"-89.37138890","name":"Valle Tehuicho"},{"id":"2317641","latitude":"13.80416670","longitude":"-89.43333330","name":"Veracruz"},{"id":"2317648","latitude":"13.71583330","longitude":"-89.30111110","name":"Victoria"},{"id":"2317677","latitude":"13.73638890","longitude":"-89.47194440","name":"Zacacoyo"},{"id":"2317679","latitude":"13.69777780","longitude":"-89.48833330","name":"Zacamil"},{"id":"2317696","latitude":"13.80472220","longitude":"-89.44888890","name":"Zapotit\ufffdn"},{"id":"2317698","latitude":"13.58944440","longitude":"-89.28888890","name":"Zaragoza"}]