[{"id":"2317706","latitude":"34.96666670","longitude":"35.88333330","name":"Aabba"},{"id":"2317739","latitude":"34.90000000","longitude":"36.08333330","name":"Aafso\ufffdn\ufffdy\ufffd"},{"id":"2317766","latitude":"34.96666670","longitude":"35.98333330","name":"Aal\ufffdy\ufffd"},{"id":"2317776","latitude":"35.13333330","longitude":"35.96666670","name":"A\ufffdlq\ufffdne"},{"id":"2317786","latitude":"35.06666670","longitude":"36.13333330","name":"A\ufffdmo\ufffddi"},{"id":"2317788","latitude":"35.11666670","longitude":"36.08333330","name":"A\ufffdmo\ufffdd\ufffdy\ufffd"},{"id":"2317803","latitude":"34.85000000","longitude":"35.91666670","name":"Aann\ufffdb\ufffdy\ufffd"},{"id":"2317807","latitude":"35.00000000","longitude":"35.95000000","name":"Aann\ufffdz\ufffd"},{"id":"2317815","latitude":"34.95000000","longitude":"35.95000000","name":"Aaouainiy\ufffd"},{"id":"2317818","latitude":"34.95000000","longitude":"35.95000000","name":"Aaouara"},{"id":"2317862","latitude":"34.70000000","longitude":"35.95000000","name":"Aarab ej Jhe\ufffdch"},{"id":"2317904","latitude":"34.75000000","longitude":"36.06666670","name":"Aar\ufffddet Aboulli"},{"id":"2317915","latitude":"35.11666670","longitude":"36.00000000","name":"Aarqo\ufffdb"},{"id":"2317919","latitude":"35.13333330","longitude":"35.98333330","name":"Aassa\ufffdb\ufffd"},{"id":"2317925","latitude":"35.13333330","longitude":"35.98333330","name":"Aasse\ufffdb\ufffd"},{"id":"2317964","latitude":"34.63333330","longitude":"36.10000000","name":"Aaz\ufffdz\ufffdy\ufffd"},{"id":"2317967","latitude":"35.03333330","longitude":"35.93333330","name":"Aazze\ufffdte"},{"id":"2317978","latitude":"34.96666670","longitude":"35.88333330","name":"`Abbah"},{"id":"2317984","latitude":"34.75000000","longitude":"36.06666670","name":"Abboul\ufffd Arid"},{"id":"2317985","latitude":"34.75000000","longitude":"36.08333330","name":"Abbouli"},{"id":"2317986","latitude":"34.75000000","longitude":"36.06666670","name":"Abbouli Arid"},{"id":"2317989","latitude":"34.75000000","longitude":"36.08333330","name":"`Abbuli"},{"id":"2317990","latitude":"34.75000000","longitude":"36.06666670","name":"`Abbuli `Arid"},{"id":"2318014","latitude":"34.83333330","longitude":"35.90000000","name":"Abou Aafsa"},{"id":"2318015","latitude":"34.83333330","longitude":"35.90000000","name":"Abou Aafs\ufffd"},{"id":"2318119","latitude":"34.75000000","longitude":"36.08333330","name":"Aboulli"},{"id":"2318123","latitude":"35.00000000","longitude":"36.06666670","name":"Abou Mannkar"},{"id":"2318177","latitude":"34.83333330","longitude":"35.90000000","name":"Abu `Afsah"},{"id":"2318384","latitude":"35.06666670","longitude":"36.11666670","name":"Ad Danbiyah"},{"id":"2318401","latitude":"35.15000000","longitude":"36.15000000","name":"Ad Dayy"},{"id":"2318408","latitude":"34.66666670","longitude":"36.00000000","name":"Ad Dukaykah"},{"id":"2318418","latitude":"35.13333330","longitude":"36.13333330","name":"Ad Duwayliyah"},{"id":"2318458","latitude":"34.90000000","longitude":"36.08333330","name":"`Afsuniyah"},{"id":"2318494","latitude":"35.06666670","longitude":"35.95000000","name":"A\ufffdn Abou Sre\ufffdsse"},{"id":"2318505","latitude":"34.90000000","longitude":"36.26666670","name":"Ain B\ufffdchriti"},{"id":"2318519","latitude":"34.96666670","longitude":"36.25000000","name":"A\ufffdn Dla\ufffdm\ufffd"},{"id":"2318523","latitude":"35.10000000","longitude":"35.98333330","name":"A\ufffdn ech Charq\ufffdy\ufffd"},{"id":"2318529","latitude":"35.13333330","longitude":"35.93333330","name":"A\ufffdn ed Doua\ufffdr"},{"id":"2318534","latitude":"34.86666670","longitude":"36.15000000","name":"`Ain ej Jaouz"},{"id":"2318535","latitude":"35.05000000","longitude":"36.23333330","name":"A\ufffdn ej Jaouz"},{"id":"2318539","latitude":"34.76666670","longitude":"36.15000000","name":"'Ain ej Journ"},{"id":"2318554","latitude":"35.01666670","longitude":"36.23333330","name":"A\ufffdn el Bn\ufffdn\ufffd"},{"id":"2318572","latitude":"35.01666670","longitude":"36.23333330","name":"A\ufffdn el Karm"},{"id":"2318574","latitude":"34.88333330","longitude":"36.18333330","name":"A\ufffdn el K\ufffdb\ufffdr\ufffd"},{"id":"2318584","latitude":"35.08333330","longitude":"36.25000000","name":"'A\ufffdn el Qad\ufffdb"},{"id":"2318595","latitude":"35.16666670","longitude":"36.00000000","name":"'Ain enn Nedi"},{"id":"2318596","latitude":"35.16666670","longitude":"36.00000000","name":"A\ufffdn enn Nid\ufffd"},{"id":"2318598","latitude":"34.80000000","longitude":"36.21666670","name":"A\ufffdn er R\ufffdh\ufffdn\ufffd"},{"id":"2318601","latitude":"34.80000000","longitude":"36.18333330","name":"A\ufffdn es Sahn"},{"id":"2318611","latitude":"34.90000000","longitude":"36.25000000","name":"A\ufffdn ett T\ufffdn\ufffd"},{"id":"2318614","latitude":"34.75000000","longitude":"35.93333330","name":"A\ufffdn ez Zarka"},{"id":"2318616","latitude":"34.75000000","longitude":"35.93333330","name":"A\ufffdn ez Zarqa"},{"id":"2318617","latitude":"34.73333330","longitude":"36.06666670","name":"A\ufffdn ez Zebd\ufffd"},{"id":"2318621","latitude":"35.01666670","longitude":"36.21666670","name":"A\ufffdn Fr\ufffdj"},{"id":"2318622","latitude":"35.05000000","longitude":"36.10000000","name":"A\ufffdn Fta\ufffdme"},{"id":"2318624","latitude":"34.85000000","longitude":"36.08333330","name":"A\ufffdn Hf\ufffdd"},{"id":"2318631","latitude":"35.05000000","longitude":"36.23333330","name":"A\ufffdn Jaouz"},{"id":"2318640","latitude":"35.08333330","longitude":"36.25000000","name":"A\ufffdn Qad\ufffdb"},{"id":"2318654","latitude":"34.75000000","longitude":"35.93333330","name":"A\ufffdn Zarqa"},{"id":"2318727","latitude":"35.15000000","longitude":"35.91666670","name":"Al `Adimah"},{"id":"2318750","latitude":"35.11666670","longitude":"36.06666670","name":"Al `Aliyah"},{"id":"2318768","latitude":"35.00000000","longitude":"35.95000000","name":"Al `Annazah"},{"id":"2318774","latitude":"35.11666670","longitude":"36.03333330","name":"Al `Arid"},{"id":"2318801","latitude":"34.63333330","longitude":"36.10000000","name":"Al `Aziziyah"},{"id":"2318829","latitude":"34.83333330","longitude":"36.23333330","name":"Al Bariqiyah"},{"id":"2318834","latitude":"34.83333330","longitude":"36.21666670","name":"Al Basatin"},{"id":"2318849","latitude":"35.11666670","longitude":"35.95000000","name":"Al Bayda'"},{"id":"2318881","latitude":"34.96666670","longitude":"35.91666670","name":"Al Burayj"},{"id":"2318892","latitude":"34.66666670","longitude":"36.01666670","name":"Al Busaysah"},{"id":"2318895","latitude":"35.10000000","longitude":"36.01666670","name":"Al Bustan"},{"id":"2318941","latitude":"34.81666670","longitude":"35.98333330","name":"Al Futasiyah"},{"id":"2318962","latitude":"35.16666670","longitude":"36.08333330","name":"Al Ghunsalah"},{"id":"2319000","latitude":"34.71666670","longitude":"35.93333330","name":"Al Hamidiyah"},{"id":"2319005","latitude":"34.75000000","longitude":"35.93333330","name":"Al Hammam"},{"id":"2319013","latitude":"35.00000000","longitude":"35.95000000","name":"Al Hanafiyah"},{"id":"2319036","latitude":"34.65000000","longitude":"36.08333330","name":"Al Hasanah"},{"id":"2319045","latitude":"35.10000000","longitude":"36.20000000","name":"Al Hatiriyah"},{"id":"2319046","latitude":"35.13333330","longitude":"36.06666670","name":"Al Hattaniyah"},{"id":"2319059","latitude":"35.13333330","longitude":"36.26666670","name":"Al Haylunah"},{"id":"2319075","latitude":"35.02500000","longitude":"36.05416670","name":"Al Himsiyah"},{"id":"2319079","latitude":"34.75000000","longitude":"36.10000000","name":"Al Hirmil"},{"id":"2319081","latitude":"34.78333330","longitude":"35.91666670","name":"Al Hishah"},{"id":"2319129","latitude":"34.96666670","longitude":"35.98333330","name":"`Aliyah"},{"id":"2319140","latitude":"34.71666670","longitude":"35.96666670","name":"Al Jammasah"},{"id":"2319149","latitude":"34.83333330","longitude":"36.06666670","name":"Al Jarwiyah"},{"id":"2319152","latitude":"34.90000000","longitude":"35.95000000","name":"Al Jawbah"},{"id":"2319157","latitude":"35.05000000","longitude":"36.01666670","name":"Al Jibab"},{"id":"2319174","latitude":"34.96666670","longitude":"35.96666670","name":"Al Judaydah"},{"id":"2319206","latitude":"35.00000000","longitude":"36.20000000","name":"Al Kamiliyah"},{"id":"2319212","latitude":"34.78333330","longitude":"36.11666670","name":"Al Kanisah"},{"id":"2319235","latitude":"34.65000000","longitude":"35.95000000","name":"Al Kharabah"},{"id":"2319250","latitude":"34.88333330","longitude":"35.93333330","name":"Al Khuraybat"},{"id":"2319263","latitude":"35.03333330","longitude":"36.21666670","name":"Al Kunayyisah"},{"id":"2319268","latitude":"35.05000000","longitude":"36.03333330","name":"Al Kuraym"},{"id":"2319318","latitude":"35.05000000","longitude":"36.23333330","name":"Al Majdal"},{"id":"2319333","latitude":"34.80000000","longitude":"36.15000000","name":"Al Mandarah"},{"id":"2319342","latitude":"35.13333330","longitude":"35.91666670","name":"Al Marah"},{"id":"2319349","latitude":"35.15000000","longitude":"35.95000000","name":"Al Marqab"},{"id":"2319378","latitude":"35.18333330","longitude":"35.98333330","name":"Al Mazlah"},{"id":"2319382","latitude":"35.06666670","longitude":"35.90000000","name":"Al Mazra`ah"},{"id":"2319386","latitude":"34.90000000","longitude":"35.86666670","name":"Al Mina'"},{"id":"2319387","latitude":"34.90000000","longitude":"35.86666670","name":"Al Minah"},{"id":"2319396","latitude":"35.10000000","longitude":"35.95000000","name":"Al Mo\ufffdr\ufffdd"},{"id":"2319416","latitude":"34.96666670","longitude":"36.25000000","name":"Al Muhaylibah"},{"id":"2319427","latitude":"34.75000000","longitude":"35.93333330","name":"Al Muntar"},{"id":"2319428","latitude":"34.80000000","longitude":"35.96666670","name":"Al Munyah"},{"id":"2319429","latitude":"35.06666670","longitude":"35.91666670","name":"Al Muqa`bariyah"},{"id":"2319430","latitude":"35.08333330","longitude":"36.18333330","name":"Al Muqarmadah"},{"id":"2319435","latitude":"35.08333330","longitude":"35.96666670","name":"Al Murayjah"},{"id":"2319437","latitude":"34.96666670","longitude":"36.10000000","name":"Al Murayqib"},{"id":"2319451","latitude":"34.63333330","longitude":"36.08333330","name":"Al Mushayrifah"},{"id":"2319475","latitude":"35.08333330","longitude":"36.16666670","name":"Al Qadmus"},{"id":"2319512","latitude":"35.13333330","longitude":"35.96666670","name":"`Alqin"},{"id":"2319516","latitude":"34.76666670","longitude":"35.95000000","name":"Al Qubaybah"},{"id":"2319519","latitude":"34.95000000","longitude":"36.25000000","name":"Al Qulay`ah"},{"id":"2319552","latitude":"34.98333330","longitude":"36.08333330","name":"Al-Sheikh-Bader"},{"id":"2319559","latitude":"35.19583330","longitude":"36.14583330","name":"Altun al Jurd"},{"id":"2319569","latitude":"34.85000000","longitude":"35.91666670","name":"Al `Unnabiyah"},{"id":"2319575","latitude":"34.75000000","longitude":"36.05000000","name":"Al `Uraymah"},{"id":"2319586","latitude":"35.06666670","longitude":"35.96666670","name":"Al Wadi"},{"id":"2319640","latitude":"35.06666670","longitude":"36.13333330","name":"`Amudi"},{"id":"2319642","latitude":"35.11666670","longitude":"36.08333330","name":"`Amudiyah"},{"id":"2319661","latitude":"34.80000000","longitude":"36.10000000","name":"An Na`asat"},{"id":"2319666","latitude":"35.03333330","longitude":"36.08333330","name":"An Nabi Yunus"},{"id":"2319677","latitude":"34.85000000","longitude":"35.96666670","name":"An Naqib"},{"id":"2319691","latitude":"35.15000000","longitude":"36.16666670","name":"An Nawatif"},{"id":"2319692","latitude":"35.00833330","longitude":"36.15000000","name":"An Nayhah"},{"id":"2319695","latitude":"35.18333330","longitude":"36.05000000","name":"`Annazah"},{"id":"2319696","latitude":"35.18333330","longitude":"36.05000000","name":"An Nazi"},{"id":"2319697","latitude":"35.18333330","longitude":"36.05000000","name":"`Annazih"},{"id":"2319699","latitude":"35.00000000","longitude":"36.13333330","name":"An Niha"},{"id":"2319705","latitude":"35.11666670","longitude":"35.96666670","name":"Annto\ufffdz"},{"id":"2319716","latitude":"34.88333330","longitude":"35.88333330","name":"Antaradus"},{"id":"2319718","latitude":"35.11666670","longitude":"35.96666670","name":"Antuz"},{"id":"2319719","latitude":"35.18333330","longitude":"36.05000000","name":"`Anzah"},{"id":"2319720","latitude":"35.18333330","longitude":"36.05000000","name":"`Anz"},{"id":"2319740","latitude":"34.95000000","longitude":"35.95000000","name":"Ao\ufffdro"},{"id":"2319788","latitude":"34.70000000","longitude":"35.95000000","name":"`Arab al Juhaysh"},{"id":"2319789","latitude":"34.65000000","longitude":"35.95000000","name":"`Arab al Kharabah"},{"id":"2319794","latitude":"34.65000000","longitude":"35.95000000","name":"Arab el Kharabe"},{"id":"2319798","latitude":"34.70000000","longitude":"35.95000000","name":"Arab J\ufffdheiche"},{"id":"2319934","latitude":"34.63333330","longitude":"36.03333330","name":"Ar Ransiyah"},{"id":"2319935","latitude":"35.03333330","longitude":"36.21666670","name":"Ar Raqmah"},{"id":"2319948","latitude":"34.71666670","longitude":"36.01666670","name":"Ar Rayhaniyah"},{"id":"2319954","latitude":"34.96666670","longitude":"35.90000000","name":"Ar Ru'aysah"},{"id":"2319956","latitude":"34.75000000","longitude":"36.01666670","name":"Ar Ru'ays"},{"id":"2319970","latitude":"35.03333330","longitude":"36.28333330","name":"Ar Rusafah"},{"id":"2319992","latitude":"34.85000000","longitude":"35.85000000","name":"Arwad"},{"id":"2320002","latitude":"34.68333330","longitude":"36.11666670","name":"Arzo\ufffdn\ufffd"},{"id":"2320003","latitude":"34.68333330","longitude":"36.11666670","name":"Arzunah"},{"id":"2320009","latitude":"35.00833330","longitude":"36.02083330","name":"`Asaliyah"},{"id":"2320039","latitude":"35.06666670","longitude":"36.15000000","name":"Ash Shaniyah"},{"id":"2320042","latitude":"35.05000000","longitude":"36.16666670","name":"Ash Sha`rah"},{"id":"2320047","latitude":"34.95000000","longitude":"36.13333330","name":"Ash Shaykh `Abd al Qadir"},{"id":"2320058","latitude":"34.98333330","longitude":"36.08333330","name":"Ash Shaykh Badr"},{"id":"2320073","latitude":"34.63333330","longitude":"35.96666670","name":"Ash Shaykh Jabir"},{"id":"2320088","latitude":"34.90000000","longitude":"35.91666670","name":"Ash Shaykh Sa`d"},{"id":"2320097","latitude":"35.06666670","longitude":"36.25000000","name":"Ash Shihah"},{"id":"2320127","latitude":"34.71666670","longitude":"36.06666670","name":"As Sabbuhiyah"},{"id":"2320134","latitude":"35.08333330","longitude":"36.16666670","name":"As Sa`danah"},{"id":"2320150","latitude":"34.73333330","longitude":"36.05000000","name":"As Safsafah"},{"id":"2320172","latitude":"35.06666670","longitude":"36.21666670","name":"As Salluriyah"},{"id":"2320194","latitude":"34.66666670","longitude":"36.05000000","name":"As Sawda'"},{"id":"2320214","latitude":"34.76666670","longitude":"36.15000000","name":"As Sisniyah"},{"id":"2320240","latitude":"34.83333330","longitude":"36.13333330","name":"As Suwaydah"},{"id":"2320283","latitude":"35.05000000","longitude":"36.21666670","name":"At Tahiriyah"},{"id":"2320295","latitude":"35.10000000","longitude":"36.18333330","name":"At Tannakhah"},{"id":"2320300","latitude":"35.11666670","longitude":"36.20000000","name":"At Tawahin"},{"id":"2320302","latitude":"34.76666670","longitude":"36.08333330","name":"At Tawanin"},{"id":"2320333","latitude":"35.18333330","longitude":"36.05000000","name":"`Aunaz"},{"id":"2320338","latitude":"34.95000000","longitude":"35.95000000","name":"`Awaru"},{"id":"2320364","latitude":"35.06666670","longitude":"35.95000000","name":"`Ayn Abu Suraysah"},{"id":"2320367","latitude":"35.13333330","longitude":"35.93333330","name":"`Ayn ad Duwayr"},{"id":"2320376","latitude":"35.01666670","longitude":"36.23333330","name":"`Ayn al Baninah"},{"id":"2320408","latitude":"34.86666670","longitude":"36.15000000","name":"`Ayn al Jawz"},{"id":"2320411","latitude":"34.76666670","longitude":"36.15000000","name":"`Ayn al Jurn"},{"id":"2320413","latitude":"34.88333330","longitude":"36.18333330","name":"`Ayn al Kabirah"},{"id":"2320414","latitude":"35.01666670","longitude":"36.23333330","name":"`Ayn al Karm"},{"id":"2320422","latitude":"35.08333330","longitude":"36.25000000","name":"`Ayn al Qadib"},{"id":"2320428","latitude":"35.16666670","longitude":"36.00000000","name":"`Ayn an Nadi"},{"id":"2320433","latitude":"34.80000000","longitude":"36.21666670","name":"`Ayn ar Rayhanah"},{"id":"2320440","latitude":"35.10000000","longitude":"35.98333330","name":"`Ayn ash Sharqiyah"},{"id":"2320443","latitude":"34.80000000","longitude":"36.18333330","name":"`Ayn as Sahn"},{"id":"2320451","latitude":"34.90000000","longitude":"36.25000000","name":"`Ayn at Tinah"},{"id":"2320452","latitude":"34.75000000","longitude":"35.93333330","name":"`Ayn az Zarqa'"},{"id":"2320453","latitude":"34.73333330","longitude":"36.06666670","name":"`Ayn az Zubdah"},{"id":"2320454","latitude":"34.90000000","longitude":"36.26666670","name":"`Ayn Bashriti"},{"id":"2320466","latitude":"34.96666670","longitude":"36.25000000","name":"`Ayn Dulaymah"},{"id":"2320468","latitude":"35.01666670","longitude":"36.21666670","name":"`Ayn Fr\ufffdj"},{"id":"2320469","latitude":"35.05000000","longitude":"36.10000000","name":"`Ayn Futaymah"},{"id":"2320473","latitude":"34.85000000","longitude":"36.08333330","name":"`Ayn Hifad"},{"id":"2320535","latitude":"35.18333330","longitude":"35.98333330","name":"Az Zallu"},{"id":"2320540","latitude":"34.81666670","longitude":"35.96666670","name":"Az Zarqat"},{"id":"2320542","latitude":"35.11666670","longitude":"35.96666670","name":"Az Zawbah"},{"id":"2320545","latitude":"34.73333330","longitude":"36.15000000","name":"Az Zaynabiyah"},{"id":"2320547","latitude":"35.03333330","longitude":"35.93333330","name":"`Azzayt"},{"id":"2320559","latitude":"34.98333330","longitude":"35.91666670","name":"Baachtar"},{"id":"2320562","latitude":"35.01666670","longitude":"36.15000000","name":"Baadri"},{"id":"2320565","latitude":"35.18333330","longitude":"35.96666670","name":"Baamra\ufffdl"},{"id":"2320572","latitude":"35.00000000","longitude":"36.00000000","name":"Ba`azra'il"},{"id":"2320573","latitude":"35.00000000","longitude":"36.00000000","name":"Baazr\ufffdyel"},{"id":"2320589","latitude":"35.15000000","longitude":"36.11666670","name":"Bab an Nur"},{"id":"2320604","latitude":"35.15000000","longitude":"36.11666670","name":"B\ufffdb enn No\ufffdr"},{"id":"2320638","latitude":"35.08333330","longitude":"36.01666670","name":"Bach\ufffdch\ufffd"},{"id":"2320654","latitude":"35.13333330","longitude":"35.97500000","name":"Badi`an"},{"id":"2320659","latitude":"35.01666670","longitude":"36.15000000","name":"B`adri"},{"id":"2320660","latitude":"34.90000000","longitude":"35.95000000","name":"Badriyah"},{"id":"2320666","latitude":"34.93333330","longitude":"36.25000000","name":"Baetocece"},{"id":"2320705","latitude":"34.93333330","longitude":"35.93333330","name":"Ba\ufffdl\ufffd"},{"id":"2320736","latitude":"35.08333330","longitude":"36.03333330","name":"Balaad\ufffdr"},{"id":"2320743","latitude":"35.08333330","longitude":"36.03333330","name":"Bal`adar"},{"id":"2320748","latitude":"34.95000000","longitude":"35.90000000","name":"Balatah al Gharbiyah"},{"id":"2320754","latitude":"35.03333330","longitude":"36.03333330","name":"Balat"},{"id":"2320760","latitude":"35.02083330","longitude":"36.02500000","name":"Balhalah"},{"id":"2320778","latitude":"35.18333330","longitude":"36.03333330","name":"Ballo\ufffdt\ufffdy\ufffd"},{"id":"2320781","latitude":"35.15833330","longitude":"36.20000000","name":"Balluqa"},{"id":"2320784","latitude":"35.18333330","longitude":"36.03333330","name":"Ballutiyah"},{"id":"2320791","latitude":"34.83333330","longitude":"36.21666670","name":"Balo\ufffd"},{"id":"2320800","latitude":"34.83333330","longitude":"36.21666670","name":"Balu"},{"id":"2320809","latitude":"35.06666670","longitude":"36.05000000","name":"Bamlakha"},{"id":"2320811","latitude":"35.18333330","longitude":"35.96666670","name":"B`amra'il"},{"id":"2320820","latitude":"35.18333330","longitude":"35.95000000","name":"B\ufffdni\ufffds"},{"id":"2320822","latitude":"34.63333330","longitude":"36.00000000","name":"Bani Na`im"},{"id":"2320827","latitude":"35.18333330","longitude":"35.95000000","name":"Baniyas"},{"id":"2320829","latitude":"35.02083330","longitude":"36.10833330","name":"Banmarah"},{"id":"2320836","latitude":"34.91666670","longitude":"36.06666670","name":"Baqao\ufffd"},{"id":"2320850","latitude":"34.91666670","longitude":"36.06666670","name":"Baq`u"},{"id":"2320894","latitude":"35.08333330","longitude":"36.05000000","name":"Bari\ufffdha"},{"id":"2320916","latitude":"35.18333330","longitude":"35.98333330","name":"Barmaya"},{"id":"2320926","latitude":"34.78333330","longitude":"36.21666670","name":"Barqiyah"},{"id":"2320927","latitude":"34.78333330","longitude":"36.21666670","name":"Barq\ufffdy\ufffd"},{"id":"2320946","latitude":"35.08333330","longitude":"36.05000000","name":"Baryaha"},{"id":"2320960","latitude":"35.13333330","longitude":"35.95000000","name":"Basatin"},{"id":"2320966","latitude":"35.08333330","longitude":"36.01666670","name":"Bashishah"},{"id":"2320973","latitude":"34.98333330","longitude":"35.91666670","name":"B`ashtar"},{"id":"2321041","latitude":"34.80000000","longitude":"36.21666670","name":"Bayda'"},{"id":"2321045","latitude":"34.93333330","longitude":"35.93333330","name":"Baylah"},{"id":"2321057","latitude":"35.00000000","longitude":"36.06666670","name":"Bayt Abu Minqar"},{"id":"2321060","latitude":"35.01666670","longitude":"36.15000000","name":"Bayt ad Dardarah"},{"id":"2321062","latitude":"34.83333330","longitude":"36.01666670","name":"Bayt ad Dik"},{"id":"2321065","latitude":"35.10000000","longitude":"35.96666670","name":"Bayt al `Atiq"},{"id":"2321066","latitude":"35.01666670","longitude":"35.98333330","name":"Bayt al Ballut"},{"id":"2321072","latitude":"34.86666670","longitude":"35.96666670","name":"Bayt al Jabal"},{"id":"2321075","latitude":"34.88333330","longitude":"35.96666670","name":"Bayt al Khatib"},{"id":"2321078","latitude":"35.13333330","longitude":"35.96666670","name":"Bayt al Masil"},{"id":"2321081","latitude":"35.00000000","longitude":"36.00000000","name":"Bayt al Qalih"},{"id":"2321083","latitude":"35.05000000","longitude":"35.98333330","name":"Bayt al `Urqub"},{"id":"2321084","latitude":"34.86666670","longitude":"35.93333330","name":"Bayt `Alyan"},{"id":"2321087","latitude":"35.08333330","longitude":"36.20000000","name":"Bayt an Nab`"},{"id":"2321088","latitude":"35.06666670","longitude":"36.03333330","name":"Bayt `Aqul"},{"id":"2321090","latitude":"34.88333330","longitude":"36.25000000","name":"Bayt `Arkush"},{"id":"2321093","latitude":"34.88333330","longitude":"36.08333330","name":"Bayt ar Rahib"},{"id":"2321096","latitude":"35.10000000","longitude":"35.95000000","name":"Bayt ash Shaykh `Ali"},{"id":"2321098","latitude":"35.08333330","longitude":"35.95000000","name":"Bayt ash Shaykh Mutawwaj"},{"id":"2321100","latitude":"34.78333330","longitude":"36.10000000","name":"Bayt ash Shaykh Yunus"},{"id":"2321101","latitude":"34.81666670","longitude":"36.21666670","name":"Bayt Aslan"},{"id":"2321102","latitude":"34.85000000","longitude":"35.96666670","name":"Bayt as Sakhi"},{"id":"2321107","latitude":"34.88333330","longitude":"36.06666670","name":"Bayt Bad`a"},{"id":"2321109","latitude":"34.98333330","longitude":"36.00000000","name":"Bayt Balatah al Gharbiyah"},{"id":"2321111","latitude":"35.10000000","longitude":"35.95000000","name":"Bayt Dahi"},{"id":"2321121","latitude":"34.83333330","longitude":"35.95000000","name":"Bayt Isma`il"},{"id":"2321125","latitude":"35.08333330","longitude":"35.91666670","name":"Bayt Jinad"},{"id":"2321127","latitude":"34.90000000","longitude":"35.93333330","name":"Bayt Juha"},{"id":"2321128","latitude":"34.85000000","longitude":"35.93333330","name":"Bayt Kammunah"},{"id":"2321138","latitude":"34.93333330","longitude":"36.18333330","name":"Bayt Musallam"},{"id":"2321140","latitude":"34.93333330","longitude":"36.13333330","name":"Bayt Nafilah"},{"id":"2321142","latitude":"34.76666670","longitude":"36.10000000","name":"Bayt Na`isah"},{"id":"2321144","latitude":"34.88333330","longitude":"35.93333330","name":"Bayt Nasir"},{"id":"2321148","latitude":"35.03333330","longitude":"36.00000000","name":"Bayt Qasimiyah"},{"id":"2321157","latitude":"34.85000000","longitude":"36.06666670","name":"Bayt Salamah"},{"id":"2321158","latitude":"35.03333330","longitude":"36.15000000","name":"Bayt Sammukhah"},{"id":"2321159","latitude":"35.01666670","longitude":"35.96666670","name":"Bayt Saqur"},{"id":"2321161","latitude":"34.86666670","longitude":"35.98333330","name":"Bayt Shihan"},{"id":"2321166","latitude":"34.91666670","longitude":"35.95000000","name":"Bayt Sultan"},{"id":"2321169","latitude":"35.10000000","longitude":"36.01666670","name":"Bayt `Uthman"},{"id":"2321172","latitude":"35.22916670","longitude":"36.08333330","name":"Bayt Wazan"},{"id":"2321173","latitude":"34.86666670","longitude":"36.25000000","name":"Bayt Zahrah"},{"id":"2321176","latitude":"34.90000000","longitude":"36.15000000","name":"Bayt Zaynah"},{"id":"2321189","latitude":"34.88333330","longitude":"35.98333330","name":"Bazzaq"},{"id":"2321190","latitude":"34.81666670","longitude":"36.05000000","name":"Bchabta"},{"id":"2321191","latitude":"34.81666670","longitude":"36.05000000","name":"Bchabtah"},{"id":"2321193","latitude":"35.03333330","longitude":"36.16666670","name":"Bchama\ufffd"},{"id":"2321199","latitude":"34.96666670","longitude":"36.25000000","name":"Bchemch\ufffd"},{"id":"2321206","latitude":"34.78333330","longitude":"36.16666670","name":"Bdada"},{"id":"2321211","latitude":"34.90000000","longitude":"35.95000000","name":"Bdari\ufffd"},{"id":"2321213","latitude":"35.11666670","longitude":"35.95000000","name":"Bdayghan"},{"id":"2321214","latitude":"35.11666670","longitude":"35.95000000","name":"Bde\ufffdrh\ufffdne"},{"id":"2321215","latitude":"35.05000000","longitude":"35.93333330","name":"Bdirah"},{"id":"2321216","latitude":"35.05000000","longitude":"35.93333330","name":"Bd\ufffdr\ufffd"},{"id":"2321217","latitude":"35.15000000","longitude":"36.20000000","name":"Bdo\ufffdqa"},{"id":"2321218","latitude":"35.15000000","longitude":"36.20000000","name":"Bduqah"},{"id":"2321228","latitude":"35.08333330","longitude":"36.23333330","name":"Bechr\ufffdrha"},{"id":"2321230","latitude":"35.08333330","longitude":"36.23333330","name":"B\ufffdchr\ufffdrhi"},{"id":"2321235","latitude":"34.80000000","longitude":"36.21666670","name":"Be\ufffdda"},{"id":"2321240","latitude":"34.86666670","longitude":"35.93333330","name":"Be\ufffdt Aalay\ufffdne"},{"id":"2321241","latitude":"34.86666670","longitude":"35.93333330","name":"Be\ufffdt Aali\ufffdne"},{"id":"2321246","latitude":"35.06666670","longitude":"36.03333330","name":"Be\ufffdt Aaqo\ufffdl"},{"id":"2321248","latitude":"34.88333330","longitude":"36.25000000","name":"Be\ufffdt Aarko\ufffdch"},{"id":"2321249","latitude":"34.83333330","longitude":"35.98333330","name":"Be\ufffdt Aasfo\ufffdr"},{"id":"2321259","latitude":"34.81666670","longitude":"36.21666670","name":"Be\ufffdt Asl\ufffdne"},{"id":"2321260","latitude":"34.88333330","longitude":"36.06666670","name":"Be\ufffdt Bada\ufffd"},{"id":"2321264","latitude":"34.86666670","longitude":"35.96666670","name":"Be\ufffdt B\ufffdssett"},{"id":"2321265","latitude":"34.98333330","longitude":"36.00000000","name":"Be\ufffdt Bl\ufffdtet el Rharb\ufffdy\ufffd"},{"id":"2321266","latitude":"34.83333330","longitude":"35.96666670","name":"Be\ufffdt Chaho\ufffdd"},{"id":"2321273","latitude":"34.86666670","longitude":"35.98333330","name":"Be\ufffdt Ch\ufffdh\ufffdne"},{"id":"2321274","latitude":"35.10000000","longitude":"35.95000000","name":"Be\ufffdt D\ufffdhi"},{"id":"2321275","latitude":"35.10000000","longitude":"35.95000000","name":"Be\ufffdt D\ufffdhl"},{"id":"2321279","latitude":"35.10000000","longitude":"35.95000000","name":"Be\ufffdt ech Che\ufffdkh Aali"},{"id":"2321280","latitude":"35.08333330","longitude":"35.95000000","name":"Be\ufffdt ech Che\ufffdkh Mtao\ufffdej"},{"id":"2321281","latitude":"34.78333330","longitude":"36.10000000","name":"Be\ufffdt ech Che\ufffdkh Yo\ufffdn\ufffds"},{"id":"2321282","latitude":"35.01666670","longitude":"36.15000000","name":"Be\ufffdt ed Derd\ufffdra"},{"id":"2321283","latitude":"34.83333330","longitude":"36.01666670","name":"Be\ufffdt ed D\ufffdk"},{"id":"2321284","latitude":"34.86666670","longitude":"35.96666670","name":"Be\ufffdt ej Jebel"},{"id":"2321286","latitude":"35.05000000","longitude":"35.98333330","name":"Be\ufffdt el Aarqo\ufffdb"},{"id":"2321287","latitude":"35.10000000","longitude":"35.96666670","name":"Be\ufffdt el Aat\ufffdq"},{"id":"2321288","latitude":"35.01666670","longitude":"35.98333330","name":"Be\ufffdt el Ballo\ufffdte"},{"id":"2321291","latitude":"34.88333330","longitude":"35.96666670","name":"Be\ufffdt el Khat\ufffdb"},{"id":"2321293","latitude":"35.13333330","longitude":"35.96666670","name":"Be\ufffdt el Ms\ufffdl"},{"id":"2321296","latitude":"35.00000000","longitude":"36.00000000","name":"Be\ufffdt el Qal\ufffdh"},{"id":"2321298","latitude":"35.08333330","longitude":"36.20000000","name":"Be\ufffdt enn Nabaa"},{"id":"2321300","latitude":"34.88333330","longitude":"36.08333330","name":"Be\ufffdt er R\ufffdheb"},{"id":"2321303","latitude":"34.85000000","longitude":"35.96666670","name":"Be\ufffdt es Sakhi"},{"id":"2321311","latitude":"34.83333330","longitude":"35.95000000","name":"Be\ufffdt Ism\ufffd\ufffdl"},{"id":"2321316","latitude":"34.90000000","longitude":"35.93333330","name":"Be\ufffdt J\ufffdha"},{"id":"2321320","latitude":"35.08333330","longitude":"35.91666670","name":"Be\ufffdt Jn\ufffdd"},{"id":"2321321","latitude":"34.85000000","longitude":"35.93333330","name":"Be\ufffdt Kammo\ufffdn\ufffd"},{"id":"2321331","latitude":"34.93333330","longitude":"36.18333330","name":"Be\ufffdt Msallem"},{"id":"2321332","latitude":"34.76666670","longitude":"36.10000000","name":"Be\ufffdt N\ufffdass\ufffd"},{"id":"2321333","latitude":"34.93333330","longitude":"36.13333330","name":"Be\ufffdt N\ufffdfl\ufffd"},{"id":"2321335","latitude":"34.88333330","longitude":"35.93333330","name":"Be\ufffdt N\ufffdsser"},{"id":"2321341","latitude":"35.10000000","longitude":"36.01666670","name":"Be\ufffdt Osm\ufffdne"},{"id":"2321345","latitude":"35.03333330","longitude":"36.00000000","name":"Be\ufffdt Qams\ufffdy\ufffd"},{"id":"2321346","latitude":"35.03333330","longitude":"36.00000000","name":"Be\ufffdt Qasm\ufffdy\ufffd"},{"id":"2321355","latitude":"35.03333330","longitude":"36.15000000","name":"Be\ufffdt Sammo\ufffdkha"},{"id":"2321356","latitude":"35.01666670","longitude":"35.96666670","name":"Be\ufffdt Saqo\ufffdr"},{"id":"2321357","latitude":"34.98333330","longitude":"35.95000000","name":"Be\ufffdt Semm\ufffdq"},{"id":"2321358","latitude":"34.85000000","longitude":"36.06666670","name":"Be\ufffdt Sl\ufffdm\ufffd"},{"id":"2321360","latitude":"34.91666670","longitude":"35.95000000","name":"Be\ufffdt Soult\ufffdne"},{"id":"2321362","latitude":"34.86666670","longitude":"36.25000000","name":"Be\ufffdt Zahra"},{"id":"2321364","latitude":"34.90000000","longitude":"36.15000000","name":"Be\ufffdt Za\ufffdna"},{"id":"2321398","latitude":"34.93333330","longitude":"35.96666670","name":"Bemleki"},{"id":"2321408","latitude":"34.63333330","longitude":"36.00000000","name":"B\ufffdni Na\ufffdm"},{"id":"2321412","latitude":"35.00000000","longitude":"36.13333330","name":"Bennj\ufffdra"},{"id":"2321424","latitude":"34.88333330","longitude":"36.13333330","name":"Bermana"},{"id":"2321437","latitude":"35.03333330","longitude":"36.16666670","name":"Besq\ufffdy\ufffd"},{"id":"2321456","latitude":"34.88333330","longitude":"35.98333330","name":"Bezz\ufffdq"},{"id":"2321460","latitude":"34.95000000","longitude":"36.08333330","name":"Bghamlikh"},{"id":"2321466","latitude":"34.98333330","longitude":"35.98333330","name":"Bhannin"},{"id":"2321467","latitude":"34.98333330","longitude":"35.98333330","name":"Bhann\ufffdne"},{"id":"2321468","latitude":"34.91666670","longitude":"36.00000000","name":"Bharmayl"},{"id":"2321469","latitude":"34.91666670","longitude":"36.00000000","name":"Bherme\ufffdl"},{"id":"2321474","latitude":"34.75000000","longitude":"36.00000000","name":"Bho\ufffdzi"},{"id":"2321476","latitude":"34.75000000","longitude":"36.00000000","name":"Bhuzi"},{"id":"2321485","latitude":"34.96666670","longitude":"36.15000000","name":"Bichmiss"},{"id":"2321487","latitude":"34.85000000","longitude":"36.20000000","name":"Bichr\ufffdyel"},{"id":"2321515","latitude":"35.00000000","longitude":"36.13333330","name":"Binjarah"},{"id":"2321651","latitude":"34.96666670","longitude":"36.15000000","name":"Bishmis"},{"id":"2321653","latitude":"35.08333330","longitude":"36.23333330","name":"Bishraghi"},{"id":"2321655","latitude":"34.85000000","longitude":"36.20000000","name":"Bishra'il"},{"id":"2321660","latitude":"35.03333330","longitude":"36.16666670","name":"Bisqayah"},{"id":"2321693","latitude":"34.68333330","longitude":"36.08333330","name":"Bkoute"},{"id":"2321694","latitude":"34.68333330","longitude":"36.08333330","name":"Bkut"},{"id":"2321696","latitude":"35.01666670","longitude":"36.01666670","name":"Blahlah"},{"id":"2321697","latitude":"35.01666670","longitude":"36.01666670","name":"Blahl\ufffd"},{"id":"2321712","latitude":"34.95000000","longitude":"35.90000000","name":"Bl\ufffdta Rharb\ufffdy\ufffd"},{"id":"2321718","latitude":"35.03333330","longitude":"36.03333330","name":"Bl\ufffdte"},{"id":"2321722","latitude":"35.06666670","longitude":"35.91666670","name":"Blemm\ufffdna"},{"id":"2321723","latitude":"35.06666670","longitude":"35.91666670","name":"Bl\ufffdmm\ufffdne"},{"id":"2321725","latitude":"35.06666670","longitude":"35.91666670","name":"Blimmanah"},{"id":"2321737","latitude":"35.05000000","longitude":"35.96666670","name":"Blo\ufffdz\ufffd"},{"id":"2321738","latitude":"35.15000000","longitude":"36.00000000","name":"Blo\ufffdzet el Maraab"},{"id":"2321739","latitude":"35.15000000","longitude":"36.00000000","name":"Blo\ufffdzet el Marqab"},{"id":"2321747","latitude":"35.05000000","longitude":"35.96666670","name":"Bluzah"},{"id":"2321748","latitude":"35.15000000","longitude":"36.00000000","name":"Bluzat al Marqab"},{"id":"2321749","latitude":"34.93333330","longitude":"35.96666670","name":"Bmalkah"},{"id":"2321750","latitude":"34.93333330","longitude":"35.96666670","name":"Bmalk\ufffd"},{"id":"2321751","latitude":"34.95000000","longitude":"36.25000000","name":"Bmannah"},{"id":"2321752","latitude":"34.95000000","longitude":"36.25000000","name":"Bmann\ufffd"},{"id":"2321755","latitude":"35.01666670","longitude":"36.10000000","name":"Bnamra"},{"id":"2321756","latitude":"35.01666670","longitude":"36.10000000","name":"Bnamrah"},{"id":"2321797","latitude":"34.81666670","longitude":"36.11666670","name":"Borj S\ufffdf\ufffdta"},{"id":"2321816","latitude":"34.78333330","longitude":"36.08333330","name":"Boua\ufffdda"},{"id":"2321823","latitude":"34.78333330","longitude":"36.08333330","name":"Boua\ufffddet Soua\ufffdq\ufffdte"},{"id":"2321835","latitude":"34.93333330","longitude":"36.10000000","name":"Bouarad\ufffd"},{"id":"2321836","latitude":"34.93333330","longitude":"36.10000000","name":"Bouard\ufffd"},{"id":"2321882","latitude":"35.16666670","longitude":"35.93333330","name":"Boust\ufffdne enn Najj\ufffdr"},{"id":"2321926","latitude":"34.96666670","longitude":"35.91666670","name":"Bra\ufffdj"},{"id":"2321929","latitude":"34.95000000","longitude":"36.08333330","name":"Bramlikh"},{"id":"2321946","latitude":"35.01666670","longitude":"36.13333330","name":"Brha\ufffdd\ufffdte"},{"id":"2321949","latitude":"34.95000000","longitude":"36.08333330","name":"Brhaml\ufffdkh"},{"id":"2321951","latitude":"35.08333330","longitude":"36.05000000","name":"Bri\ufffdha"},{"id":"2321959","latitude":"34.91666670","longitude":"36.15000000","name":"Brikhiyah"},{"id":"2321960","latitude":"34.91666670","longitude":"36.15000000","name":"Br\ufffdkh\ufffdy\ufffd"},{"id":"2321961","latitude":"34.96666670","longitude":"36.00000000","name":"Brikiyah"},{"id":"2321962","latitude":"34.96666670","longitude":"36.00000000","name":"Br\ufffdk\ufffdy\ufffd"},{"id":"2321964","latitude":"35.00000000","longitude":"36.10000000","name":"Brisin"},{"id":"2321965","latitude":"35.00000000","longitude":"36.10000000","name":"Br\ufffdss\ufffdne"},{"id":"2321968","latitude":"35.01666670","longitude":"36.16666670","name":"Broumm\ufffdnet el Mach\ufffdyekh"},{"id":"2321969","latitude":"34.98333330","longitude":"36.06666670","name":"Broumm\ufffdnet Raad"},{"id":"2321971","latitude":"35.01666670","longitude":"36.16666670","name":"Brummanat al Masha'ikh"},{"id":"2321972","latitude":"34.98333330","longitude":"36.06666670","name":"Brummanat Ra`d"},{"id":"2321973","latitude":"34.66666670","longitude":"36.01666670","name":"Bsaissa"},{"id":"2321978","latitude":"34.81666670","longitude":"36.23333330","name":"Bsarsar"},{"id":"2321980","latitude":"35.13333330","longitude":"35.95000000","name":"Bsatin"},{"id":"2321981","latitude":"34.83333330","longitude":"36.21666670","name":"Bs\ufffdtine"},{"id":"2321993","latitude":"34.91666670","longitude":"35.93333330","name":"Bsemm\ufffdqa"},{"id":"2321998","latitude":"34.81666670","longitude":"36.05000000","name":"Bshabtah"},{"id":"2322000","latitude":"35.03333330","longitude":"36.16666670","name":"Bsham`ah"},{"id":"2322002","latitude":"34.96666670","longitude":"36.25000000","name":"Bshamshah"},{"id":"2322022","latitude":"34.91666670","longitude":"35.93333330","name":"Bsummaqah"},{"id":"2322025","latitude":"34.91666670","longitude":"35.96666670","name":"Btaba"},{"id":"2322036","latitude":"34.83333330","longitude":"36.20000000","name":"Bt\ufffdrich"},{"id":"2322039","latitude":"34.83333330","longitude":"36.20000000","name":"Btarish"},{"id":"2322045","latitude":"34.95000000","longitude":"35.96666670","name":"Btihiyah"},{"id":"2322046","latitude":"34.95000000","longitude":"35.96666670","name":"Bt\ufffdh\ufffdy\ufffd"},{"id":"2322062","latitude":"35.01666670","longitude":"36.13333330","name":"Bughaydat"},{"id":"2322079","latitude":"35.18333330","longitude":"35.95000000","name":"Bulunyas"},{"id":"2322157","latitude":"35.13333330","longitude":"35.95000000","name":"Bustan al Bukhar"},{"id":"2322162","latitude":"35.16666670","longitude":"35.93333330","name":"Bustan an Najjar"},{"id":"2322179","latitude":"34.78333330","longitude":"36.08333330","name":"Buwaydat as Suwayqat"},{"id":"2322208","latitude":"34.93333330","longitude":"36.10000000","name":"Bwardah"},{"id":"2322232","latitude":"35.05000000","longitude":"36.16666670","name":"Ch\ufffdara"},{"id":"2322309","latitude":"35.13333330","longitude":"36.18333330","name":"Chams\ufffdne"},{"id":"2322344","latitude":"34.68333330","longitude":"36.05000000","name":"Ch\ufffds"},{"id":"2322349","latitude":"34.90000000","longitude":"36.00000000","name":"Chb\ufffdte"},{"id":"2322353","latitude":"35.05000000","longitude":"36.00000000","name":"Chbo\ufffdb\ufffdy\ufffd"},{"id":"2322367","latitude":"34.95000000","longitude":"36.13333330","name":"Che\ufffdkh Abd el Q\ufffdder"},{"id":"2322382","latitude":"34.98333330","longitude":"36.08333330","name":"Che\ufffdkh Bader"},{"id":"2322384","latitude":"34.98333330","longitude":"36.08333330","name":"Che\ufffdkh Beder"},{"id":"2322391","latitude":"34.63333330","longitude":"35.96666670","name":"Che\ufffdkh Djaber"},{"id":"2322411","latitude":"34.63333330","longitude":"35.96666670","name":"Che\ufffdkh J\ufffdber"},{"id":"2322432","latitude":"34.90000000","longitude":"35.91666670","name":"Che\ufffdkh Saad"},{"id":"2322455","latitude":"34.86666670","longitude":"35.96666670","name":"Ch\ufffdm\ufffdl\ufffdy\ufffdte"},{"id":"2322457","latitude":"35.13333330","longitude":"36.18333330","name":"Chemsine"},{"id":"2322464","latitude":"35.06666670","longitude":"36.15000000","name":"Chenniy\ufffd"},{"id":"2322505","latitude":"35.10000000","longitude":"36.06666670","name":"Chk\ufffdret ed Dahh"},{"id":"2322506","latitude":"35.11666670","longitude":"36.15000000","name":"Chk\ufffdret el Bahri"},{"id":"2322513","latitude":"34.86666670","longitude":"36.16666670","name":"Chm\ufffdmis"},{"id":"2322514","latitude":"34.86666670","longitude":"36.16666670","name":"Chmamiss"},{"id":"2322534","latitude":"34.86666670","longitude":"36.15000000","name":"Choua\ufffdhd\ufffdte"},{"id":"2322654","latitude":"34.81666670","longitude":"35.93333330","name":"Dahr ad Dis"},{"id":"2322655","latitude":"34.73333330","longitude":"36.03333330","name":"Dahr ad Duwayr"},{"id":"2322656","latitude":"34.80000000","longitude":"36.15000000","name":"Dahr al Bayatirah"},{"id":"2322657","latitude":"34.71666670","longitude":"36.00000000","name":"Dahr al Hajar"},{"id":"2322659","latitude":"34.88333330","longitude":"36.03333330","name":"Dahr al Mahchale"},{"id":"2322661","latitude":"34.98333330","longitude":"36.06666670","name":"Dahr al Matn"},{"id":"2322663","latitude":"35.08333330","longitude":"35.91666670","name":"Dahr as Safra'"},{"id":"2322664","latitude":"34.75000000","longitude":"36.08333330","name":"Dahr Bashir"},{"id":"2322665","latitude":"34.75000000","longitude":"36.08333330","name":"Dahr Bch\ufffdr"},{"id":"2322666","latitude":"34.73333330","longitude":"36.03333330","name":"Dahr ed Doua\ufffdr"},{"id":"2322667","latitude":"34.80000000","longitude":"36.15000000","name":"Dahr el Bi\ufffdtra"},{"id":"2322668","latitude":"34.81666670","longitude":"35.93333330","name":"Dahr el D\ufffdss"},{"id":"2322669","latitude":"34.71666670","longitude":"36.00000000","name":"Dahr el Hajar"},{"id":"2322671","latitude":"34.88333330","longitude":"36.03333330","name":"Dahr el Mahchal\ufffd"},{"id":"2322672","latitude":"34.98333330","longitude":"36.06666670","name":"Dahr el M\ufffdt\ufffdne"},{"id":"2322675","latitude":"34.88333330","longitude":"36.03333330","name":"Dahr Mahchale"},{"id":"2322676","latitude":"34.98333330","longitude":"35.96666670","name":"Dahr Matar"},{"id":"2322677","latitude":"34.86666670","longitude":"36.03333330","name":"Dahr Matrou"},{"id":"2322678","latitude":"34.86666670","longitude":"36.03333330","name":"Dahr Matru"},{"id":"2322679","latitude":"35.08333330","longitude":"35.91666670","name":"Dahr Safra'"},{"id":"2322680","latitude":"35.08333330","longitude":"35.91666670","name":"Dahr Safrah"},{"id":"2322690","latitude":"34.66666670","longitude":"36.08333330","name":"Dakar"},{"id":"2322693","latitude":"34.68333330","longitude":"36.01666670","name":"Dakikah"},{"id":"2322701","latitude":"34.91666670","longitude":"36.13333330","name":"Dalbah"},{"id":"2322702","latitude":"34.91666670","longitude":"36.13333330","name":"Dalb\ufffd"},{"id":"2322866","latitude":"35.06666670","longitude":"35.96666670","name":"Darti"},{"id":"2322895","latitude":"35.18333330","longitude":"36.20000000","name":"Dayr al Jurd"},{"id":"2322946","latitude":"34.91666670","longitude":"36.23333330","name":"Dayrunah"},{"id":"2322955","latitude":"35.01666670","longitude":"36.00000000","name":"Dbe\ufffdb\ufffdy\ufffd"},{"id":"2322986","latitude":"35.18333330","longitude":"36.20000000","name":"De\ufffdr ej Jourd"},{"id":"2323014","latitude":"34.78333330","longitude":"35.98333330","name":"De\ufffdr Hb\ufffdch"},{"id":"2323030","latitude":"34.91666670","longitude":"36.23333330","name":"De\ufffdr\ufffdun"},{"id":"2323032","latitude":"34.91666670","longitude":"36.23333330","name":"De\ufffdro\ufffdn\ufffd"},{"id":"2323088","latitude":"34.88333330","longitude":"36.13333330","name":"Dere Kish"},{"id":"2323106","latitude":"35.08333330","longitude":"35.91666670","name":"Dhahr Safra"},{"id":"2323117","latitude":"35.08750000","longitude":"35.98333330","name":"Dhurti"},{"id":"2323160","latitude":"34.86666670","longitude":"35.95000000","name":"Dihb\ufffdch"},{"id":"2323161","latitude":"34.86666670","longitude":"35.95000000","name":"Dihbash"},{"id":"2323243","latitude":"34.71666670","longitude":"35.96666670","name":"Djimmach\ufffd"},{"id":"2323249","latitude":"34.71666670","longitude":"35.96666670","name":"Djmmach\ufffd"},{"id":"2323268","latitude":"34.68333330","longitude":"36.01666670","name":"Dka\ufffdk\ufffd"},{"id":"2323310","latitude":"34.93333330","longitude":"35.93333330","name":"Doua\ufffdr ech Che\ufffdkh Saad"},{"id":"2323313","latitude":"34.90000000","longitude":"36.18333330","name":"Doua\ufffdr el Aaoua\ufffdn\ufffdy\ufffd"},{"id":"2323318","latitude":"34.83333330","longitude":"36.23333330","name":"Doua\ufffdr el Mallo\ufffda\ufffd"},{"id":"2323320","latitude":"34.73333330","longitude":"36.08333330","name":"Doua\ufffdr ett Tla\ufffda\ufffd"},{"id":"2323325","latitude":"34.95000000","longitude":"36.18333330","name":"Doua\ufffdr Rasl\ufffdne"},{"id":"2323326","latitude":"34.96666670","longitude":"35.91666670","name":"Doua\ufffdr T\ufffdha"},{"id":"2323368","latitude":"34.88333330","longitude":"36.13333330","name":"Dra\ufffdkich"},{"id":"2323369","latitude":"34.80000000","longitude":"36.18333330","name":"Dra\ufffdkich Zra\ufffdb"},{"id":"2323371","latitude":"34.88333330","longitude":"36.13333330","name":"Draykikh"},{"id":"2323375","latitude":"34.88333330","longitude":"36.13333330","name":"Dreikich"},{"id":"2323382","latitude":"35.01666670","longitude":"36.00000000","name":"Dubaybiyah"},{"id":"2323421","latitude":"34.88333330","longitude":"36.13333330","name":"Duraykish"},{"id":"2323422","latitude":"34.80000000","longitude":"36.18333330","name":"Duraykish Zurayb"},{"id":"2323424","latitude":"34.88333330","longitude":"36.13333330","name":"Dureikish"},{"id":"2323441","latitude":"34.83333330","longitude":"36.23333330","name":"Duwayr al Mallu`a"},{"id":"2323443","latitude":"34.90000000","longitude":"36.18333330","name":"Duwayr al `Uwayniyah"},{"id":"2323445","latitude":"34.93333330","longitude":"35.93333330","name":"Duwayr ash Shaykh Sa`d"},{"id":"2323447","latitude":"34.73333330","longitude":"36.08333330","name":"Duwayr at Tulay`i"},{"id":"2323455","latitude":"34.96666670","longitude":"35.91666670","name":"Duwayritah"},{"id":"2323457","latitude":"34.95000000","longitude":"36.18333330","name":"Duwayr Raslan"},{"id":"2323458","latitude":"34.96666670","longitude":"35.91666670","name":"Duwayr Taha'"},{"id":"2323459","latitude":"34.96666670","longitude":"35.91666670","name":"Duwayr Tahah"},{"id":"2323481","latitude":"34.98333330","longitude":"36.08333330","name":"Ech Che\ufffdkh Bader"},{"id":"2323482","latitude":"34.98333330","longitude":"36.08333330","name":"Ech Cheikh Badr"},{"id":"2323486","latitude":"35.06666670","longitude":"36.25000000","name":"Ech Ch\ufffdha"},{"id":"2323499","latitude":"35.15000000","longitude":"36.15000000","name":"Ed Da\ufffd"},{"id":"2323503","latitude":"35.06666670","longitude":"36.11666670","name":"Ed Dannb\ufffdy\ufffd"},{"id":"2323514","latitude":"35.13333330","longitude":"36.13333330","name":"Ed Doua\ufffdl\ufffdy\ufffd"},{"id":"2323556","latitude":"35.15000000","longitude":"35.91666670","name":"El Aad\ufffdm\ufffd"},{"id":"2323567","latitude":"34.81666670","longitude":"35.95000000","name":"El Aam\ufffdra"},{"id":"2323586","latitude":"35.11666670","longitude":"36.03333330","name":"El Aar\ufffdd"},{"id":"2323607","latitude":"34.75000000","longitude":"36.05000000","name":"El Ara\ufffdm\ufffd"},{"id":"2323634","latitude":"35.11666670","longitude":"35.95000000","name":"El Be\ufffdda"},{"id":"2323661","latitude":"35.10000000","longitude":"36.01666670","name":"El Boust\ufffdne"},{"id":"2323678","latitude":"34.81666670","longitude":"35.98333330","name":"El Ft\ufffdss\ufffdy\ufffd"},{"id":"2323693","latitude":"34.71666670","longitude":"36.00000000","name":"El Hajar"},{"id":"2323701","latitude":"34.75000000","longitude":"35.93333330","name":"El Hammam"},{"id":"2323715","latitude":"34.71666670","longitude":"36.11666670","name":"El H\ufffdra"},{"id":"2323732","latitude":"34.78333330","longitude":"35.91666670","name":"El H\ufffdch\ufffd"},{"id":"2323833","latitude":"35.10000000","longitude":"35.95000000","name":"El Maoured"},{"id":"2323837","latitude":"35.18333330","longitude":"35.98333330","name":"El Mazl\ufffd"},{"id":"2323839","latitude":"35.06666670","longitude":"35.90000000","name":"El Mazra\ufffd"},{"id":"2323844","latitude":"35.16666670","longitude":"35.96666670","name":"El Mcha\ufffdrf\ufffd"},{"id":"2323861","latitude":"34.80000000","longitude":"35.96666670","name":"El Mina"},{"id":"2323879","latitude":"34.75000000","longitude":"35.93333330","name":"El Mount\ufffdr"},{"id":"2323880","latitude":"35.10000000","longitude":"35.95000000","name":"El Mo\ufffdr\ufffdd"},{"id":"2323883","latitude":"35.08333330","longitude":"35.96666670","name":"El Mre\ufffdj\ufffd"},{"id":"2323889","latitude":"35.13333330","longitude":"35.96666670","name":"El Ms\ufffdl"},{"id":"2323895","latitude":"35.06666670","longitude":"35.96666670","name":"El Ou\ufffddi"},{"id":"2323900","latitude":"35.08333330","longitude":"36.16666670","name":"El Qadmus"},{"id":"2323929","latitude":"35.06666670","longitude":"35.96666670","name":"El Qu\ufffddi"},{"id":"2323946","latitude":"35.16666670","longitude":"36.08333330","name":"El Rhonnsl\ufffd"},{"id":"2323948","latitude":"34.75000000","longitude":"36.01666670","name":"El Rouess"},{"id":"2323966","latitude":"35.00000000","longitude":"36.13333330","name":"Enn N\ufffdha"},{"id":"2323988","latitude":"35.03333330","longitude":"36.21666670","name":"Er Raqm\ufffd"},{"id":"2323995","latitude":"35.03333330","longitude":"36.28333330","name":"Er Ress\ufffdf\ufffd"},{"id":"2324001","latitude":"34.75000000","longitude":"36.01666670","name":"Er Roua\ufffdss"},{"id":"2324015","latitude":"35.08333330","longitude":"36.16666670","name":"Es Saad\ufffdn\ufffd"},{"id":"2324049","latitude":"34.98333330","longitude":"35.95000000","name":"Es Soda"},{"id":"2324104","latitude":"35.18333330","longitude":"35.98333330","name":"Ez Zallo"},{"id":"2324105","latitude":"35.11666670","longitude":"35.96666670","name":"Ez Zaoub\ufffd"},{"id":"2324199","latitude":"35.16666670","longitude":"36.11666670","name":"Fasan"},{"id":"2324202","latitude":"35.16666670","longitude":"36.11666670","name":"F\ufffdss\ufffdne"},{"id":"2324203","latitude":"34.86666670","longitude":"36.08333330","name":"Fatah Nassar"},{"id":"2324261","latitude":"34.98333330","longitude":"36.15000000","name":"Findarah"},{"id":"2324264","latitude":"34.98333330","longitude":"36.15000000","name":"Finnd\ufffdra"},{"id":"2324268","latitude":"35.05000000","longitude":"36.00000000","name":"Firaq"},{"id":"2324279","latitude":"35.10000000","longitude":"36.10000000","name":"Fna\ufffdt\ufffdq"},{"id":"2324291","latitude":"35.05000000","longitude":"36.00000000","name":"Fr\ufffdq"},{"id":"2324302","latitude":"34.86666670","longitude":"36.08333330","name":"Ftah Nass\ufffdr"},{"id":"2324313","latitude":"35.10000000","longitude":"36.10000000","name":"Funaytiq"},{"id":"2324507","latitude":"34.90000000","longitude":"36.00000000","name":"Hababah"},{"id":"2324508","latitude":"34.90000000","longitude":"36.00000000","name":"Hab\ufffdb\ufffd"},{"id":"2324535","latitude":"34.70000000","longitude":"36.11666670","name":"Habro\ufffdm"},{"id":"2324536","latitude":"34.70000000","longitude":"36.11666670","name":"Habroune"},{"id":"2324537","latitude":"34.70000000","longitude":"36.11666670","name":"Habroun"},{"id":"2324538","latitude":"34.70000000","longitude":"36.11666670","name":"Habrun"},{"id":"2324541","latitude":"34.95000000","longitude":"36.05000000","name":"Habso"},{"id":"2324542","latitude":"34.95000000","longitude":"36.05000000","name":"Habsu"},{"id":"2324586","latitude":"34.86666670","longitude":"36.20000000","name":"Haffah"},{"id":"2324588","latitude":"34.86666670","longitude":"36.20000000","name":"Haff\ufffd"},{"id":"2324613","latitude":"34.96666670","longitude":"36.18333330","name":"Ha\ufffdl\ufffdta"},{"id":"2324614","latitude":"35.13333330","longitude":"36.26666670","name":"Ha\ufffdlo\ufffdn\ufffd"},{"id":"2324615","latitude":"35.13333330","longitude":"36.26666670","name":"Ha\ufffdo\ufffdn\ufffd"},{"id":"2324616","latitude":"34.93333330","longitude":"36.15000000","name":"Ha\ufffdr Bzaft"},{"id":"2324759","latitude":"34.75000000","longitude":"35.93333330","name":"Haman"},{"id":"2324782","latitude":"34.71666670","longitude":"35.93333330","name":"Hamide"},{"id":"2324786","latitude":"34.71666670","longitude":"35.93333330","name":"Hamidieh"},{"id":"2324790","latitude":"34.71666670","longitude":"35.93333330","name":"Hamidiya"},{"id":"2324795","latitude":"34.71666670","longitude":"35.93333330","name":"Hamidiyah"},{"id":"2324800","latitude":"34.71666670","longitude":"35.93333330","name":"Ham\ufffddiy\ufffd"},{"id":"2324820","latitude":"34.75000000","longitude":"35.93333330","name":"Hammam"},{"id":"2324826","latitude":"35.06666670","longitude":"36.08333330","name":"Hamm\ufffdm Ou\ufffdssel"},{"id":"2324827","latitude":"35.05000000","longitude":"36.20000000","name":"Hamm\ufffdm Qani\ufffd"},{"id":"2324828","latitude":"35.05000000","longitude":"36.20000000","name":"Hammam Qanyah"},{"id":"2324836","latitude":"35.06666670","longitude":"36.08333330","name":"Hammam Wasil"},{"id":"2324840","latitude":"34.88333330","longitude":"35.95000000","name":"H\ufffdmmo\ufffdch Srask\ufffd"},{"id":"2324846","latitude":"34.88333330","longitude":"35.95000000","name":"H\ufffdmo\ufffdch Srask\ufffd"},{"id":"2324864","latitude":"34.88333330","longitude":"35.95000000","name":"Hamush Sraski"},{"id":"2324889","latitude":"35.00000000","longitude":"35.95000000","name":"Hannf\ufffdy\ufffd"},{"id":"2324996","latitude":"34.71666670","longitude":"36.11666670","name":"Harat at Tulay`i"},{"id":"2325038","latitude":"34.71666670","longitude":"36.11666670","name":"H\ufffdret ett Tla\ufffda\ufffd"},{"id":"2325041","latitude":"34.76666670","longitude":"36.05000000","name":"H\ufffdret Tirkat"},{"id":"2325042","latitude":"34.76666670","longitude":"36.05000000","name":"H\ufffdret Torkab"},{"id":"2325125","latitude":"34.65000000","longitude":"36.08333330","name":"Hasn\ufffd"},{"id":"2325169","latitude":"35.10000000","longitude":"36.20000000","name":"H\ufffdtr\ufffdy\ufffd"},{"id":"2325175","latitude":"35.13333330","longitude":"36.06666670","name":"Hatt\ufffdn\ufffdy\ufffd"},{"id":"2325247","latitude":"34.96666670","longitude":"36.18333330","name":"Haylata"},{"id":"2325255","latitude":"34.93333330","longitude":"36.15000000","name":"Hayr Bzaft"},{"id":"2325301","latitude":"35.15000000","longitude":"36.20000000","name":"Hd\ufffdd\ufffd"},{"id":"2325302","latitude":"35.10000000","longitude":"36.13333330","name":"Hdandush"},{"id":"2325303","latitude":"35.10000000","longitude":"36.13333330","name":"Hdanndo\ufffdch"},{"id":"2325305","latitude":"35.08333330","longitude":"35.95000000","name":"H\ufffdbo"},{"id":"2325336","latitude":"34.75000000","longitude":"36.10000000","name":"Hermel"},{"id":"2325342","latitude":"34.78333330","longitude":"35.91666670","name":"H\ufffdch\ufffd"},{"id":"2325345","latitude":"35.15000000","longitude":"36.20000000","name":"Hidadah"},{"id":"2325358","latitude":"34.83333330","longitude":"35.98333330","name":"Hikr Aasfo\ufffdr"},{"id":"2325359","latitude":"34.81666670","longitude":"35.96666670","name":"Hikr al Hajj"},{"id":"2325361","latitude":"34.85000000","longitude":"35.90000000","name":"Hikr Bayt `Alyan"},{"id":"2325362","latitude":"34.71666670","longitude":"36.06666670","name":"Hikr Bayt Hirmise"},{"id":"2325363","latitude":"34.80000000","longitude":"36.05000000","name":"Hikr Bayt Shufan al Fawqani"},{"id":"2325364","latitude":"34.80000000","longitude":"36.05000000","name":"Hikr be\ufffd Cho\ufffdf\ufffdne"},{"id":"2325365","latitude":"34.85000000","longitude":"35.90000000","name":"Hikr be\ufffdt Aali\ufffdne"},{"id":"2325366","latitude":"34.80000000","longitude":"36.05000000","name":"Hikr be\ufffdt Cho\ufffdf\ufffdne Faouq\ufffdni"},{"id":"2325367","latitude":"34.71666670","longitude":"36.06666670","name":"Hikr Be\ufffdt Hermiss"},{"id":"2325368","latitude":"34.71666670","longitude":"36.06666670","name":"Hikr Be\ufffdt Hilmiss"},{"id":"2325369","latitude":"34.71666670","longitude":"36.06666670","name":"Hikr Be\ufffdt Hirm\ufffdss"},{"id":"2325370","latitude":"34.83333330","longitude":"35.96666670","name":"Hikr Chaho\ufffdd"},{"id":"2325371","latitude":"34.81666670","longitude":"35.96666670","name":"Hikr el Hajj"},{"id":"2325373","latitude":"34.75000000","longitude":"36.13333330","name":"Hikr Joubb el Aml\ufffds"},{"id":"2325374","latitude":"34.75000000","longitude":"36.13333330","name":"Hikr Jubb al Amlas"},{"id":"2325376","latitude":"34.83333330","longitude":"35.96666670","name":"Hikr Shahud"},{"id":"2325378","latitude":"34.83333330","longitude":"35.98333330","name":"Hikr `Usfur"},{"id":"2325387","latitude":"34.88333330","longitude":"36.03333330","name":"Himmine"},{"id":"2325388","latitude":"34.88333330","longitude":"36.03333330","name":"Himmin"},{"id":"2325407","latitude":"34.78333330","longitude":"35.91666670","name":"Hishah"},{"id":"2325411","latitude":"34.93333330","longitude":"36.25000000","name":"His Sulayman"},{"id":"2325450","latitude":"34.93333330","longitude":"36.25000000","name":"Hosn es Sla\ufffdm\ufffdne"},{"id":"2325451","latitude":"34.93333330","longitude":"36.25000000","name":"Hosn Sla\ufffdm\ufffdne"},{"id":"2325470","latitude":"34.71666670","longitude":"36.00000000","name":"Houa\ufffdss\ufffdy\ufffd"},{"id":"2325487","latitude":"34.81666670","longitude":"36.15000000","name":"Ho\ufffdho"},{"id":"2325502","latitude":"34.98333330","longitude":"35.90000000","name":"Houssa\ufffdne el Bahr"},{"id":"2325539","latitude":"34.81666670","longitude":"36.15000000","name":"Huhu"},{"id":"2325582","latitude":"34.98333330","longitude":"35.90000000","name":"Husayn al Bahr"},{"id":"2325593","latitude":"34.93333330","longitude":"36.25000000","name":"Husn Sulayman"},{"id":"2325595","latitude":"34.98333330","longitude":"35.90000000","name":"Hussein"},{"id":"2325630","latitude":"34.71666670","longitude":"36.00000000","name":"Huwaysiyah"},{"id":"2325726","latitude":"35.15000000","longitude":"36.05000000","name":"Isqablah"},{"id":"2325727","latitude":"35.15000000","longitude":"36.05000000","name":"Isqabla"},{"id":"2325875","latitude":"34.95000000","longitude":"36.00000000","name":"Jamm\ufffdch\ufffdy\ufffd"},{"id":"2325876","latitude":"35.05000000","longitude":"36.15000000","name":"Jammasah al Qibliyah"},{"id":"2325878","latitude":"35.08333330","longitude":"36.13333330","name":"Jammasat Farhah"},{"id":"2325879","latitude":"34.95000000","longitude":"36.00000000","name":"Jammashiyah"},{"id":"2325881","latitude":"34.71666670","longitude":"35.96666670","name":"Jamm\ufffdss\ufffd"},{"id":"2325882","latitude":"35.05000000","longitude":"36.15000000","name":"Jamm\ufffdss\ufffd Qibl\ufffdy\ufffd"},{"id":"2325883","latitude":"35.08333330","longitude":"36.13333330","name":"Jamm\ufffdsset Far'ha"},{"id":"2325898","latitude":"34.93333330","longitude":"36.21666670","name":"J\ufffdne"},{"id":"2325901","latitude":"34.88333330","longitude":"36.25000000","name":"Jan\ufffdne"},{"id":"2325902","latitude":"34.88333330","longitude":"36.25000000","name":"Janin"},{"id":"2325903","latitude":"34.93333330","longitude":"36.21666670","name":"Jan"},{"id":"2325911","latitude":"34.90000000","longitude":"35.95000000","name":"Jaoub\ufffd"},{"id":"2325920","latitude":"35.08333330","longitude":"36.10000000","name":"Jaoubet Mohmis"},{"id":"2325921","latitude":"35.03333330","longitude":"36.16666670","name":"Jaoubet Moujber"},{"id":"2325962","latitude":"34.83333330","longitude":"36.06666670","name":"Jarou\ufffdy\ufffd"},{"id":"2325980","latitude":"34.65000000","longitude":"35.98333330","name":"Jawamisiyah"},{"id":"2325989","latitude":"35.08333330","longitude":"36.10000000","name":"Jawbat Muhmis"},{"id":"2325990","latitude":"35.03333330","longitude":"36.16666670","name":"Jawbat Mujbir"},{"id":"2326012","latitude":"34.88333330","longitude":"36.18333330","name":"Jb\ufffdb"},{"id":"2326016","latitude":"35.01666670","longitude":"36.20000000","name":"Jba\ufffdta"},{"id":"2326022","latitude":"34.75000000","longitude":"36.13333330","name":"Jbel Amliss"},{"id":"2326030","latitude":"34.95000000","longitude":"35.96666670","name":"Jda\ufffdd\ufffd"},{"id":"2326033","latitude":"34.83333330","longitude":"35.95000000","name":"Jda\ufffddet el Bahr"},{"id":"2326048","latitude":"34.90000000","longitude":"35.91666670","name":"Jde\ufffdt\ufffd"},{"id":"2326054","latitude":"34.63333330","longitude":"35.96666670","name":"Jebeaa"},{"id":"2326107","latitude":"34.88333330","longitude":"36.18333330","name":"Jibab"},{"id":"2326208","latitude":"35.13333330","longitude":"36.00000000","name":"Jla\ufffdti"},{"id":"2326215","latitude":"35.06666670","longitude":"35.91666670","name":"Jna\ufffdn\ufffd"},{"id":"2326218","latitude":"34.91666670","longitude":"36.11666670","name":"Jna\ufffdnet Rasl\ufffdne"},{"id":"2326222","latitude":"34.88333330","longitude":"36.25000000","name":"Jn\ufffdne"},{"id":"2326232","latitude":"35.05000000","longitude":"36.06666670","name":"Joua\ufffdti"},{"id":"2326235","latitude":"34.65000000","longitude":"35.98333330","name":"Jouamisseh"},{"id":"2326236","latitude":"34.65000000","longitude":"35.98333330","name":"Jou\ufffdm\ufffdss\ufffd"},{"id":"2326270","latitude":"34.75000000","longitude":"36.18333330","name":"Joubb el Aml\ufffds"},{"id":"2326333","latitude":"34.75000000","longitude":"36.18333330","name":"Joub el Aml\ufffds"},{"id":"2326338","latitude":"35.13333330","longitude":"36.13333330","name":"Jo\ufffdf\ufffdne"},{"id":"2326347","latitude":"34.80000000","longitude":"36.08333330","name":"Jo\ufffdret Channbo\ufffdr"},{"id":"2326348","latitude":"34.88333330","longitude":"36.18333330","name":"Jo\ufffdret Chatbo\ufffdch"},{"id":"2326349","latitude":"34.88333330","longitude":"36.18333330","name":"Jo\ufffdret Chattbo\ufffdch"},{"id":"2326377","latitude":"34.90000000","longitude":"36.03333330","name":"Jras"},{"id":"2326389","latitude":"35.01666670","longitude":"36.20000000","name":"Jubayta"},{"id":"2326400","latitude":"34.75000000","longitude":"36.18333330","name":"Jubb al Amlas"},{"id":"2326493","latitude":"34.95000000","longitude":"35.96666670","name":"Judaydah"},{"id":"2326495","latitude":"34.83333330","longitude":"35.95000000","name":"Judaydat al Bahr"},{"id":"2326508","latitude":"34.90000000","longitude":"35.91666670","name":"Judaytah"},{"id":"2326512","latitude":"35.13333330","longitude":"36.13333330","name":"Jufin"},{"id":"2326517","latitude":"35.13333330","longitude":"36.00000000","name":"Julayti"},{"id":"2326526","latitude":"35.06666670","longitude":"35.91666670","name":"Junaynah"},{"id":"2326529","latitude":"34.91666670","longitude":"36.11666670","name":"Junaynat Raslan"},{"id":"2326540","latitude":"34.80000000","longitude":"36.08333330","name":"Jurat ash Shanbur"},{"id":"2326544","latitude":"34.88333330","longitude":"36.18333330","name":"Jurat Shatbush"},{"id":"2326567","latitude":"35.22916670","longitude":"36.02500000","name":"Juwaybat"},{"id":"2326573","latitude":"35.05000000","longitude":"36.06666670","name":"Juwayti"},{"id":"2326577","latitude":"35.15000000","longitude":"36.13333330","name":"Kaab\ufffdyet Dmar"},{"id":"2326578","latitude":"35.15000000","longitude":"36.13333330","name":"Kaab\ufffdyet Omar"},{"id":"2326592","latitude":"35.15000000","longitude":"36.13333330","name":"Ka`biyat `Umar"},{"id":"2326608","latitude":"34.80000000","longitude":"36.01666670","name":"Kachf\ufffd"},{"id":"2326614","latitude":"35.08333330","longitude":"36.16666670","name":"Kadmous"},{"id":"2326620","latitude":"35.05000000","longitude":"36.11666670","name":"Kaf al Hamam"},{"id":"2326621","latitude":"35.08333330","longitude":"36.20000000","name":"Kaf al Ja`"},{"id":"2326628","latitude":"35.08333330","longitude":"36.20000000","name":"K\ufffdf ej J\ufffda"},{"id":"2326630","latitude":"35.05000000","longitude":"36.11666670","name":"K\ufffdf el Ham\ufffdm"},{"id":"2326660","latitude":"34.86666670","longitude":"36.13333330","name":"Kafer Ch\ufffdrher"},{"id":"2326683","latitude":"34.71666670","longitude":"36.08333330","name":"Kafer Fou"},{"id":"2326703","latitude":"34.90000000","longitude":"36.28333330","name":"Kafer Jou\ufffdya"},{"id":"2326709","latitude":"34.86666670","longitude":"36.03333330","name":"Kafer K\ufffdne"},{"id":"2326760","latitude":"34.91666670","longitude":"36.10000000","name":"Kafer Tallech"},{"id":"2326761","latitude":"34.91666670","longitude":"36.10000000","name":"Kafer Tellech"},{"id":"2326845","latitude":"34.71666670","longitude":"36.08333330","name":"Kafr Fu"},{"id":"2326867","latitude":"34.96666670","longitude":"36.06666670","name":"Kafriyah"},{"id":"2326873","latitude":"34.90000000","longitude":"36.28333330","name":"Kafr Jwaya"},{"id":"2326880","latitude":"34.86666670","longitude":"36.03333330","name":"Kafr Kan"},{"id":"2326911","latitude":"34.85000000","longitude":"36.23333330","name":"Kafro\ufffdn Bacho\ufffdr"},{"id":"2326912","latitude":"34.85000000","longitude":"36.23333330","name":"Kafroun"},{"id":"2326928","latitude":"34.86666670","longitude":"36.13333330","name":"Kafr Shaghir"},{"id":"2326939","latitude":"34.91666670","longitude":"36.10000000","name":"Kafr Tallash"},{"id":"2326942","latitude":"34.85000000","longitude":"36.23333330","name":"Kafrun Bashur"},{"id":"2326943","latitude":"34.85000000","longitude":"36.23333330","name":"Kafrun"},{"id":"2326979","latitude":"35.16666670","longitude":"36.10000000","name":"Kalaat el Aleika"},{"id":"2327019","latitude":"35.00000000","longitude":"36.20000000","name":"K\ufffdmliy\ufffd"},{"id":"2327025","latitude":"35.03333330","longitude":"35.98333330","name":"Kamsiyu"},{"id":"2327027","latitude":"34.80000000","longitude":"36.01666670","name":"Kana'is"},{"id":"2327035","latitude":"34.80000000","longitude":"36.01666670","name":"Kan\ufffdyess"},{"id":"2327059","latitude":"34.98333330","longitude":"36.03333330","name":"Kaoukab"},{"id":"2327060","latitude":"35.15000000","longitude":"36.10000000","name":"Kaouka\ufffd"},{"id":"2327068","latitude":"34.95000000","longitude":"36.15000000","name":"Karafs"},{"id":"2327101","latitude":"35.06666670","longitude":"36.04166670","name":"Karim"},{"id":"2327112","latitude":"35.10000000","longitude":"36.08333330","name":"Karm at Tin"},{"id":"2327113","latitude":"35.08333330","longitude":"35.95000000","name":"Karmaya"},{"id":"2327115","latitude":"34.83333330","longitude":"35.98333330","name":"Karm Ba\ufffdram"},{"id":"2327116","latitude":"34.83333330","longitude":"35.98333330","name":"Karm Bayram"},{"id":"2327118","latitude":"35.10000000","longitude":"36.08333330","name":"Karm et Tine"},{"id":"2327119","latitude":"35.10000000","longitude":"36.08333330","name":"Karm ett T\ufffdne"},{"id":"2327122","latitude":"34.85000000","longitude":"36.15000000","name":"Karm Mrha\ufffdzel"},{"id":"2327123","latitude":"34.85000000","longitude":"36.15000000","name":"Karm Mughayzil"},{"id":"2327136","latitude":"34.66666670","longitude":"36.06666670","name":"Karto"},{"id":"2327137","latitude":"34.66666670","longitude":"36.06666670","name":"Kartu"},{"id":"2327143","latitude":"34.80000000","longitude":"36.01666670","name":"Kashfah"},{"id":"2327206","latitude":"34.98333330","longitude":"36.03333330","name":"Kawkab al Hawa'"},{"id":"2327210","latitude":"35.15000000","longitude":"36.10000000","name":"Kawka`i"},{"id":"2327293","latitude":"35.15000000","longitude":"36.00000000","name":"Kerd\ufffdy\ufffd"},{"id":"2327334","latitude":"34.96666670","longitude":"36.06666670","name":"Kf\ufffdri\ufffd"},{"id":"2327337","latitude":"34.83333330","longitude":"36.10000000","name":"Kfarrikhah"},{"id":"2327338","latitude":"34.83333330","longitude":"36.10000000","name":"Kfarr\ufffdkha"},{"id":"2327561","latitude":"34.65000000","longitude":"35.95000000","name":"Kharabeh"},{"id":"2327578","latitude":"35.06666670","longitude":"35.88333330","name":"Kharab Marqiyah"},{"id":"2327579","latitude":"35.06666670","longitude":"35.88333330","name":"Khar\ufffdb Marqiy\ufffd"},{"id":"2327725","latitude":"35.06666670","longitude":"36.11666670","name":"Kheurbet A\ufffdmo\ufffddi"},{"id":"2327753","latitude":"34.95000000","longitude":"36.15000000","name":"Kheurbet Ch\ufffdti"},{"id":"2327779","latitude":"34.63333330","longitude":"36.05000000","name":"Kheurbet el Akr\ufffdd"},{"id":"2327793","latitude":"34.93333330","longitude":"36.00000000","name":"Kheurbet el Farass"},{"id":"2327804","latitude":"34.80000000","longitude":"36.00000000","name":"Kheurbet el Maaz\ufffd"},{"id":"2327808","latitude":"35.10000000","longitude":"36.06666670","name":"Kheurbet el Qabou"},{"id":"2327818","latitude":"34.93333330","longitude":"36.03333330","name":"Kheurbet er R\ufffdh"},{"id":"2327859","latitude":"35.16666670","longitude":"36.06666670","name":"Kheurbet Kassih"},{"id":"2327870","latitude":"35.08333330","longitude":"36.11666670","name":"Kheurbet Makk\ufffdr"},{"id":"2327905","latitude":"35.01666670","longitude":"36.08333330","name":"Kheurbet Taqla"},{"id":"2327950","latitude":"34.63333330","longitude":"36.05000000","name":"Khirbat al Akrad"},{"id":"2327966","latitude":"34.93333330","longitude":"36.00000000","name":"Khirbat al Faras"},{"id":"2327994","latitude":"34.80000000","longitude":"36.00000000","name":"Khirbat al Ma`zah"},{"id":"2328001","latitude":"35.10000000","longitude":"36.06666670","name":"Khirbat al Qabw"},{"id":"2328008","latitude":"35.06666670","longitude":"36.11666670","name":"Khirbat `Amudi"},{"id":"2328019","latitude":"34.93333330","longitude":"36.03333330","name":"Khirbat ar Rih"},{"id":"2328111","latitude":"35.16666670","longitude":"36.06666670","name":"Khirbat Kasih"},{"id":"2328124","latitude":"35.08333330","longitude":"36.11666670","name":"Khirbat Makkar"},{"id":"2328157","latitude":"34.95000000","longitude":"36.15000000","name":"Khirbat Shati"},{"id":"2328170","latitude":"35.01666670","longitude":"36.08333330","name":"Khirbat Taqla"},{"id":"2328205","latitude":"34.81666670","longitude":"36.11666670","name":"Khokhu"},{"id":"2328225","latitude":"34.65000000","longitude":"35.95000000","name":"Khr\ufffdbe"},{"id":"2328228","latitude":"34.88333330","longitude":"35.93333330","name":"Khra\ufffdb\ufffdte"},{"id":"2328234","latitude":"35.10000000","longitude":"35.98333330","name":"Khra\ufffdb\ufffd"},{"id":"2328242","latitude":"35.09166670","longitude":"35.96666670","name":"Khubbah"},{"id":"2328256","latitude":"35.10000000","longitude":"35.98333330","name":"Khuraybah"},{"id":"2328258","latitude":"34.88333330","longitude":"35.93333330","name":"Khuraybat"},{"id":"2328301","latitude":"34.75000000","longitude":"36.13333330","name":"Kikr Jouob el Amlass"},{"id":"2328411","latitude":"35.03333330","longitude":"36.21666670","name":"Knaisse"},{"id":"2328417","latitude":"34.78333330","longitude":"36.11666670","name":"Kn\ufffdss\ufffd"},{"id":"2328493","latitude":"34.95000000","longitude":"36.15000000","name":"Krafs"},{"id":"2328495","latitude":"35.05000000","longitude":"36.03333330","name":"Kra\ufffdm"},{"id":"2328588","latitude":"35.15000000","longitude":"36.00000000","name":"Kurdiyah"},{"id":"2328646","latitude":"34.68333330","longitude":"35.95000000","name":"Lahah"},{"id":"2328647","latitude":"34.68333330","longitude":"35.95000000","name":"Laha"},{"id":"2328671","latitude":"34.81666670","longitude":"35.95000000","name":"Laouz\ufffd"},{"id":"2328687","latitude":"34.81666670","longitude":"35.95000000","name":"Lawzah"},{"id":"2328714","latitude":"34.81666670","longitude":"35.98333330","name":"Louft\ufffdss\ufffdy\ufffd"},{"id":"2328871","latitude":"35.03333330","longitude":"35.96666670","name":"Maati"},{"id":"2328903","latitude":"34.86666670","longitude":"36.25000000","name":"Machta H\ufffdlou"},{"id":"2328928","latitude":"34.66666670","longitude":"36.11666670","name":"Madhalah"},{"id":"2328929","latitude":"34.66666670","longitude":"36.11666670","name":"Madhal\ufffd"},{"id":"2329033","latitude":"34.81666670","longitude":"35.95000000","name":"Majdalo\ufffdn el Bahr"},{"id":"2329034","latitude":"34.81666670","longitude":"35.95000000","name":"Majdalo\ufffdn el Boust\ufffdne"},{"id":"2329037","latitude":"34.81666670","longitude":"35.95000000","name":"Majdalun al Bustan"},{"id":"2329039","latitude":"34.81666670","longitude":"35.95000000","name":"Majdel el Bahr"},{"id":"2329042","latitude":"35.05000000","longitude":"36.23333330","name":"Majdel"},{"id":"2329086","latitude":"34.93333330","longitude":"35.96666670","name":"Malikah"},{"id":"2329090","latitude":"34.93333330","longitude":"35.96666670","name":"Malk\ufffd"},{"id":"2329129","latitude":"34.80000000","longitude":"36.15000000","name":"Manndra"},{"id":"2329136","latitude":"34.81666670","longitude":"36.08333330","name":"Mannzal\ufffd"},{"id":"2329143","latitude":"34.75000000","longitude":"35.93333330","name":"Mantar"},{"id":"2329146","latitude":"34.81666670","longitude":"36.08333330","name":"Manzalah"},{"id":"2329152","latitude":"35.08333330","longitude":"35.93333330","name":"Maq`ariyah"},{"id":"2329180","latitude":"35.13333330","longitude":"35.91666670","name":"Mar\ufffdh"},{"id":"2329191","latitude":"34.90000000","longitude":"36.11666670","name":"Marbh\ufffdne"},{"id":"2329192","latitude":"34.90000000","longitude":"36.11666670","name":"Marbhin"},{"id":"2329203","latitude":"35.15000000","longitude":"35.95000000","name":"Margab"},{"id":"2329228","latitude":"34.81666670","longitude":"36.16666670","name":"Marj Db\ufffdb"},{"id":"2329229","latitude":"34.81666670","longitude":"36.16666670","name":"Marj Dhubab"},{"id":"2329250","latitude":"35.15000000","longitude":"35.95000000","name":"Markhob"},{"id":"2329254","latitude":"35.05000000","longitude":"36.05000000","name":"M\ufffdrmo\ufffdn\ufffdy\ufffd"},{"id":"2329258","latitude":"35.05000000","longitude":"36.05000000","name":"M\ufffdro\ufffdn\ufffdy\ufffd"},{"id":"2329259","latitude":"35.15000000","longitude":"35.95000000","name":"Marqab"},{"id":"2329274","latitude":"34.91666670","longitude":"35.98333330","name":"Marsh\ufffdne"},{"id":"2329275","latitude":"34.91666670","longitude":"35.98333330","name":"Marshin"},{"id":"2329285","latitude":"35.05000000","longitude":"36.05000000","name":"Maruniyah"},{"id":"2329306","latitude":"34.88333330","longitude":"36.00000000","name":"Mashab"},{"id":"2329313","latitude":"34.96666670","longitude":"36.20000000","name":"Mashli"},{"id":"2329342","latitude":"34.86666670","longitude":"36.25000000","name":"Mashta al Hulw"},{"id":"2329353","latitude":"35.20000000","longitude":"36.19166670","name":"Mashta Qulay`at Wasil"},{"id":"2329407","latitude":"35.03333330","longitude":"35.96666670","name":"Ma`ti"},{"id":"2329415","latitude":"35.03333330","longitude":"35.93333330","name":"Matn Abu Rayya"},{"id":"2329417","latitude":"34.98333330","longitude":"35.90000000","name":"Matn `Arnuq"},{"id":"2329418","latitude":"34.73333330","longitude":"36.05000000","name":"Matn as Safsafah"},{"id":"2329494","latitude":"35.00000000","longitude":"35.93333330","name":"Mazra`at al Hanafiyah"},{"id":"2329497","latitude":"35.01666670","longitude":"35.96666670","name":"Mazra`at al Mallu`a"},{"id":"2329531","latitude":"35.00000000","longitude":"35.93333330","name":"Mazraat el Hannf\ufffdy\ufffd"},{"id":"2329532","latitude":"35.01666670","longitude":"35.96666670","name":"Mazraat el Mallo\ufffda\ufffd"},{"id":"2329588","latitude":"34.63333330","longitude":"36.08333330","name":"Mcha\ufffdrf\ufffd"},{"id":"2329589","latitude":"34.86666670","longitude":"35.96666670","name":"Mcha\ufffdrfet B\ufffdssett"},{"id":"2329593","latitude":"34.86666670","longitude":"36.05000000","name":"Mcha\ufffdrfet Kahl\ufffd"},{"id":"2329596","latitude":"34.63333330","longitude":"36.08333330","name":"Mcheirf\ufffd"},{"id":"2329630","latitude":"34.96666670","longitude":"36.20000000","name":"Mechli"},{"id":"2329712","latitude":"35.15000000","longitude":"35.95000000","name":"Merqab"},{"id":"2329726","latitude":"35.03333330","longitude":"35.93333330","name":"M\ufffdt\ufffdna abou Ra\ufffdya"},{"id":"2329727","latitude":"34.98333330","longitude":"35.90000000","name":"M\ufffdt\ufffdne Aarno\ufffdq"},{"id":"2329728","latitude":"35.03333330","longitude":"35.93333330","name":"M\ufffdt\ufffdne abou Ra\ufffdya"},{"id":"2329731","latitude":"34.73333330","longitude":"36.05000000","name":"M\ufffdt\ufffdne Safs\ufffdf\ufffd"},{"id":"2329753","latitude":"34.96666670","longitude":"36.25000000","name":"Mhailb\ufffd"},{"id":"2329760","latitude":"34.80000000","longitude":"36.00000000","name":"M\ufffda\ufffdr el Mchadd"},{"id":"2329761","latitude":"34.80000000","longitude":"36.00000000","name":"M\ufffda\ufffdr"},{"id":"2329762","latitude":"34.80000000","longitude":"36.00000000","name":"Mi`ar al Mchadd"},{"id":"2329794","latitude":"34.90000000","longitude":"35.86666670","name":"Mina"},{"id":"2329800","latitude":"34.80000000","longitude":"35.96666670","name":"Minia"},{"id":"2329802","latitude":"34.80000000","longitude":"35.96666670","name":"Miniyeh"},{"id":"2329806","latitude":"34.80000000","longitude":"35.96666670","name":"Minni\ufffd"},{"id":"2329810","latitude":"34.80000000","longitude":"35.96666670","name":"Minyah"},{"id":"2329863","latitude":"35.01666670","longitude":"36.11666670","name":"Mja\ufffddel"},{"id":"2329870","latitude":"34.93333330","longitude":"36.00000000","name":"Mkha\ufffdneq"},{"id":"2329921","latitude":"34.76666670","longitude":"36.06666670","name":"Moua\ufffdsn\ufffd"},{"id":"2329925","latitude":"34.71666670","longitude":"36.00000000","name":"Mouassiaa"},{"id":"2329934","latitude":"35.06666670","longitude":"35.96666670","name":"Mo\ufffdch\ufffd"},{"id":"2329960","latitude":"35.03333330","longitude":"36.13333330","name":"Moujber"},{"id":"2329985","latitude":"34.75000000","longitude":"35.93333330","name":"Mountar"},{"id":"2330044","latitude":"35.06666670","longitude":"35.91666670","name":"Mqaabr\ufffdy\ufffd"},{"id":"2330047","latitude":"35.08333330","longitude":"36.18333330","name":"Mqarmad\ufffd"},{"id":"2330052","latitude":"35.13333330","longitude":"35.91666670","name":"Mr\ufffdh"},{"id":"2330057","latitude":"35.03333330","longitude":"36.08333330","name":"Mra\ufffdj\ufffd"},{"id":"2330058","latitude":"34.96666670","longitude":"36.10000000","name":"Mra\ufffdqeb"},{"id":"2330061","latitude":"34.91666670","longitude":"36.18333330","name":"Mr\ufffdj"},{"id":"2330064","latitude":"35.11666670","longitude":"36.05000000","name":"Mrashtah"},{"id":"2330067","latitude":"35.11666670","longitude":"36.05000000","name":"Mrecht\ufffd"},{"id":"2330098","latitude":"34.85000000","longitude":"35.95000000","name":"Mt\ufffdhr\ufffdy\ufffd"},{"id":"2330102","latitude":"34.73333330","longitude":"36.05000000","name":"Mtene Safsafe"},{"id":"2330167","latitude":"35.01666670","longitude":"36.11666670","name":"Mujaydil"},{"id":"2330169","latitude":"35.03333330","longitude":"36.13333330","name":"Mujbir"},{"id":"2330182","latitude":"34.93333330","longitude":"36.00000000","name":"Mukhayniq"},{"id":"2330204","latitude":"34.80000000","longitude":"35.96666670","name":"Munayyah"},{"id":"2330213","latitude":"34.75000000","longitude":"35.93333330","name":"Muntar"},{"id":"2330214","latitude":"34.80000000","longitude":"35.96666670","name":"Munyah"},{"id":"2330217","latitude":"35.10000000","longitude":"36.10000000","name":"Muqaybilah"},{"id":"2330241","latitude":"35.03333330","longitude":"36.08333330","name":"Murayjah"},{"id":"2330270","latitude":"35.06666670","longitude":"35.96666670","name":"Mushah"},{"id":"2330288","latitude":"34.86666670","longitude":"35.96666670","name":"Mushayrifat Basit"},{"id":"2330289","latitude":"34.86666670","longitude":"36.05000000","name":"Mushayrifat Kahla'"},{"id":"2330305","latitude":"34.85000000","longitude":"35.95000000","name":"Mutahiriyah"},{"id":"2330328","latitude":"34.76666670","longitude":"36.06666670","name":"Muwaysinah"},{"id":"2330344","latitude":"34.96666670","longitude":"35.98333330","name":"Na`amah"},{"id":"2330349","latitude":"34.96666670","longitude":"35.98333330","name":"Na\ufffdm\ufffd"},{"id":"2330354","latitude":"35.06666670","longitude":"36.03333330","name":"Naamo el Rharb\ufffdy\ufffd"},{"id":"2330355","latitude":"35.06666670","longitude":"36.13333330","name":"Naano"},{"id":"2330358","latitude":"34.80000000","longitude":"36.10000000","name":"Na\ufffdss\ufffdte"},{"id":"2330360","latitude":"34.76666670","longitude":"36.18333330","name":"Nabaa el Aaro\ufffds"},{"id":"2330369","latitude":"34.83333330","longitude":"36.23333330","name":"Nabaa Karkar"},{"id":"2330373","latitude":"34.76666670","longitude":"36.18333330","name":"Nab` al `Arus"},{"id":"2330385","latitude":"35.03333330","longitude":"36.08333330","name":"Nabi Allah Yo\ufffdnes"},{"id":"2330387","latitude":"35.03333330","longitude":"36.08333330","name":"Nabi Yo\ufffdn\ufffds"},{"id":"2330388","latitude":"34.83333330","longitude":"36.23333330","name":"Nab` Karkar"},{"id":"2330424","latitude":"34.73333330","longitude":"36.08333330","name":"N\ufffdho\ufffdte"},{"id":"2330431","latitude":"34.73333330","longitude":"36.08333330","name":"Nahut"},{"id":"2330456","latitude":"35.01666670","longitude":"36.03333330","name":"Namiriyah"},{"id":"2330462","latitude":"35.01666670","longitude":"36.03333330","name":"Namr\ufffdy\ufffd"},{"id":"2330464","latitude":"35.06666670","longitude":"36.03333330","name":"Na`mu al Gharbiyah"},{"id":"2330466","latitude":"35.06666670","longitude":"36.13333330","name":"Na`nu"},{"id":"2330475","latitude":"34.85000000","longitude":"35.96666670","name":"Naq\ufffdb"},{"id":"2330509","latitude":"35.15416670","longitude":"36.16250000","name":"Nawatif"},{"id":"2330566","latitude":"35.02083330","longitude":"36.69583330","name":"Nisrin"},{"id":"2330575","latitude":"35.15000000","longitude":"36.16666670","name":"Nou\ufffdt\ufffdf"},{"id":"2330584","latitude":"34.91666670","longitude":"35.86666670","name":"No\ufffdri el Qorne\ufffdne"},{"id":"2330603","latitude":"34.91666670","longitude":"35.86666670","name":"Nuri al Qarnayn"},{"id":"2330612","latitude":"35.16666670","longitude":"36.10000000","name":"Olla\ufffdqa"},{"id":"2330639","latitude":"35.01666670","longitude":"36.13333330","name":"Ou\ufffddi el Baqar"},{"id":"2330643","latitude":"34.73333330","longitude":"36.06666670","name":"Ou\ufffddi el Me\ufffdss"},{"id":"2330644","latitude":"34.73333330","longitude":"36.06666670","name":"Ou\ufffddi el Miess"},{"id":"2330658","latitude":"34.78333330","longitude":"35.98333330","name":"Ouaqf ech Che\ufffdkh A\ufffdy\ufffdch"},{"id":"2330659","latitude":"34.78333330","longitude":"35.98333330","name":"Ouaqf ech Che\ufffdkh `Aiyash"},{"id":"2330668","latitude":"35.00000000","longitude":"36.03333330","name":"Ouard\ufffdye"},{"id":"2330680","latitude":"35.18333330","longitude":"35.96666670","name":"O\ufffdb\ufffdne"},{"id":"2330990","latitude":"35.08333330","longitude":"36.16666670","name":"Qadmo\ufffds"},{"id":"2330991","latitude":"35.08333330","longitude":"36.16666670","name":"Qadmouss"},{"id":"2330992","latitude":"35.08333330","longitude":"36.16666670","name":"Qadmus"},{"id":"2331010","latitude":"34.95000000","longitude":"36.25000000","name":"Qalaa"},{"id":"2331015","latitude":"35.16666670","longitude":"36.10000000","name":"Qalaat el Aallaiqa"},{"id":"2331027","latitude":"34.78333330","longitude":"36.26666670","name":"Qalaat Nemra"},{"id":"2331031","latitude":"34.95000000","longitude":"36.25000000","name":"Qal`ah"},{"id":"2331044","latitude":"35.16666670","longitude":"36.10000000","name":"Qal`at al `Ulaykah"},{"id":"2331045","latitude":"35.16666670","longitude":"36.10000000","name":"Qal`at al `Ulayqah"},{"id":"2331053","latitude":"35.16666670","longitude":"36.10000000","name":"Qal`at el `Aleiqa"},{"id":"2331054","latitude":"35.16666670","longitude":"36.10000000","name":"Qal`at el `Aliqa"},{"id":"2331058","latitude":"35.15000000","longitude":"35.95000000","name":"Qal`at el Marqab"},{"id":"2331067","latitude":"35.15000000","longitude":"35.95000000","name":"Qal`at Marqab"},{"id":"2331070","latitude":"34.78333330","longitude":"36.26666670","name":"Qal`at Namirah"},{"id":"2331076","latitude":"35.16666670","longitude":"36.10000000","name":"Qal`at `Ullayqah"},{"id":"2331077","latitude":"34.71666670","longitude":"36.00000000","name":"Qal`at Yahmur"},{"id":"2331078","latitude":"34.71666670","longitude":"36.00000000","name":"Qal`at Yuhmur"},{"id":"2331116","latitude":"35.03333330","longitude":"36.00000000","name":"Qamsiyah"},{"id":"2331117","latitude":"35.03333330","longitude":"36.00000000","name":"Qams\ufffdy\ufffd"},{"id":"2331118","latitude":"35.03333330","longitude":"35.98333330","name":"Qamso"},{"id":"2331119","latitude":"35.03333330","longitude":"35.98333330","name":"Qamsu"},{"id":"2331158","latitude":"34.96666670","longitude":"36.16666670","name":"Qani al Jarwah"},{"id":"2331159","latitude":"35.05000000","longitude":"36.20000000","name":"Qani\ufffd"},{"id":"2331160","latitude":"34.96666670","longitude":"36.16666670","name":"Qaniet Jaroua"},{"id":"2331183","latitude":"35.05000000","longitude":"36.20000000","name":"Qanyah"},{"id":"2331344","latitude":"35.06666670","longitude":"35.93333330","name":"Qarqafti"},{"id":"2331525","latitude":"34.76666670","longitude":"35.95000000","name":"Qba\ufffdb\ufffd"},{"id":"2331527","latitude":"35.10000000","longitude":"36.11666670","name":"Qda\ufffdm\ufffdss\ufffd"},{"id":"2331621","latitude":"34.95000000","longitude":"36.25000000","name":"Qla\ufffda\ufffd"},{"id":"2331738","latitude":"34.75000000","longitude":"35.98333330","name":"Qoussa\ufffdr"},{"id":"2331768","latitude":"35.08333330","longitude":"36.00000000","name":"Qsa\ufffdb\ufffdy\ufffd"},{"id":"2331795","latitude":"35.10000000","longitude":"36.11666670","name":"Qudaymisah"},{"id":"2331882","latitude":"35.08333330","longitude":"36.00000000","name":"Qusaybiyah"},{"id":"2331888","latitude":"34.75000000","longitude":"35.98333330","name":"Qusayr"},{"id":"2332007","latitude":"35.13333330","longitude":"36.06666670","name":"Ram Huzayr"},{"id":"2332008","latitude":"35.13333330","longitude":"36.06666670","name":"R\ufffdm Hza\ufffdr"},{"id":"2332025","latitude":"35.16666670","longitude":"36.20000000","name":"Ram Tarzi"},{"id":"2332032","latitude":"34.63333330","longitude":"36.03333330","name":"Ranns\ufffdy\ufffd"},{"id":"2332058","latitude":"34.76666670","longitude":"36.01666670","name":"Ra's ad Dayr"},{"id":"2332070","latitude":"34.96666670","longitude":"35.96666670","name":"Ra's al Kattan"},{"id":"2332076","latitude":"34.93333330","longitude":"36.01666670","name":"Ra's at Turkuman"},{"id":"2332080","latitude":"34.76666670","longitude":"36.01666670","name":"R\ufffds ed De\ufffdr"},{"id":"2332094","latitude":"34.93333330","longitude":"36.01666670","name":"R\ufffds ett Tourkm\ufffdne"},{"id":"2332106","latitude":"34.96666670","longitude":"35.96666670","name":"R\ufffds Kett\ufffdne"},{"id":"2332168","latitude":"34.83333330","longitude":"36.08333330","name":"Ra's Mandu"},{"id":"2332172","latitude":"34.83333330","longitude":"36.08333330","name":"R\ufffds Manndo"},{"id":"2332277","latitude":"34.76666670","longitude":"36.01666670","name":"Rass ed De\ufffdr"},{"id":"2332289","latitude":"34.96666670","longitude":"35.96666670","name":"R\ufffdss Kett\ufffdne"},{"id":"2332290","latitude":"34.83333330","longitude":"36.08333330","name":"R\ufffdss Manndo"},{"id":"2332300","latitude":"34.85000000","longitude":"35.85000000","name":"Rawad"},{"id":"2332432","latitude":"34.71666670","longitude":"36.01666670","name":"Rih\ufffdniy\ufffd"},{"id":"2332466","latitude":"34.85000000","longitude":"35.85000000","name":"Rou\ufffdd"},{"id":"2332474","latitude":"34.96666670","longitude":"35.90000000","name":"Roua\ufffdss\ufffd"},{"id":"2332481","latitude":"34.83333330","longitude":"36.05000000","name":"Roua\ufffdsset el H\ufffdyek"},{"id":"2332489","latitude":"34.75000000","longitude":"36.01666670","name":"Roua\ufffdss"},{"id":"2332522","latitude":"34.83333330","longitude":"36.05000000","name":"Ru'aysat al Ha'ik"},{"id":"2332538","latitude":"34.96666670","longitude":"35.91666670","name":"Rudar Taha"},{"id":"2332611","latitude":"34.91666670","longitude":"36.03333330","name":"S\ufffda\ufffdne ech Charq\ufffdy\ufffd"},{"id":"2332612","latitude":"34.78333330","longitude":"36.00000000","name":"S\ufffda\ufffdn\ufffd el Rharb\ufffdy\ufffd"},{"id":"2332640","latitude":"34.71666670","longitude":"36.06666670","name":"Sabbouhiy\ufffd"},{"id":"2332723","latitude":"34.81666670","longitude":"36.11666670","name":"Safita"},{"id":"2332731","latitude":"35.03333330","longitude":"36.03333330","name":"Safliyah"},{"id":"2332732","latitude":"35.03333330","longitude":"36.03333330","name":"Safl\ufffdy\ufffd"},{"id":"2332737","latitude":"34.73333330","longitude":"36.05000000","name":"Safsafah"},{"id":"2332742","latitude":"34.73333330","longitude":"36.05000000","name":"Safs\ufffdfe"},{"id":"2332743","latitude":"34.73333330","longitude":"36.05000000","name":"Safsafih"},{"id":"2332749","latitude":"34.73333330","longitude":"36.05000000","name":"Safsaf"},{"id":"2332797","latitude":"34.78333330","longitude":"36.00000000","name":"Sa`in al Gharbiyah"},{"id":"2332798","latitude":"34.91666670","longitude":"36.03333330","name":"Sa`in ash Sharqiyah"},{"id":"2332808","latitude":"34.93333330","longitude":"36.03333330","name":"Sajno\ufffd"},{"id":"2332809","latitude":"34.93333330","longitude":"36.03333330","name":"Sajnu"},{"id":"2332873","latitude":"35.06666670","longitude":"36.21666670","name":"Sallo\ufffdriy\ufffd"},{"id":"2332904","latitude":"34.78333330","longitude":"36.00000000","name":"Samakah"},{"id":"2332925","latitude":"34.78333330","longitude":"36.00000000","name":"Samk\ufffd"},{"id":"2332990","latitude":"34.66666670","longitude":"36.05000000","name":"Saouda"},{"id":"2332993","latitude":"34.85000000","longitude":"36.13333330","name":"Saouma\ufffd"},{"id":"2332998","latitude":"35.16666670","longitude":"36.05833330","name":"Saqbalah"},{"id":"2333062","latitude":"34.86666670","longitude":"36.21666670","name":"Sarsa"},{"id":"2333073","latitude":"34.81666670","longitude":"36.11666670","name":"Satita"},{"id":"2333077","latitude":"34.98333330","longitude":"35.95000000","name":"Sauda"},{"id":"2333080","latitude":"34.98333330","longitude":"35.95000000","name":"Sawdah"},{"id":"2333081","latitude":"34.98333330","longitude":"35.95000000","name":"Sawda'"},{"id":"2333088","latitude":"34.85000000","longitude":"36.13333330","name":"Sawma`ah"},{"id":"2333090","latitude":"35.05000000","longitude":"35.93333330","name":"Saya"},{"id":"2333224","latitude":"35.05000000","longitude":"36.00000000","name":"Shabubiyah"},{"id":"2333250","latitude":"35.10000000","longitude":"36.06666670","name":"Shakarat ad Dahh"},{"id":"2333251","latitude":"35.11666670","longitude":"36.15000000","name":"Shakarat al Bahri"},{"id":"2333268","latitude":"34.86666670","longitude":"35.96666670","name":"Shamaliyat"},{"id":"2333269","latitude":"34.86666670","longitude":"36.16666670","name":"Shamamis"},{"id":"2333300","latitude":"35.13333330","longitude":"36.18333330","name":"Shamsin"},{"id":"2333313","latitude":"35.22500000","longitude":"36.17500000","name":"Shandakhah"},{"id":"2333365","latitude":"34.68333330","longitude":"36.05000000","name":"Shas"},{"id":"2333406","latitude":"34.98333330","longitude":"36.08333330","name":"Shaykh Badr"},{"id":"2333415","latitude":"34.63333330","longitude":"35.96666670","name":"Shaykh Jabir"},{"id":"2333445","latitude":"34.98333330","longitude":"36.08333330","name":"Sheikh-Bader"},{"id":"2333448","latitude":"34.63333330","longitude":"35.96666670","name":"Sheikh Jabir"},{"id":"2333449","latitude":"34.63333330","longitude":"35.96666670","name":"Sheikh Jabr"},{"id":"2333453","latitude":"34.63333330","longitude":"35.96666670","name":"Sheik Jabber"},{"id":"2333485","latitude":"34.90000000","longitude":"36.00000000","name":"Shubat"},{"id":"2333532","latitude":"34.86666670","longitude":"36.15000000","name":"Shuwayhidat"},{"id":"2333592","latitude":"34.85000000","longitude":"36.11666670","name":"Sindiyanat Ubin"},{"id":"2333600","latitude":"34.85000000","longitude":"36.11666670","name":"Sinndi\ufffdne O\ufffdbine"},{"id":"2333605","latitude":"34.85000000","longitude":"36.11666670","name":"Sinndi\ufffdnet O\ufffdbine"},{"id":"2333618","latitude":"34.85000000","longitude":"36.05000000","name":"Sirist\ufffdne"},{"id":"2333619","latitude":"34.85000000","longitude":"36.05000000","name":"Siristan"},{"id":"2333626","latitude":"35.10000000","longitude":"36.00000000","name":"Sirrid\ufffdne"},{"id":"2333627","latitude":"35.10000000","longitude":"36.00000000","name":"Sirridin"},{"id":"2333638","latitude":"34.76666670","longitude":"36.15000000","name":"Sisaniyah"},{"id":"2333639","latitude":"34.76666670","longitude":"36.15000000","name":"Sisniyah"},{"id":"2333640","latitude":"34.76666670","longitude":"36.15000000","name":"Sisniy\ufffd"},{"id":"2333698","latitude":"35.11666670","longitude":"36.08333330","name":"Sm\ufffdh\ufffdqa"},{"id":"2333707","latitude":"34.73333330","longitude":"36.05000000","name":"Sofs\ufffdf\ufffd"},{"id":"2333742","latitude":"34.83333330","longitude":"36.13333330","name":"Soue\ufffdda"},{"id":"2333792","latitude":"35.03333330","longitude":"36.11666670","name":"So\ufffdr\ufffdni"},{"id":"2333810","latitude":"34.91666670","longitude":"35.93333330","name":"Sqabbo\ufffdl\ufffd"},{"id":"2333811","latitude":"34.91666670","longitude":"35.93333330","name":"Sqabbulah"},{"id":"2333823","latitude":"34.96666670","longitude":"36.08333330","name":"Sra\ufffdjiss"},{"id":"2333831","latitude":"35.13333330","longitude":"36.00000000","name":"Sre\ufffdr\ufffdy\ufffd"},{"id":"2333899","latitude":"35.11666670","longitude":"36.08333330","name":"Sumayhiqah"},{"id":"2333920","latitude":"35.03333330","longitude":"36.11666670","name":"Surani"},{"id":"2333927","latitude":"34.96666670","longitude":"36.08333330","name":"Surayjis"},{"id":"2333928","latitude":"35.13333330","longitude":"36.00000000","name":"Surayriyah"},{"id":"2333970","latitude":"35.10000000","longitude":"36.05000000","name":"Taan\ufffdta"},{"id":"2334026","latitude":"34.95000000","longitude":"35.95000000","name":"T\ufffdha Aabuara"},{"id":"2334027","latitude":"35.05000000","longitude":"36.21666670","name":"T\ufffdhr\ufffdy\ufffd"},{"id":"2334049","latitude":"34.86666670","longitude":"36.00000000","name":"Ta\ufffdcho\ufffdr"},{"id":"2334076","latitude":"35.13333330","longitude":"36.03333330","name":"T\ufffdl\ufffdne"},{"id":"2334077","latitude":"35.13333330","longitude":"36.03333330","name":"Talin"},{"id":"2334100","latitude":"34.65000000","longitude":"36.06666670","name":"Tall `Adas"},{"id":"2334119","latitude":"35.05000000","longitude":"36.18333330","name":"Tallah"},{"id":"2334169","latitude":"34.73333330","longitude":"36.10000000","name":"Tall al Khidr"},{"id":"2334252","latitude":"34.70000000","longitude":"36.13333330","name":"Tall `Awi`"},{"id":"2334268","latitude":"34.98333330","longitude":"35.86666670","name":"Tall Basirah"},{"id":"2334311","latitude":"35.05000000","longitude":"36.18333330","name":"Tall\ufffd"},{"id":"2334384","latitude":"34.70000000","longitude":"35.98333330","name":"Tall Kazel"},{"id":"2334482","latitude":"34.66666670","longitude":"36.08333330","name":"Tall Sunun"},{"id":"2334501","latitude":"34.71666670","longitude":"36.11666670","name":"Tall Turmus"},{"id":"2334530","latitude":"35.10000000","longitude":"36.05000000","name":"Ta`nitah"},{"id":"2334531","latitude":"35.10000000","longitude":"36.05000000","name":"Ta`nita"},{"id":"2334536","latitude":"34.78333330","longitude":"36.21666670","name":"Tanno\ufffdrin\ufffd"},{"id":"2334539","latitude":"34.78333330","longitude":"36.21666670","name":"Tanno\ufffdr\ufffdy\ufffd"},{"id":"2334544","latitude":"34.78333330","longitude":"36.21666670","name":"Tannurin"},{"id":"2334586","latitude":"35.10000000","longitude":"36.05000000","name":"Ta`rita"},{"id":"2334597","latitude":"34.88333330","longitude":"35.88333330","name":"Tartouss"},{"id":"2334598","latitude":"34.88333330","longitude":"35.88333330","name":"Tarto\ufffds"},{"id":"2334599","latitude":"34.88333330","longitude":"35.88333330","name":"Tartus"},{"id":"2334652","latitude":"35.19583330","longitude":"35.98750000","name":"Tayru"},{"id":"2334654","latitude":"34.86666670","longitude":"36.00000000","name":"Tayshur"},{"id":"2334742","latitude":"34.93333330","longitude":"36.08333330","name":"Teff\ufffdha"},{"id":"2334782","latitude":"34.65000000","longitude":"36.06666670","name":"Tell Aadass"},{"id":"2334798","latitude":"34.70000000","longitude":"36.13333330","name":"Tell Aaoui\ufffd\ufffd"},{"id":"2334883","latitude":"34.98333330","longitude":"35.86666670","name":"Tell Bs\ufffdr\ufffd"},{"id":"2334964","latitude":"34.73333330","longitude":"36.10000000","name":"Tell el Khodor"},{"id":"2334988","latitude":"34.66666670","longitude":"36.08333330","name":"Tell es Snoun"},{"id":"2335066","latitude":"34.70000000","longitude":"35.98333330","name":"Tell Kazel"},{"id":"2335167","latitude":"34.66666670","longitude":"36.08333330","name":"Tell Sno\ufffdn"},{"id":"2335190","latitude":"34.71666670","longitude":"36.11666670","name":"Tell Term\ufffds"},{"id":"2335192","latitude":"34.71666670","longitude":"36.11666670","name":"Tell Torm\ufffdss"},{"id":"2335210","latitude":"35.10000000","longitude":"36.18333330","name":"Tenn\ufffdkha"},{"id":"2335212","latitude":"35.00000000","longitude":"36.15000000","name":"Tenn\ufffdrhri"},{"id":"2335272","latitude":"35.18333330","longitude":"35.96666670","name":"T\ufffdro"},{"id":"2335273","latitude":"35.18333330","longitude":"35.96666670","name":"Tiru"},{"id":"2335286","latitude":"34.73333330","longitude":"36.10000000","name":"Tla\ufffda\ufffd"},{"id":"2335311","latitude":"34.76666670","longitude":"36.05000000","name":"Torkab"},{"id":"2335315","latitude":"35.11666670","longitude":"36.20000000","name":"Tou\ufffdh\ufffdne"},{"id":"2335323","latitude":"34.76666670","longitude":"36.08333330","name":"Tou\ufffdnine"},{"id":"2335352","latitude":"35.18333330","longitude":"36.13333330","name":"To\ufffdn ej Jourd"},{"id":"2335353","latitude":"35.15000000","longitude":"36.03333330","name":"To\ufffdn el Marqab"},{"id":"2335354","latitude":"35.08333330","longitude":"36.06666670","name":"To\ufffdn el Qirq"},{"id":"2335389","latitude":"34.93333330","longitude":"36.08333330","name":"Tuffahah"},{"id":"2335397","latitude":"34.73333330","longitude":"36.10000000","name":"Tulay`i"},{"id":"2335410","latitude":"35.18333330","longitude":"36.13333330","name":"Tun al Jurd"},{"id":"2335411","latitude":"35.15000000","longitude":"36.03333330","name":"Tun al Marqab"},{"id":"2335412","latitude":"35.08333330","longitude":"36.06666670","name":"Tun al Qirg"},{"id":"2335433","latitude":"34.76666670","longitude":"36.05000000","name":"Turkab"},{"id":"2335462","latitude":"35.00833330","longitude":"36.00833330","name":"`Ubaybiyah"},{"id":"2335466","latitude":"35.18333330","longitude":"35.96666670","name":"Ubin"},{"id":"2335641","latitude":"35.17500000","longitude":"36.21250000","name":"Umm Tarazi"},{"id":"2335683","latitude":"35.11666670","longitude":"36.00000000","name":"`Urqub"},{"id":"2335687","latitude":"35.13333330","longitude":"35.98333330","name":"`Usaybah"},{"id":"2335744","latitude":"35.01666670","longitude":"36.13333330","name":"Wadi al Baqar"},{"id":"2335748","latitude":"34.73333330","longitude":"36.06666670","name":"Wadi al Mis"},{"id":"2335765","latitude":"34.78333330","longitude":"35.98333330","name":"Waqf ash Shaykh `Ayyash"},{"id":"2335772","latitude":"35.00000000","longitude":"36.03333330","name":"Wardiyah"},{"id":"2335813","latitude":"34.80000000","longitude":"35.96666670","name":"Yahmo\ufffdr"},{"id":"2335816","latitude":"34.80000000","longitude":"35.96666670","name":"Yahmur"},{"id":"2335838","latitude":"34.83333330","longitude":"36.00000000","name":"Y\ufffdzd\ufffd\ufffd"},{"id":"2335839","latitude":"34.75000000","longitude":"36.11666670","name":"Y\ufffdzd\ufffdyet Hamd\ufffdne"},{"id":"2335840","latitude":"34.83333330","longitude":"36.00000000","name":"Y\ufffdzd\ufffdy\ufffd"},{"id":"2335843","latitude":"34.83333330","longitude":"36.00000000","name":"Yazidiyah"},{"id":"2335844","latitude":"34.75000000","longitude":"36.11666670","name":"Yazidiyat Hamdan"},{"id":"2335884","latitude":"34.70000000","longitude":"36.00000000","name":"Z\ufffdhed"},{"id":"2335885","latitude":"34.70000000","longitude":"36.00000000","name":"Zahid"},{"id":"2335894","latitude":"34.73333330","longitude":"36.15000000","name":"Za\ufffdnab\ufffdy\ufffd"},