[{"id":"2317854","latitude":"33.46666670","longitude":"36.33333330","name":"Aaqraba"},{"id":"2317892","latitude":"33.53333330","longitude":"36.36666670","name":"Aarb\ufffdl"},{"id":"2318179","latitude":"33.75555560","longitude":"36.51388890","name":"Abu al `Aynayn"},{"id":"2318354","latitude":"33.43333330","longitude":"36.23333330","name":"Achrafi\ufffd"},{"id":"2318360","latitude":"33.58333330","longitude":"36.18333330","name":"Achrafiyet el Ou\ufffddi"},{"id":"2318361","latitude":"33.43333330","longitude":"36.23333330","name":"Achrafiyet Sahn\ufffdya"},{"id":"2318362","latitude":"33.43333330","longitude":"36.23333330","name":"Achrafiyet Sanaya"},{"id":"2318373","latitude":"33.51666670","longitude":"36.30000000","name":"Ad Dahdah"},{"id":"2318443","latitude":"33.55000000","longitude":"36.21666670","name":"Ads\ufffdya"},{"id":"2318459","latitude":"33.51666670","longitude":"36.40000000","name":"Aftris"},{"id":"2318460","latitude":"33.51666670","longitude":"36.40000000","name":"Aftriss"},{"id":"2318461","latitude":"33.51666670","longitude":"36.40000000","name":"Afz\ufffdz"},{"id":"2318652","latitude":"33.50000000","longitude":"36.33333330","name":"A\ufffdn Terma"},{"id":"2318704","latitude":"33.46666670","longitude":"36.33333330","name":"Akraba"},{"id":"2318809","latitude":"33.52638890","longitude":"36.53611110","name":"Al Bahhariyah"},{"id":"2318902","latitude":"33.41666670","longitude":"36.31666670","name":"Al Buwaydah"},{"id":"2318908","latitude":"33.51666670","longitude":"36.30000000","name":"Al Dahdah"},{"id":"2318994","latitude":"33.56666670","longitude":"36.22222220","name":"Al Hamah"},{"id":"2318998","latitude":"33.55000000","longitude":"36.21666670","name":"Al Hami"},{"id":"2319019","latitude":"33.00277780","longitude":"36.72222220","name":"Al Haqf"},{"id":"2319063","latitude":"33.22500000","longitude":"36.76388890","name":"Al Haytalah"},{"id":"2319173","latitude":"33.56666670","longitude":"36.18333330","name":"Al Judaydah"},{"id":"2319319","latitude":"33.29166670","longitude":"36.28055560","name":"Al Majidiyah"},{"id":"2319341","latitude":"33.87500000","longitude":"36.70000000","name":"Al Marah"},{"id":"2319383","latitude":"33.50000000","longitude":"36.25000000","name":"Al Mazzah"},{"id":"2319384","latitude":"33.50000000","longitude":"36.25000000","name":"Al Mazzih"},{"id":"2319400","latitude":"33.45000000","longitude":"36.20000000","name":"Al Mu`addamiyah"},{"id":"2319414","latitude":"33.51666670","longitude":"36.26666670","name":"Al Muhajirin"},{"id":"2319415","latitude":"33.50000000","longitude":"36.41666670","name":"Al Muhammadiyah"},{"id":"2319423","latitude":"33.48333330","longitude":"36.36666670","name":"Al Mulayhah"},{"id":"2319468","latitude":"33.55000000","longitude":"36.33333330","name":"Al Qabun"},{"id":"2319470","latitude":"33.46666670","longitude":"36.28333330","name":"Al Qadam"},{"id":"2319488","latitude":"33.51666670","longitude":"36.30000000","name":"Al Qanawat"},{"id":"2319551","latitude":"33.50000000","longitude":"36.30000000","name":"Al-Sham"},{"id":"2319583","latitude":"33.79722220","longitude":"36.15833330","name":"Al `Uwayni"},{"id":"2319591","latitude":"33.81944440","longitude":"36.71666670","name":"Al Wakhmah"},{"id":"2319612","latitude":"33.51666670","longitude":"36.30000000","name":"`Amarah al Juwaniyah"},{"id":"2319614","latitude":"33.51666670","longitude":"36.30000000","name":"Amarh Juwwaniyah"},{"id":"2319766","latitude":"33.46666670","longitude":"36.33333330","name":"`Aqraba"},{"id":"2319824","latitude":"33.82222220","longitude":"36.32777780","name":"`Arana"},{"id":"2319853","latitude":"33.53333330","longitude":"36.36666670","name":"Arbine"},{"id":"2320019","latitude":"33.58333330","longitude":"36.18333330","name":"Ashrafiyat al Wadi"},{"id":"2320020","latitude":"33.43333330","longitude":"36.23333330","name":"Ashrafiyat Sahnaya"},{"id":"2320169","latitude":"33.51666670","longitude":"36.26666670","name":"As Salihiyah"},{"id":"2320170","latitude":"33.01111110","longitude":"36.70000000","name":"As Salimiyah"},{"id":"2320193","latitude":"33.02500000","longitude":"36.60000000","name":"As Sawarah as Sughra"},{"id":"2320280","latitude":"33.08888890","longitude":"36.46666670","name":"At Taff"},{"id":"2320492","latitude":"33.50000000","longitude":"36.33333330","name":"`Ayn Tarma"},{"id":"2320689","latitude":"33.43333330","longitude":"36.35000000","name":"Bahdaliy\ufffd"},{"id":"2320753","latitude":"33.46666670","longitude":"36.36666670","name":"Balat"},{"id":"2320951","latitude":"33.56666670","longitude":"36.31666670","name":"Barzah"},{"id":"2320955","latitude":"33.56666670","longitude":"36.31666670","name":"Barz\ufffd"},{"id":"2321154","latitude":"33.46666670","longitude":"36.33333330","name":"Bayt Saham"},{"id":"2321163","latitude":"33.53611110","longitude":"36.40833330","name":"Bayt Siwa"},{"id":"2321354","latitude":"33.46666670","longitude":"36.33333330","name":"Be\ufffdt Saham"},{"id":"2321433","latitude":"33.56666670","longitude":"36.31666670","name":"Berz\ufffd"},{"id":"2321713","latitude":"33.46666670","longitude":"36.36666670","name":"Blat"},{"id":"2321717","latitude":"33.46666670","longitude":"36.36666670","name":"Bl\ufffdte"},{"id":"2321815","latitude":"33.41666670","longitude":"36.31666670","name":"Boua\ufffdda"},{"id":"2321841","latitude":"33.41666670","longitude":"36.31666670","name":"Boue\ufffdda"},{"id":"2322173","latitude":"33.41666670","longitude":"36.31666670","name":"Buwayda"},{"id":"2322177","latitude":"33.41666670","longitude":"36.31666670","name":"Buwaydah"},{"id":"2322233","latitude":"33.45000000","longitude":"36.38333330","name":"Chaba\ufffd"},{"id":"2322288","latitude":"33.50000000","longitude":"36.30000000","name":"Cham"},{"id":"2322647","latitude":"33.51666670","longitude":"36.30000000","name":"Dahdah"},{"id":"2322723","latitude":"33.50000000","longitude":"36.30000000","name":"Damasco"},{"id":"2322724","latitude":"33.50000000","longitude":"36.30000000","name":"Damascus"},{"id":"2322725","latitude":"33.50000000","longitude":"36.30000000","name":"Damas"},{"id":"2322726","latitude":"33.50000000","longitude":"36.30000000","name":"Damaskus"},{"id":"2322737","latitude":"33.64166670","longitude":"36.70833330","name":"Damir"},{"id":"2322743","latitude":"33.50000000","longitude":"36.30000000","name":"Dammeseq"},{"id":"2322773","latitude":"33.45000000","longitude":"36.25000000","name":"D\ufffdraiya"},{"id":"2322787","latitude":"33.45000000","longitude":"36.25000000","name":"Daraya"},{"id":"2322788","latitude":"33.45000000","longitude":"36.25000000","name":"Daraye"},{"id":"2322790","latitude":"33.45000000","longitude":"36.25000000","name":"Darayya"},{"id":"2322791","latitude":"33.45000000","longitude":"36.25000000","name":"Darayyah"},{"id":"2322811","latitude":"33.45000000","longitude":"36.25000000","name":"Dareiya"},{"id":"2322886","latitude":"33.45000000","longitude":"36.41666670","name":"Dayr al `Asafir"},{"id":"2322907","latitude":"33.48333330","longitude":"36.36666670","name":"Dayr Bahdal"},{"id":"2322975","latitude":"33.48333330","longitude":"36.36666670","name":"De\ufffdr Bahdal"},{"id":"2322988","latitude":"33.45000000","longitude":"36.41666670","name":"De\ufffdr el Aass\ufffdf\ufffdr"},{"id":"2322989","latitude":"33.45000000","longitude":"36.41666670","name":"De\ufffdr el Assifir"},{"id":"2323073","latitude":"33.45000000","longitude":"36.25000000","name":"Deraya"},{"id":"2323175","latitude":"33.50000000","longitude":"36.30000000","name":"Dimashk al-Sham"},{"id":"2323176","latitude":"33.50000000","longitude":"36.30000000","name":"Dimashk"},{"id":"2323177","latitude":"33.50000000","longitude":"36.30000000","name":"Dimashq"},{"id":"2323178","latitude":"33.50000000","longitude":"36.30000000","name":"Dimeshki esh Sham"},{"id":"2323179","latitude":"33.50000000","longitude":"36.30000000","name":"Dimishq"},{"id":"2323212","latitude":"33.48333330","longitude":"36.35000000","name":"Djaramana"},{"id":"2323214","latitude":"33.56666670","longitude":"36.18333330","name":"Djdeideh"},{"id":"2323351","latitude":"33.53333330","longitude":"36.23333330","name":"Doumar"},{"id":"2323354","latitude":"33.53333330","longitude":"36.23333330","name":"Doummar"},{"id":"2323408","latitude":"33.53333330","longitude":"36.23333330","name":"Dummar"},{"id":"2323496","latitude":"33.51666670","longitude":"36.30000000","name":"Ed Dahdah"},{"id":"2323526","latitude":"33.55000000","longitude":"36.21666670","name":"Edsaya"},{"id":"2323632","latitude":"33.41666670","longitude":"36.31666670","name":"El Baweida"},{"id":"2323696","latitude":"33.55000000","longitude":"36.21666670","name":"El H\ufffdm\ufffd"},{"id":"2323763","latitude":"33.56666670","longitude":"36.18333330","name":"El Judeide"},{"id":"2323859","latitude":"33.50000000","longitude":"36.25000000","name":"El Mezze"},{"id":"2323865","latitude":"33.51666670","longitude":"36.26666670","name":"El Mohajirin"},{"id":"2323866","latitude":"33.50000000","longitude":"36.41666670","name":"El Mohammad\ufffdy\ufffd"},{"id":"2323904","latitude":"33.51666670","longitude":"36.30000000","name":"El Qanaou\ufffdt"},{"id":"2324011","latitude":"33.50000000","longitude":"36.30000000","name":"Esh Sham"},{"id":"2324027","latitude":"33.51666670","longitude":"36.26666670","name":"Es Salh\ufffdya"},{"id":"2324029","latitude":"33.51666670","longitude":"36.26666670","name":"Es Salihiye"},{"id":"2324570","latitude":"33.48333330","longitude":"36.38333330","name":"Hadisset al Jarash"},{"id":"2324571","latitude":"33.48333330","longitude":"36.38333330","name":"Hadisset el Harach"},{"id":"2324841","latitude":"33.51666670","longitude":"36.38333330","name":"Hammo\ufffdriy\ufffd"},{"id":"2324842","latitude":"33.51666670","longitude":"36.38333330","name":"Hammuriyah"},{"id":"2324844","latitude":"33.51666670","longitude":"36.38333330","name":"Hamora"},{"id":"2324845","latitude":"33.51666670","longitude":"36.38333330","name":"Hamor\ufffd"},{"id":"2324919","latitude":"33.43333330","longitude":"36.35000000","name":"Haouch Bahdali\ufffd"},{"id":"2324920","latitude":"33.43333330","longitude":"36.25000000","name":"Haouch Blass"},{"id":"2324921","latitude":"33.40000000","longitude":"36.36666670","name":"Haouch Cha\ufffdr"},{"id":"2324923","latitude":"33.40000000","longitude":"36.36666670","name":"Haouch ech Cha\ufffdr"},{"id":"2324928","latitude":"33.43333330","longitude":"36.25000000","name":"Haouch el Bl\ufffds"},{"id":"2324933","latitude":"33.48333330","longitude":"36.35000000","name":"Haouch el Qadem"},{"id":"2324937","latitude":"33.48333330","longitude":"36.35000000","name":"Haouch Kadem"},{"id":"2324945","latitude":"33.43333330","longitude":"36.28333330","name":"Haouch Rihani\ufffd"},{"id":"2324946","latitude":"33.43333330","longitude":"36.28333330","name":"Haouch Rih\ufffdn\ufffdy\ufffd"},{"id":"2324949","latitude":"33.40000000","longitude":"36.38333330","name":"Haouch Soltan"},{"id":"2324950","latitude":"33.40000000","longitude":"36.38333330","name":"Haouch Soult\ufffdne"},{"id":"2324972","latitude":"33.09722220","longitude":"36.51666670","name":"Haram"},{"id":"2325163","latitude":"33.48333330","longitude":"36.38333330","name":"Hatite Jarach"},{"id":"2325177","latitude":"33.48333330","longitude":"36.38333330","name":"Hattit\ufffd ej Jarache"},{"id":"2325210","latitude":"33.43333330","longitude":"36.35000000","name":"Hawsh al Bahdaliyah"},{"id":"2325211","latitude":"33.43333330","longitude":"36.25000000","name":"Hawsh al Balas"},{"id":"2325217","latitude":"33.48333330","longitude":"36.35000000","name":"Hawsh al Qadam"},{"id":"2325222","latitude":"33.43333330","longitude":"36.28333330","name":"Hawsh ar Rayhaniyah"},{"id":"2325223","latitude":"33.40000000","longitude":"36.36666670","name":"Hawsh ash Sha`ir"},{"id":"2325224","latitude":"33.54166670","longitude":"36.51388890","name":"Hawsh ash Shalaq"},{"id":"2325228","latitude":"33.40000000","longitude":"36.38333330","name":"Hawsh Sultan"},{"id":"2325266","latitude":"33.48888890","longitude":"36.40000000","name":"Haytat al Jarash"},{"id":"2325287","latitude":"33.51666670","longitude":"36.37500000","name":"Hazzah"},{"id":"2325402","latitude":"33.56111110","longitude":"36.34722220","name":"Hirista"},{"id":"2325578","latitude":"33.60833330","longitude":"36.31666670","name":"Hurnah"},{"id":"2325589","latitude":"33.33055560","longitude":"36.11666670","name":"Husayniyah"},{"id":"2325669","latitude":"33.51666670","longitude":"36.40000000","name":"Iftris"},{"id":"2325698","latitude":"33.53333330","longitude":"36.36666670","name":"Irbine"},{"id":"2325699","latitude":"33.53333330","longitude":"36.36666670","name":"`Irbin"},{"id":"2325909","latitude":"33.51666670","longitude":"36.31666670","name":"J\ufffdoubar"},{"id":"2325934","latitude":"33.48333330","longitude":"36.35000000","name":"Jaramanah"},{"id":"2325935","latitude":"33.48333330","longitude":"36.35000000","name":"Jaramana"},{"id":"2325985","latitude":"33.51666670","longitude":"36.31666670","name":"Jawbar"},{"id":"2326036","latitude":"33.56666670","longitude":"36.18333330","name":"Jda\ufffddet el Ou\ufffddi"},{"id":"2326066","latitude":"33.56666670","longitude":"36.18333330","name":"Jedeide"},{"id":"2326086","latitude":"33.48333330","longitude":"36.35000000","name":"J\ufffdram\ufffdna"},{"id":"2326179","latitude":"33.70833330","longitude":"36.12222220","name":"Jirjaniyah"},{"id":"2326191","latitude":"33.50000000","longitude":"36.38333330","name":"Jisrayn"},{"id":"2326193","latitude":"33.50000000","longitude":"36.38333330","name":"Jisre\ufffdne"},{"id":"2326202","latitude":"33.50000000","longitude":"36.38333330","name":"Jisserine"},{"id":"2326224","latitude":"33.51666670","longitude":"36.31666670","name":"Jobar"},{"id":"2326498","latitude":"33.56666670","longitude":"36.18333330","name":"Judaydat al Wadi"},{"id":"2326595","latitude":"33.55000000","longitude":"36.33333330","name":"Kaboun"},{"id":"2326604","latitude":"33.55000000","longitude":"36.33333330","name":"Kabun"},{"id":"2326611","latitude":"33.46666670","longitude":"36.28333330","name":"Kadem"},{"id":"2326622","latitude":"33.50000000","longitude":"36.36666670","name":"Kafar Batna"},{"id":"2326650","latitude":"33.50000000","longitude":"36.36666670","name":"Kafer Batna"},{"id":"2326755","latitude":"33.48333330","longitude":"36.26666670","name":"Kafer Souss\ufffd"},{"id":"2326814","latitude":"33.50000000","longitude":"36.36666670","name":"Kafr Batna"},{"id":"2326934","latitude":"33.48333330","longitude":"36.26666670","name":"Kafr Souss\ufffd"},{"id":"2326935","latitude":"33.48333330","longitude":"36.26666670","name":"Kafr Susah"},{"id":"2327031","latitude":"33.51666670","longitude":"36.30000000","name":"Kanawat"},{"id":"2327258","latitude":"33.50000000","longitude":"36.36666670","name":"Kefer Batna"},{"id":"2327270","latitude":"33.48333330","longitude":"36.26666670","name":"Kefr Suse"},{"id":"2328448","latitude":"33.55000000","longitude":"36.21666670","name":"Koudsaya"},{"id":"2328521","latitude":"33.90000000","longitude":"36.49861110","name":"Kubri"},{"id":"2328735","latitude":"33.45000000","longitude":"36.20000000","name":"Ma'adamiet Shih"},{"id":"2328927","latitude":"33.45000000","longitude":"36.20000000","name":"Ma`ddamiyah"},{"id":"2329347","latitude":"33.50277780","longitude":"36.86944440","name":"Mashta al Masyad"},{"id":"2329444","latitude":"33.48333330","longitude":"36.28333330","name":"Maydan"},{"id":"2329575","latitude":"33.50000000","longitude":"36.25000000","name":"Mazzah"},{"id":"2329576","latitude":"33.50000000","longitude":"36.25000000","name":"Mazzih"},{"id":"2329659","latitude":"33.48333330","longitude":"36.28333330","name":"Meidan"},{"id":"2329670","latitude":"33.48333330","longitude":"36.36666670","name":"Meleha"},{"id":"2329750","latitude":"33.50000000","longitude":"36.25000000","name":"Mezza"},{"id":"2329751","latitude":"33.50000000","longitude":"36.25000000","name":"Mezz\ufffd"},{"id":"2329768","latitude":"33.48333330","longitude":"36.28333330","name":"Midan"},{"id":"2329875","latitude":"33.48333330","longitude":"36.36666670","name":"Mlaihah"},{"id":"2329877","latitude":"33.48333330","longitude":"36.36666670","name":"Mla\ufffdha"},{"id":"2329883","latitude":"33.48333330","longitude":"36.36666670","name":"Mleiha"},{"id":"2329890","latitude":"33.45000000","longitude":"36.20000000","name":"Moaddamy\ufffd"},{"id":"2329894","latitude":"33.51666670","longitude":"36.26666670","name":"Mohadjirine"},{"id":"2329895","latitude":"33.51666670","longitude":"36.26666670","name":"Mohajrine"},{"id":"2329950","latitude":"33.51666670","longitude":"36.26666670","name":"Mouhajerine"},{"id":"2329952","latitude":"33.50000000","longitude":"36.41666670","name":"Mouhammady\ufffd"},{"id":"2330105","latitude":"33.45000000","longitude":"36.20000000","name":"Mu`addamiyat ash Shaykh"},{"id":"2330118","latitude":"33.45000000","longitude":"36.20000000","name":"Mu`az\u0327z\u0327amiyat ash Shih"},{"id":"2330125","latitude":"33.54166670","longitude":"36.39583330","name":"Mudayrah"},{"id":"2330138","latitude":"33.51666670","longitude":"36.26666670","name":"Muhajirin"},{"id":"2330190","latitude":"33.48333330","longitude":"36.36666670","name":"Mulayhah"},{"id":"2330195","latitude":"33.48333330","longitude":"36.36666670","name":"Muleiha"},{"id":"2330457","latitude":"33.05833330","longitude":"36.48333330","name":"Namir"},{"id":"2330512","latitude":"33.46666670","longitude":"36.46527780","name":"Nawlah"},{"id":"2330947","latitude":"33.55000000","longitude":"36.33333330","name":"Q\ufffdbo\ufffdn"},{"id":"2330952","latitude":"33.43333330","longitude":"36.33333330","name":"Qabr as Sitt"},{"id":"2330958","latitude":"33.43333330","longitude":"36.33333330","name":"Qabr es Sett"},{"id":"2330959","latitude":"33.43333330","longitude":"36.33333330","name":"Qabr es Sitt"},{"id":"2330970","latitude":"33.55000000","longitude":"36.33333330","name":"Qabun"},{"id":"2330979","latitude":"33.46666670","longitude":"36.28333330","name":"Qadam"},{"id":"2330984","latitude":"33.46666670","longitude":"36.28333330","name":"Qadem"},{"id":"2330995","latitude":"33.55000000","longitude":"36.21666670","name":"Qadsiya"},{"id":"2331148","latitude":"33.51666670","longitude":"36.30000000","name":"Qanawat"},{"id":"2331366","latitude":"33.46666670","longitude":"36.28333330","name":"Qaryat al Qadam"},{"id":"2332431","latitude":"33.43333330","longitude":"36.28333330","name":"Rih\ufffdniy\ufffd"},{"id":"2332593","latitude":"33.46944440","longitude":"36.48333330","name":"Ruwan"},{"id":"2332770","latitude":"33.43333330","longitude":"36.20000000","name":"Sahnaiya"},{"id":"2332771","latitude":"33.43333330","longitude":"36.20000000","name":"Sahnaya"},{"id":"2332811","latitude":"33.51666670","longitude":"36.38333330","name":"Sakba"},{"id":"2332821","latitude":"33.51666670","longitude":"36.26666670","name":"Salahiye"},{"id":"2332847","latitude":"33.51666670","longitude":"36.26666670","name":"Salhi\ufffd"},{"id":"2332858","latitude":"33.51666670","longitude":"36.26666670","name":"Salihiyeh"},{"id":"2332859","latitude":"33.51666670","longitude":"36.26666670","name":"Salihiy\ufffd"},{"id":"2332997","latitude":"33.51666670","longitude":"36.38333330","name":"Saqbah"},{"id":"2332999","latitude":"33.51666670","longitude":"36.38333330","name":"Saqba"},{"id":"2333116","latitude":"33.43333330","longitude":"36.28333330","name":"Sbe\ufffdne el Kabir\ufffd"},{"id":"2333117","latitude":"33.45000000","longitude":"36.28333330","name":"Sbe\ufffdne es Srhrir"},{"id":"2333118","latitude":"33.43333330","longitude":"36.28333330","name":"Sebeneh"},{"id":"2333218","latitude":"33.45000000","longitude":"36.38333330","name":"Shab`a"},{"id":"2333393","latitude":"33.73611110","longitude":"36.66944440","name":"Shaykh Abu Sa`id"},{"id":"2333609","latitude":"33.51527780","longitude":"36.39166670","name":"Siqba"},{"id":"2333730","latitude":"33.43333330","longitude":"36.28333330","name":"Soube\ufffdne el K\ufffdbir\ufffd"},{"id":"2333731","latitude":"33.45000000","longitude":"36.28333330","name":"Soube\ufffdne es Serhir\ufffd"},{"id":"2333732","latitude":"33.43333330","longitude":"36.28333330","name":"Soube\ufffdn\ufffd Keb\ufffdr\ufffd"},{"id":"2333733","latitude":"33.45000000","longitude":"36.28333330","name":"Soube\ufffdn\ufffd S\ufffdrh\ufffdr\ufffd"},{"id":"2333734","latitude":"33.43333330","longitude":"36.28333330","name":"Soube\ufffdnet el K\ufffdbir\ufffd"},{"id":"2333735","latitude":"33.45000000","longitude":"36.28333330","name":"Soube\ufffdnet es S\ufffdrh\ufffdr\ufffd"},{"id":"2333845","latitude":"33.43333330","longitude":"36.28333330","name":"Subaynah al Kabirah"},{"id":"2333846","latitude":"33.45000000","longitude":"36.28333330","name":"Subaynah as Saghirah"},{"id":"2335651","latitude":"33.53888890","longitude":"36.96666670","name":"Umm Udhun"},{"id":"2335698","latitude":"33.79722220","longitude":"36.08055560","name":"`Utayb"},{"id":"2335746","latitude":"33.17222220","longitude":"36.32222220","name":"Wadi`Aliqin"},{"id":"2335821","latitude":"33.45000000","longitude":"36.31666670","name":"Yalda"},{"id":"2335873","latitude":"33.48333330","longitude":"36.38333330","name":"Zabdin"},{"id":"2335918","latitude":"33.51666670","longitude":"36.35000000","name":"Zamalka"},{"id":"2336007","latitude":"33.48333330","longitude":"36.38333330","name":"Zebd\ufffdne"},{"id":"2336061","latitude":"33.48333330","longitude":"36.38333330","name":"Zibdine"}]