[{"id":"2347319","latitude":"7.46666670","longitude":"1.30000000","name":"Abagatchi"},{"id":"2347329","latitude":"7.60000000","longitude":"1.11666670","name":"Abanakop\ufffd"},{"id":"2347339","latitude":"7.36666670","longitude":"1.15000000","name":"Ab\ufffdssankop\ufffd"},{"id":"2347348","latitude":"7.38333330","longitude":"1.30000000","name":"Abodji"},{"id":"2347351","latitude":"7.55000000","longitude":"1.08333330","name":"Abokoukop\ufffd"},{"id":"2347358","latitude":"7.53333330","longitude":"1.20000000","name":"Abot\ufffdss\ufffd"},{"id":"2347361","latitude":"7.33333330","longitude":"1.21666670","name":"Abouloukop\ufffd"},{"id":"2347388","latitude":"7.40000000","longitude":"1.26666670","name":"Adanou"},{"id":"2347400","latitude":"7.33333330","longitude":"1.20000000","name":"Adiaboulkoukop\ufffd"},{"id":"2347413","latitude":"7.36666670","longitude":"1.11666670","name":"Adigo"},{"id":"2347432","latitude":"7.55000000","longitude":"1.08333330","name":"Adjan"},{"id":"2347448","latitude":"7.50000000","longitude":"1.18333330","name":"Adjido"},{"id":"2347470","latitude":"7.55000000","longitude":"1.21666670","name":"Adjomi"},{"id":"2347480","latitude":"7.53333330","longitude":"1.25000000","name":"Adolokop\ufffd"},{"id":"2347521","latitude":"7.38333330","longitude":"1.28333330","name":"Afid\ufffdgnigba"},{"id":"2347524","latitude":"7.38333330","longitude":"1.28333330","name":"Afid\ufffdgnigban"},{"id":"2347525","latitude":"7.56666670","longitude":"1.03333330","name":"Afidemgha"},{"id":"2347527","latitude":"7.58333330","longitude":"1.15000000","name":"Afid\ufffdnigba"},{"id":"2347534","latitude":"7.38333330","longitude":"1.21666670","name":"Afikop\ufffd"},{"id":"2347535","latitude":"7.45000000","longitude":"1.06666670","name":"Afilahou"},{"id":"2347541","latitude":"7.46666670","longitude":"1.38333330","name":"Afol\ufffd"},{"id":"2347554","latitude":"7.43333330","longitude":"1.10000000","name":"Agadja"},{"id":"2347589","latitude":"7.48333330","longitude":"1.40000000","name":"Agbar\ufffd"},{"id":"2347606","latitude":"7.43333330","longitude":"1.10000000","name":"Agb\ufffddomodji"},{"id":"2347640","latitude":"7.43333330","longitude":"1.16666670","name":"Agbodjrovi"},{"id":"2347647","latitude":"7.50000000","longitude":"1.13333330","name":"Agbofon"},{"id":"2347649","latitude":"7.60000000","longitude":"1.11666670","name":"Agbokop\ufffd"},{"id":"2347650","latitude":"7.43333330","longitude":"1.20000000","name":"Agbokoro"},{"id":"2347655","latitude":"7.51666670","longitude":"1.15000000","name":"Agbonou"},{"id":"2347732","latitude":"7.56666670","longitude":"1.08333330","name":"Agoud\ufffdv\ufffd"},{"id":"2347791","latitude":"7.45000000","longitude":"1.05000000","name":"Aiaokop\ufffd"},{"id":"2347808","latitude":"7.43333330","longitude":"1.33333330","name":"Akaka\ufffd"},{"id":"2347830","latitude":"7.36666670","longitude":"1.23333330","name":"Akbo\ufffdssoukop\ufffd"},{"id":"2347864","latitude":"7.48333330","longitude":"1.05000000","name":"Akossikop\ufffd"},{"id":"2347865","latitude":"7.45000000","longitude":"1.26666670","name":"Akot\ufffda"},{"id":"2347868","latitude":"7.41666670","longitude":"1.15000000","name":"Akou\ufffdkp\ufffd"},{"id":"2347874","latitude":"7.46666670","longitude":"1.16666670","name":"Akoutchobli"},{"id":"2347882","latitude":"7.51666670","longitude":"1.20000000","name":"Akpaka"},{"id":"2347886","latitude":"7.43333330","longitude":"1.25000000","name":"Akpakop\ufffd"},{"id":"2347889","latitude":"7.46666670","longitude":"1.33333330","name":"Akpar\ufffd"},{"id":"2347915","latitude":"7.48333330","longitude":"1.20000000","name":"Alakoyo"},{"id":"2347981","latitude":"7.55000000","longitude":"1.28333330","name":"Am\ufffdgadiani"},{"id":"2348010","latitude":"7.40000000","longitude":"1.10000000","name":"Amouakpa"},{"id":"2348011","latitude":"7.35000000","longitude":"1.23333330","name":"Amou Akp\ufffdkp\ufffd"},{"id":"2348013","latitude":"7.56666670","longitude":"1.10000000","name":"Amou"},{"id":"2348015","latitude":"7.38333330","longitude":"1.18333330","name":"Amouchou"},{"id":"2348020","latitude":"7.35000000","longitude":"1.18333330","name":"Amoukop\ufffd"},{"id":"2348021","latitude":"7.35000000","longitude":"1.28333330","name":"Amounou"},{"id":"2348029","latitude":"7.35000000","longitude":"1.28333330","name":"Amoussal\ufffd"},{"id":"2348035","latitude":"7.38333330","longitude":"1.18333330","name":"Amoutchou"},{"id":"2348040","latitude":"7.38333330","longitude":"1.18333330","name":"Amutschu"},{"id":"2348095","latitude":"7.38333330","longitude":"1.20000000","name":"Aoukoukop\ufffd"},{"id":"2348112","latitude":"7.55000000","longitude":"1.06666670","name":"Ap\ufffdgam\ufffd"},{"id":"2348127","latitude":"7.36666670","longitude":"1.18333330","name":"Aroukakop\ufffd"},{"id":"2348130","latitude":"7.43333330","longitude":"1.38333330","name":"Asant\ufffd"},{"id":"2348146","latitude":"7.43333330","longitude":"1.38333330","name":"Assant\ufffd"},{"id":"2348162","latitude":"7.35000000","longitude":"1.23333330","name":"Atak\ufffd"},{"id":"2348165","latitude":"7.53333330","longitude":"1.13333330","name":"Atakpam\ufffd"},{"id":"2348168","latitude":"7.48333330","longitude":"1.16666670","name":"Atalo"},{"id":"2348175","latitude":"7.41666670","longitude":"1.20000000","name":"Atchakop\ufffd"},{"id":"2348194","latitude":"7.48333330","longitude":"1.40000000","name":"Atchin\ufffdboukop\ufffd"},{"id":"2348197","latitude":"7.50000000","longitude":"1.25000000","name":"Atchou"},{"id":"2348215","latitude":"7.53333330","longitude":"1.23333330","name":"Atiad\ufffdkop\ufffd"},{"id":"2348225","latitude":"7.38333330","longitude":"1.25000000","name":"Atidi\ufffd"},{"id":"2348235","latitude":"7.45000000","longitude":"1.13333330","name":"Atigozo"},{"id":"2348275","latitude":"7.45000000","longitude":"1.20000000","name":"Atokodj\ufffd"},{"id":"2348276","latitude":"7.53333330","longitude":"1.35000000","name":"Atom\ufffd Atchin\ufffd"},{"id":"2348305","latitude":"7.43333330","longitude":"1.16666670","name":"Avedje"},{"id":"2348336","latitude":"7.46666670","longitude":"1.15000000","name":"Av\ufffdt\ufffd"},{"id":"2348388","latitude":"7.56666670","longitude":"1.03333330","name":"Azafi"},{"id":"2348389","latitude":"7.50000000","longitude":"1.08333330","name":"Azafi T\ufffdm\ufffd"},{"id":"2348491","latitude":"7.60000000","longitude":"1.23333330","name":"Banouba"},{"id":"2348509","latitude":"7.60000000","longitude":"1.23333330","name":"Barouba"},{"id":"2348634","latitude":"7.48333330","longitude":"1.30000000","name":"Bl\ufffdonoukop\ufffd"},{"id":"2348684","latitude":"7.58333330","longitude":"1.21666670","name":"Boko"},{"id":"2348707","latitude":"7.36666670","longitude":"1.13333330","name":"Bonodoko"},{"id":"2348731","latitude":"7.46666670","longitude":"1.10000000","name":"Bougnarou"},{"id":"2348776","latitude":"7.45000000","longitude":"1.31666670","name":"Bov\ufffdle"},{"id":"2348800","latitude":"7.50000000","longitude":"1.38333330","name":"Daboukop\ufffd"},{"id":"2348805","latitude":"7.43333330","longitude":"1.16666670","name":"Dadja"},{"id":"2348862","latitude":"7.46666670","longitude":"1.11666670","name":"Dass\ufffdkop\ufffd"},{"id":"2348894","latitude":"7.60000000","longitude":"1.06666670","name":"D\ufffdm\ufffd"},{"id":"2348896","latitude":"7.60000000","longitude":"1.06666670","name":"Demi-Okpahou\ufffd"},{"id":"2348949","latitude":"7.65000000","longitude":"1.05000000","name":"Didokouo"},{"id":"2348957","latitude":"7.50000000","longitude":"1.20000000","name":"Digbar\ufffd"},{"id":"2349002","latitude":"7.33333330","longitude":"1.23333330","name":"Djambloukou"},{"id":"2349044","latitude":"7.61666670","longitude":"1.15000000","name":"Dj\ufffdr\ufffdhouy\ufffd"},{"id":"2349079","latitude":"7.36666670","longitude":"1.25000000","name":"Djodji"},{"id":"2349092","latitude":"7.43333330","longitude":"1.30000000","name":"Djonougou\ufffd"},{"id":"2349152","latitude":"7.55000000","longitude":"1.13333330","name":"Doufio"},{"id":"2349189","latitude":"7.51666670","longitude":"1.08333330","name":"Eb\ufffdva"},{"id":"2349190","latitude":"7.51666670","longitude":"1.08333330","name":"Ebewa"},{"id":"2349203","latitude":"7.35000000","longitude":"1.23333330","name":"\ufffdgb\ufffdgb\ufffdkop\ufffd"},{"id":"2349204","latitude":"7.43333330","longitude":"1.30000000","name":"Egb\ufffdli"},{"id":"2349209","latitude":"7.40000000","longitude":"1.16666670","name":"Egoukop\ufffd"},{"id":"2349213","latitude":"7.51666670","longitude":"1.16666670","name":"Ekloukop\ufffd"},{"id":"2349260","latitude":"7.56666670","longitude":"1.21666670","name":"Etchal\ufffd"},{"id":"2349261","latitude":"7.56666670","longitude":"1.21666670","name":"Etchial\ufffd"},{"id":"2349272","latitude":"7.53333330","longitude":"1.03333330","name":"Ewou"},{"id":"2349273","latitude":"7.55000000","longitude":"1.01666670","name":"Expounoum\ufffd"},{"id":"2349432","latitude":"7.55000000","longitude":"1.15000000","name":"Gb\ufffdcon"},{"id":"2349438","latitude":"7.55000000","longitude":"1.15000000","name":"Gb\ufffdkon"},{"id":"2349439","latitude":"7.48333330","longitude":"1.16666670","name":"Gb\ufffdmaho"},{"id":"2349453","latitude":"7.40000000","longitude":"1.10000000","name":"Gboamou"},{"id":"2349460","latitude":"7.43333330","longitude":"1.11666670","name":"Gbohou Loto"},{"id":"2349484","latitude":"7.56666670","longitude":"1.13333330","name":"Gl\ufffdf\ufffd"},{"id":"2349486","latitude":"7.31666670","longitude":"1.16666670","name":"Gle\ufffd"},{"id":"2349512","latitude":"7.50000000","longitude":"1.25000000","name":"Gnougbo"},{"id":"2349520","latitude":"7.53333330","longitude":"1.30000000","name":"Gogakop\ufffd"},{"id":"2349522","latitude":"7.31666670","longitude":"1.16666670","name":"Gohokop\ufffd"},{"id":"2349586","latitude":"7.60000000","longitude":"1.18333330","name":"Hav\ufffd"},{"id":"2349591","latitude":"7.60000000","longitude":"1.18333330","name":"Haw\ufffd"},{"id":"2349607","latitude":"7.53333330","longitude":"1.10000000","name":"Hih\ufffdtro"},{"id":"2349653","latitude":"7.58333330","longitude":"1.03333330","name":"Ihouassi"},{"id":"2349682","latitude":"7.63333330","longitude":"1.06666670","name":"Itokoub\ufffd"},{"id":"2349690","latitude":"7.31666670","longitude":"1.16666670","name":"Jauwikovhe"},{"id":"2349737","latitude":"7.35000000","longitude":"1.28333330","name":"Kadjokop\ufffd"},{"id":"2349744","latitude":"7.48333330","longitude":"1.18333330","name":"Kafalouka"},{"id":"2349790","latitude":"7.51666670","longitude":"1.16666670","name":"Kamina"},{"id":"2349812","latitude":"7.60000000","longitude":"1.10000000","name":"Kanokop\ufffd"},{"id":"2349861","latitude":"7.51666670","longitude":"1.30000000","name":"Katobodjo"},{"id":"2349862","latitude":"7.46666670","longitude":"1.20000000","name":"Katol\ufffd"},{"id":"2349890","latitude":"7.41666670","longitude":"1.30000000","name":"K\ufffdl\ufffdt\ufffd Tal\ufffd"},{"id":"2349907","latitude":"7.36666670","longitude":"1.30000000","name":"K\ufffdtabo"},{"id":"2349956","latitude":"7.40000000","longitude":"1.30000000","name":"Kl\ufffdp\ufffd"},{"id":"2350004","latitude":"7.60000000","longitude":"1.03333330","name":"Kodjo Aza"},{"id":"2350010","latitude":"7.50000000","longitude":"1.20000000","name":"Ko\ufffdtadi"},{"id":"2350012","latitude":"7.50000000","longitude":"1.31666670","name":"Kof\ufffddo"},{"id":"2350013","latitude":"7.61666670","longitude":"1.13333330","name":"Kof\ufffdlakou"},{"id":"2350014","latitude":"7.46666670","longitude":"1.30000000","name":"Kof\ufffdtchouko"},{"id":"2350016","latitude":"7.33333330","longitude":"1.16666670","name":"Kofigato"},{"id":"2350021","latitude":"7.51666670","longitude":"1.08333330","name":"Kofodua"},{"id":"2350054","latitude":"7.55000000","longitude":"1.25000000","name":"Koledjo"},{"id":"2350062","latitude":"7.46666670","longitude":"1.31666670","name":"Kolokop\ufffd"},{"id":"2350070","latitude":"7.45000000","longitude":"1.30000000","name":"Koloukop\ufffd"},{"id":"2350089","latitude":"7.45000000","longitude":"1.26666670","name":"Konagoui"},{"id":"2350135","latitude":"7.50000000","longitude":"1.15000000","name":"Kossikop\ufffd"},{"id":"2350143","latitude":"7.41666670","longitude":"1.16666670","name":"Kotokop\ufffd"},{"id":"2350158","latitude":"7.58333330","longitude":"1.21666670","name":"Kouatchou"},{"id":"2350202","latitude":"7.51666670","longitude":"1.26666670","name":"Kougnohou"},{"id":"2350316","latitude":"7.40000000","longitude":"1.25000000","name":"Koussoukop\ufffd"},{"id":"2350378","latitude":"7.41666670","longitude":"1.25000000","name":"Kpakpo"},{"id":"2350393","latitude":"7.43333330","longitude":"1.18333330","name":"Kparaf\ufffd"},{"id":"2350469","latitude":"7.43333330","longitude":"1.18333330","name":"Kpodjiv\ufffd"},{"id":"2350494","latitude":"7.48333330","longitude":"1.18333330","name":"Kporav\ufffd"},{"id":"2350503","latitude":"7.61666670","longitude":"1.20000000","name":"Kpou\ufffddji"},{"id":"2350581","latitude":"7.35000000","longitude":"1.13333330","name":"Laouloukop\ufffd"},{"id":"2350586","latitude":"7.58333330","longitude":"1.25000000","name":"Lass\ufffd"},{"id":"2350588","latitude":"7.46666670","longitude":"1.21666670","name":"Lat\ufffd"},{"id":"2350616","latitude":"7.51666670","longitude":"1.31666670","name":"Lett\ufffd"},{"id":"2350646","latitude":"7.40000000","longitude":"1.33333330","name":"Logossa"},{"id":"2350661","latitude":"7.43333330","longitude":"1.35000000","name":"Lomnava"},{"id":"2350691","latitude":"7.48333330","longitude":"1.08333330","name":"Malom\ufffd"},{"id":"2350692","latitude":"7.48333330","longitude":"1.08333330","name":"Malomi"},{"id":"2350720","latitude":"7.40000000","longitude":"1.08333330","name":"Mapa"},{"id":"2350732","latitude":"7.56666670","longitude":"1.23333330","name":"Mat\ufffdkouo"},{"id":"2350743","latitude":"7.55000000","longitude":"1.28333330","name":"M\ufffddiam\ufffdkou"},{"id":"2351019","latitude":"7.55000000","longitude":"1.26666670","name":"N\ufffdgakop\ufffd"},{"id":"2351162","latitude":"7.56666670","longitude":"1.10000000","name":"Ob\ufffddi"},{"id":"2351164","latitude":"7.43333330","longitude":"1.16666670","name":"Obi"},{"id":"2351165","latitude":"7.48333330","longitude":"1.05000000","name":"Od\ufffdr\ufffd"},{"id":"2351167","latitude":"7.45000000","longitude":"1.11666670","name":"Odikop\ufffd"},{"id":"2351180","latitude":"7.60000000","longitude":"1.06666670","name":"Ogob\ufffd"},{"id":"2351186","latitude":"7.61666670","longitude":"1.10000000","name":"Ohan\ufffdb\ufffd"},{"id":"2351188","latitude":"7.58333330","longitude":"1.21666670","name":"Oholobou\ufffd"},{"id":"2351189","latitude":"7.41666670","longitude":"1.08333330","name":"Ohouloka"},{"id":"2351190","latitude":"7.56666670","longitude":"1.06666670","name":"Ohouritcho"},{"id":"2351191","latitude":"7.63333330","longitude":"1.08333330","name":"Okama"},{"id":"2351197","latitude":"7.50000000","longitude":"1.31666670","name":"Okoutalakou"},{"id":"2351198","latitude":"7.61666670","longitude":"1.01666670","name":"Okpahou\ufffd"},{"id":"2351199","latitude":"7.61666670","longitude":"1.01666670","name":"Okpahoui"},{"id":"2351213","latitude":"7.51666670","longitude":"1.33333330","name":"Oniadokop\ufffd"},{"id":"2351227","latitude":"7.43333330","longitude":"1.08333330","name":"Ouapa"},{"id":"2351248","latitude":"7.48333330","longitude":"1.10000000","name":"Oulatch\ufffd"},{"id":"2351276","latitude":"7.60000000","longitude":"1.06666670","name":"Ouyou"},{"id":"2351277","latitude":"7.60000000","longitude":"1.08333330","name":"Oya"},{"id":"2351278","latitude":"7.51666670","longitude":"1.16666670","name":"Oyo"},{"id":"2351355","latitude":"7.36666670","longitude":"1.11666670","name":"Patikop\ufffd"},{"id":"2351401","latitude":"7.45000000","longitude":"1.10000000","name":"Poda"},{"id":"2351411","latitude":"7.43333330","longitude":"1.10000000","name":"Pok\ufffdd\ufffd"},{"id":"2351467","latitude":"7.55000000","longitude":"1.15000000","name":"Sada"},{"id":"2351473","latitude":"7.33333330","longitude":"1.15000000","name":"Safoukop\ufffd"},{"id":"2351482","latitude":"7.36666670","longitude":"1.18333330","name":"Sagnakop\ufffd"},{"id":"2351484","latitude":"7.60000000","longitude":"1.15000000","name":"Sagognon"},{"id":"2351487","latitude":"7.56666670","longitude":"1.03333330","name":"Sagouda"},{"id":"2351505","latitude":"7.38333330","longitude":"1.13333330","name":"Samakop\ufffd"},{"id":"2351546","latitude":"7.43333330","longitude":"1.26666670","name":"Saragamada"},{"id":"2351615","latitude":"7.45000000","longitude":"1.31666670","name":"Sicinni"},{"id":"2351844","latitude":"7.53333330","longitude":"1.11666670","name":"Tchakpali"},{"id":"2351847","latitude":"7.31666670","longitude":"1.20000000","name":"Tchaloumikop\ufffd"},{"id":"2351857","latitude":"7.38333330","longitude":"1.31666670","name":"Tchantcha"},{"id":"2351903","latitude":"7.45000000","longitude":"1.16666670","name":"Tchoglitcho"},{"id":"2351906","latitude":"7.50000000","longitude":"1.25000000","name":"Tchonou"},{"id":"2351913","latitude":"7.33333330","longitude":"1.13333330","name":"T\ufffdba"},{"id":"2351925","latitude":"7.51666670","longitude":"1.05000000","name":"T\ufffdm\ufffddja"},{"id":"2351927","latitude":"7.48333330","longitude":"1.05000000","name":"Tem\ufffd-Oder\ufffd"},{"id":"2351928","latitude":"7.48333330","longitude":"1.03333330","name":"T\ufffdm\ufffd"},{"id":"2351942","latitude":"7.50000000","longitude":"1.21666670","name":"Tiadi"},{"id":"2351946","latitude":"7.48333330","longitude":"1.30000000","name":"Tialakop\ufffd"},{"id":"2351948","latitude":"7.31666670","longitude":"1.20000000","name":"Tialoum"},{"id":"2351987","latitude":"7.38333330","longitude":"1.15000000","name":"Tingu\ufffd"},{"id":"2352050","latitude":"7.51666670","longitude":"1.31666670","name":"Toigbekop\ufffd"},{"id":"2352051","latitude":"7.51666670","longitude":"1.31666670","name":"To\ufffdgbokop\ufffd"},{"id":"2352106","latitude":"7.43333330","longitude":"1.21666670","name":"Tota"},{"id":"2352120","latitude":"7.53333330","longitude":"1.28333330","name":"Toukou"},{"id":"2352188","latitude":"7.31666670","longitude":"1.20000000","name":"Tyaloumikop\ufffd"},{"id":"2352189","latitude":"7.31666670","longitude":"1.20000000","name":"Tyaloum"},{"id":"2352239","latitude":"7.53333330","longitude":"1.05000000","name":"Vou Ap\ufffdga"},{"id":"2352251","latitude":"7.53333330","longitude":"1.03333330","name":"Vou"},{"id":"2352271","latitude":"7.43333330","longitude":"1.08333330","name":"Wapa"},{"id":"2352323","latitude":"7.35000000","longitude":"1.15000000","name":"Yacoubokop\ufffd"},{"id":"2352334","latitude":"7.35000000","longitude":"1.15000000","name":"Yakoubokop\ufffd"},{"id":"2352336","latitude":"7.65000000","longitude":"1.01666670","name":"Yalla"},{"id":"2352344","latitude":"7.51666670","longitude":"1.03333330","name":"Yaokop\ufffd"},{"id":"2352376","latitude":"7.48333330","longitude":"1.30000000","name":"Yolikop\ufffd"},{"id":"2352382","latitude":"7.60000000","longitude":"1.13333330","name":"Yoro D\ufffdmad\ufffdli"},{"id":"2352384","latitude":"7.56666670","longitude":"1.26666670","name":"Yorokoto"},{"id":"2352385","latitude":"7.60000000","longitude":"1.16666670","name":"Yorokoudji"},{"id":"2352405","latitude":"7.41666670","longitude":"1.08333330","name":"Zav\ufffd"}]