[{"id":"2347896","latitude":"10.40000000","longitude":"0.41666670","name":"Akpoissou"},{"id":"2348430","latitude":"10.83333330","longitude":"0.21666670","name":"Bador\ufffd"},{"id":"2348524","latitude":"10.81666670","longitude":"0.23333330","name":"Batanbouar\ufffd"},{"id":"2348701","latitude":"10.85000000","longitude":"0.20000000","name":"Bomongue"},{"id":"2348708","latitude":"10.33333330","longitude":"0.51666670","name":"Bonsougou"},{"id":"2348853","latitude":"10.86388890","longitude":"0.20500000","name":"Dapango"},{"id":"2348854","latitude":"10.83333330","longitude":"0.21666670","name":"Dapanpergou"},{"id":"2348855","latitude":"10.86388890","longitude":"0.20500000","name":"Dapaong"},{"id":"2348856","latitude":"10.86388890","longitude":"0.20500000","name":"Dapong"},{"id":"2348974","latitude":"10.83333330","longitude":"0.18333330","name":"Djabargou"},{"id":"2348994","latitude":"10.85000000","longitude":"0.15000000","name":"Djakperga"},{"id":"2349128","latitude":"10.41666670","longitude":"0.48333330","name":"Domaine Gravillou"},{"id":"2349132","latitude":"10.81666670","longitude":"0.80000000","name":"Donga"},{"id":"2349133","latitude":"10.80000000","longitude":"0.85000000","name":"Doni\ufffd"},{"id":"2349325","latitude":"10.35000000","longitude":"0.46666670","name":"Fonboro"},{"id":"2349502","latitude":"10.83333330","longitude":"0.86666670","name":"Gnalem"},{"id":"2349537","latitude":"10.81666670","longitude":"0.16666670","name":"Gouani"},{"id":"2349798","latitude":"10.43333330","longitude":"0.53333330","name":"Kanganbou"},{"id":"2349837","latitude":"10.85000000","longitude":"0.16666670","name":"Karsome"},{"id":"2349931","latitude":"10.80000000","longitude":"0.78333330","name":"Kindohou"},{"id":"2350092","latitude":"10.86666670","longitude":"0.20000000","name":"Konbonloga"},{"id":"2350093","latitude":"10.86666670","longitude":"0.20000000","name":"Konboulouaka"},{"id":"2350205","latitude":"10.80000000","longitude":"0.85000000","name":"Kouini\ufffdteri"},{"id":"2350213","latitude":"10.30000000","longitude":"0.40000000","name":"Koukombou"},{"id":"2350214","latitude":"10.30000000","longitude":"0.40000000","name":"Koukommbou"},{"id":"2350269","latitude":"10.43333330","longitude":"0.48333330","name":"Koundjouar\ufffd"},{"id":"2350294","latitude":"10.88333330","longitude":"0.21666670","name":"Kountongbong"},{"id":"2350309","latitude":"10.81666670","longitude":"0.15000000","name":"Kourdjoaga"},{"id":"2350353","latitude":"10.85000000","longitude":"0.88333330","name":"Kouyao"},{"id":"2350424","latitude":"10.36666670","longitude":"0.53333330","name":"Kp\ufffdlo"},{"id":"2350555","latitude":"10.93333330","longitude":"0.88333330","name":"Lalora"},{"id":"2350702","latitude":"10.85000000","longitude":"0.81666670","name":"Mandouri"},{"id":"2350704","latitude":"10.35916670","longitude":"0.47083330","name":"Mango"},{"id":"2350709","latitude":"10.35000000","longitude":"0.43333330","name":"Maniadjoti"},{"id":"2350710","latitude":"10.31666670","longitude":"0.43333330","name":"Manian"},{"id":"2350711","latitude":"10.35000000","longitude":"0.43333330","name":"Manja"},{"id":"2350713","latitude":"10.31666670","longitude":"0.35000000","name":"Manki\ufffd"},{"id":"2350716","latitude":"10.35000000","longitude":"0.43333330","name":"Manya"},{"id":"2350793","latitude":"10.86666670","longitude":"0.86666670","name":"Mokaga"},{"id":"2350825","latitude":"10.41666670","longitude":"0.46666670","name":"Nabati"},{"id":"2350831","latitude":"10.90000000","longitude":"0.23333330","name":"Nabonton"},{"id":"2350833","latitude":"10.28333330","longitude":"0.45000000","name":"Nabouakou"},{"id":"2350845","latitude":"10.81666670","longitude":"0.18333330","name":"Nad\ufffdgr\ufffd"},{"id":"2350852","latitude":"10.30000000","longitude":"0.41666670","name":"Nadoti"},{"id":"2350941","latitude":"10.66666670","longitude":"0.20000000","name":"Nandodani"},{"id":"2350942","latitude":"10.66666670","longitude":"0.21666670","name":"Nandoga"},{"id":"2350975","latitude":"10.88333330","longitude":"0.20000000","name":"Nasabl\ufffd"},{"id":"2350979","latitude":"10.88333330","longitude":"0.20000000","name":"Nassabl\ufffd"},{"id":"2350999","latitude":"10.30000000","longitude":"0.55000000","name":"Natiri"},{"id":"2351031","latitude":"10.83333330","longitude":"0.86666670","name":"Nial\ufffdm\ufffd"},{"id":"2351040","latitude":"10.30000000","longitude":"0.41666670","name":"Niambad\ufffd"},{"id":"2351043","latitude":"10.30000000","longitude":"0.41666670","name":"Niammbad\ufffd"},{"id":"2351115","latitude":"10.35916670","longitude":"0.47083330","name":"Nsara"},{"id":"2351160","latitude":"10.35916670","longitude":"0.47083330","name":"N'Zara"},{"id":"2351268","latitude":"10.85000000","longitude":"0.20000000","name":"Ourgou Tigou"},{"id":"2351326","latitude":"10.80000000","longitude":"0.80000000","name":"Pans\ufffdni"},{"id":"2351470","latitude":"10.28333330","longitude":"0.46666670","name":"Sadori"},{"id":"2351520","latitude":"10.35000000","longitude":"0.48333330","name":"Sangbana"},{"id":"2351529","latitude":"10.35916670","longitude":"0.47083330","name":"Sansane-Mangu"},{"id":"2351531","latitude":"10.35916670","longitude":"0.47083330","name":"Sansann\ufffd-Mango"},{"id":"2351532","latitude":"10.35916670","longitude":"0.47083330","name":"Sanssan\ufffd-Mango"},{"id":"2351613","latitude":"10.90000000","longitude":"0.18333330","name":"Siborototi"},{"id":"2351787","latitude":"10.78333330","longitude":"0.81666670","name":"Tanbiga"},{"id":"2351794","latitude":"10.65583330","longitude":"0.19500000","name":"Tandjouar\ufffd"},{"id":"2351813","latitude":"10.85000000","longitude":"0.20000000","name":"Tantigou"},{"id":"2351870","latitude":"10.30000000","longitude":"0.55000000","name":"Tchawouikan"},{"id":"2351896","latitude":"10.35000000","longitude":"0.51666670","name":"Tchiri"},{"id":"2351966","latitude":"10.38333330","longitude":"0.51666670","name":"Ti\ufffdkou"},{"id":"2352007","latitude":"10.88333330","longitude":"0.23333330","name":"Toaga"},{"id":"2352097","latitude":"10.88333330","longitude":"0.90000000","name":"Tora"},{"id":"2352114","latitude":"10.80000000","longitude":"0.81666670","name":"Toub\ufffdlo\ufffdlhou"},{"id":"2352141","latitude":"10.35000000","longitude":"0.53333330","name":"Toutionga"},{"id":"2352186","latitude":"10.78333330","longitude":"0.85000000","name":"Tuandi"},{"id":"2352342","latitude":"10.83333330","longitude":"0.15000000","name":"Yanyane"}]