[{"id":"2352475","latitude":"15.85000000","longitude":"104.63333300","name":"Amanat Charoem"},{"id":"2352480","latitude":"15.85000000","longitude":"104.63333300","name":"Amnat Charoen"},{"id":"2352485","latitude":"15.85000000","longitude":"104.63333300","name":"Amphoe Amnat Charoen"},{"id":"2352969","latitude":"15.69833300","longitude":"104.89277800","name":"Amphoe Phana"},{"id":"2354600","latitude":"15.80000000","longitude":"104.63333300","name":"Ban Bo Bo"},{"id":"2354601","latitude":"15.80000000","longitude":"104.63333300","name":"Ban Boboh"},{"id":"2354602","latitude":"15.80000000","longitude":"104.63333300","name":"Ban Bo Bu"},{"id":"2354603","latitude":"15.68333300","longitude":"104.50000000","name":"Ban Bo Chaneng"},{"id":"2354877","latitude":"15.80000000","longitude":"104.63333300","name":"Ban Bua Bu"},{"id":"2355008","latitude":"15.85000000","longitude":"104.63333300","name":"Ban Bung"},{"id":"2355509","latitude":"15.60000000","longitude":"104.90000000","name":"Ban Chan Lan"},{"id":"2355596","latitude":"15.76666700","longitude":"104.61666700","name":"Ban Chat"},{"id":"2355793","latitude":"15.76861100","longitude":"104.72555600","name":"Ban Chok"},{"id":"2355972","latitude":"15.73333300","longitude":"104.60000000","name":"Ban Chuak"},{"id":"2356089","latitude":"15.68333300","longitude":"104.70000000","name":"Ban Dam"},{"id":"2356298","latitude":"15.97666700","longitude":"104.67055600","name":"Ban Doem"},{"id":"2356413","latitude":"15.88555600","longitude":"104.97444400","name":"Ban Don Chat"},{"id":"2356422","latitude":"15.70277800","longitude":"104.85416700","name":"Ban Don Chi"},{"id":"2356486","latitude":"16.00000000","longitude":"104.66666700","name":"Ban Dong"},{"id":"2356500","latitude":"15.70000000","longitude":"104.75000000","name":"Ban Dong Bang"},{"id":"2356713","latitude":"15.78333300","longitude":"104.75000000","name":"Ban Dong Si-tho"},{"id":"2356743","latitude":"15.73333300","longitude":"104.50000000","name":"Ban Dong Ton"},{"id":"2356983","latitude":"15.78333300","longitude":"104.55000000","name":"Ban Don Moei"},{"id":"2358115","latitude":"15.98055600","longitude":"104.95444400","name":"Ban Hin Koeng"},{"id":"2358482","latitude":"15.68333300","longitude":"104.70000000","name":"Ban Hua Dong"},{"id":"2358542","latitude":"15.76666700","longitude":"104.95000000","name":"Ban Huai"},{"id":"2359788","latitude":"15.71666700","longitude":"104.46666700","name":"Ban Hua Tapan"},{"id":"2359790","latitude":"15.71666700","longitude":"104.46666700","name":"Ban Hua Taphan"},{"id":"2360130","latitude":"15.89416700","longitude":"104.47777800","name":"Ban Kaeng Kathin"},{"id":"2360148","latitude":"15.73333300","longitude":"104.58333300","name":"Ban Kaeng Nai"},{"id":"2360204","latitude":"15.81666700","longitude":"104.63333300","name":"Ban Kai Khia"},{"id":"2360669","latitude":"15.75000000","longitude":"104.81666700","name":"Ban Kham"},{"id":"2360719","latitude":"15.81666700","longitude":"104.63333300","name":"Ban Kham Kakhia"},{"id":"2360777","latitude":"15.61666700","longitude":"104.50000000","name":"Ban Kham Noi"},{"id":"2360794","latitude":"15.85750000","longitude":"104.75250000","name":"Ban Kham Pha-O"},{"id":"2360802","latitude":"15.75000000","longitude":"104.48333300","name":"Ban Kham Phon"},{"id":"2360804","latitude":"15.75000000","longitude":"104.48333300","name":"Ban Kham Phra"},{"id":"2360825","latitude":"15.79666700","longitude":"104.53055600","name":"Ban Kham Sang Bo"},{"id":"2361133","latitude":"15.78333300","longitude":"104.95000000","name":"Ban Khaopun"},{"id":"2361238","latitude":"15.73333300","longitude":"104.58333300","name":"Ban Kheng Yai"},{"id":"2362118","latitude":"15.83833300","longitude":"104.63250000","name":"Ban Khok Chakohan"},{"id":"2362336","latitude":"15.68333300","longitude":"104.56666700","name":"Ban Khok Lo"},{"id":"2362468","latitude":"15.81666700","longitude":"104.91666700","name":"Ban Khok Phra"},{"id":"2362575","latitude":"15.78333300","longitude":"104.63333300","name":"Ban Khok Si Bunruang"},{"id":"2363060","latitude":"15.98138900","longitude":"104.74055600","name":"Ban Khum Yai"},{"id":"2364283","latitude":"15.67944400","longitude":"104.74527800","name":"Ban Kung Chai"},{"id":"2364397","latitude":"16.00000000","longitude":"104.71666700","name":"Ban Kut Nam Kin"},{"id":"2365030","latitude":"15.66666700","longitude":"104.55000000","name":"Ban Lao Khwao"},{"id":"2365054","latitude":"16.00000000","longitude":"104.66666700","name":"Ban Lao Nat"},{"id":"2365071","latitude":"15.86666700","longitude":"104.80000000","name":"Ban Lao Phruan"},{"id":"2365271","latitude":"15.80000000","longitude":"104.88333300","name":"Ban Loe"},{"id":"2365389","latitude":"15.80000000","longitude":"104.88333300","name":"Ban Lu"},{"id":"2366051","latitude":"15.76666700","longitude":"104.70000000","name":"Ban Maet"},{"id":"2366220","latitude":"15.80000000","longitude":"104.81666700","name":"Ban Mai"},{"id":"2366779","latitude":"15.78333300","longitude":"104.63333300","name":"Ban Met"},{"id":"2367135","latitude":"15.82694400","longitude":"104.83138900","name":"Ban Muang Po"},{"id":"2367738","latitude":"15.63333300","longitude":"104.55000000","name":"Ban Na Khu"},{"id":"2367839","latitude":"16.00000000","longitude":"104.66666700","name":"Ban Na Lao"},{"id":"2367852","latitude":"16.00000000","longitude":"104.66666700","name":"Ban Na Lo"},{"id":"2368027","latitude":"15.68333300","longitude":"104.93333300","name":"Ban Nam Kham"},{"id":"2368145","latitude":"15.86666700","longitude":"104.46666700","name":"Ban Na Mo Ma"},{"id":"2368228","latitude":"15.80000000","longitude":"104.48333300","name":"Ban Nam Plik"},{"id":"2368328","latitude":"15.73333300","longitude":"104.73333300","name":"Ban Nam Thuam"},{"id":"2368354","latitude":"15.93722200","longitude":"104.51916700","name":"Ban Na Muang"},{"id":"2368519","latitude":"15.85944400","longitude":"104.88722200","name":"Ban Na Pa Saeng"},{"id":"2368542","latitude":"15.81666700","longitude":"104.95000000","name":"Ban Na Phang"},{"id":"2368578","latitude":"16.00000000","longitude":"104.58333300","name":"Ban Na Pho"},{"id":"2368690","latitude":"15.97666700","longitude":"104.67055600","name":"Ban Na Ruang"},{"id":"2368765","latitude":"15.95916700","longitude":"104.51222200","name":"Ban Na Si Nuan"},{"id":"2368792","latitude":"15.93333300","longitude":"104.70000000","name":"Ban Na Tae"},{"id":"2369111","latitude":"15.88388900","longitude":"104.91861100","name":"Ban Na Wa"},{"id":"2369124","latitude":"15.99194400","longitude":"104.54472200","name":"Ban Na Wat"},{"id":"2369174","latitude":"15.87222200","longitude":"104.53055600","name":"Ban Na Yia"},{"id":"2369180","latitude":"15.85305600","longitude":"104.51305600","name":"Ban Na Yom"},{"id":"2369719","latitude":"15.81666700","longitude":"104.78333300","name":"Ban Nong Bua"},{"id":"2370025","latitude":"15.96472200","longitude":"104.87527800","name":"Ban Nong Hai Noi"},{"id":"2370071","latitude":"15.80777800","longitude":"104.70833300","name":"Ban Nong Hin"},{"id":"2370289","latitude":"15.96666700","longitude":"104.81666700","name":"Ban Nong Kha"},{"id":"2370379","latitude":"15.78333300","longitude":"104.63333300","name":"Ban Nong Khang"},{"id":"2370458","latitude":"15.78333300","longitude":"104.63333300","name":"Ban Nong Khlong"},{"id":"2370830","latitude":"15.80000000","longitude":"104.83333300","name":"Ban Nong Lum Phuk"},{"id":"2370909","latitude":"16.00000000","longitude":"104.76666700","name":"Ban Nong Masiang"},{"id":"2371655","latitude":"15.73333300","longitude":"104.70000000","name":"Ban Nong Sala"},{"id":"2372266","latitude":"15.58333300","longitude":"104.56666700","name":"Ban Nong Yo"},{"id":"2372322","latitude":"15.61666700","longitude":"104.58333300","name":"Ban Non Kho"},{"id":"2372401","latitude":"15.91388900","longitude":"104.62750000","name":"Ban Non Nam Thaeng"},{"id":"2372405","latitude":"15.86666700","longitude":"104.83333300","name":"Ban Non Ngam"},{"id":"2373681","latitude":"15.71666700","longitude":"104.60000000","name":"Ban Pao"},{"id":"2374593","latitude":"16.00000000","longitude":"104.58333300","name":"Ban Pho"},{"id":"2374696","latitude":"15.73333300","longitude":"104.81666700","name":"Ban Phon Muang"},{"id":"2375030","latitude":"15.93333300","longitude":"104.78333300","name":"Ban Phu Khao Kham"},{"id":"2375159","latitude":"15.96555600","longitude":"104.58083300","name":"Ban Pla Duk"},{"id":"2375224","latitude":"15.75000000","longitude":"104.78333300","name":"Ban Pla Khao"},{"id":"2375738","latitude":"15.71666700","longitude":"104.60000000","name":"Ban Pu"},{"id":"2375774","latitude":"15.73333300","longitude":"104.81666700","name":"Ban Pun Muang"},{"id":"2375878","latitude":"15.66666700","longitude":"104.78333300","name":"Ban Rai Khi"},{"id":"2376134","latitude":"15.77722200","longitude":"104.87055600","name":"Ban Roek Udom"},{"id":"2376754","latitude":"15.73333300","longitude":"104.70000000","name":"Ban Sa Lao"},{"id":"2377094","latitude":"15.91194400","longitude":"104.95944400","name":"Ban Sam Yaek"},{"id":"2377189","latitude":"15.80916700","longitude":"104.76500000","name":"Ban Sang Nok Tha"},{"id":"2377207","latitude":"15.65000000","longitude":"104.46666700","name":"Ban Sang Tho Nok"},{"id":"2377682","latitude":"15.84083300","longitude":"104.94027800","name":"Ban Sawang Tai"},{"id":"2377764","latitude":"15.80000000","longitude":"104.98333300","name":"Ban Sida"},{"id":"2377938","latitude":"15.61944400","longitude":"104.91694400","name":"Ban Soi"},{"id":"2377949","latitude":"15.93333300","longitude":"104.65000000","name":"Ban Sok Don"},{"id":"2377957","latitude":"15.90500000","longitude":"104.59027800","name":"Ban Sok Kao"},{"id":"2377971","latitude":"15.78333300","longitude":"104.91666700","name":"Ban Sok Mai"},{"id":"2377974","latitude":"15.78333300","longitude":"104.91666700","name":"Ban Sok Noi"},{"id":"2377993","latitude":"15.71555600","longitude":"104.91722200","name":"Ban Sombun"},{"id":"2378289","latitude":"15.73333300","longitude":"104.70000000","name":"Ban Sralao"},{"id":"2381635","latitude":"15.73333300","longitude":"104.50000000","name":"Ban Tong Ton"},{"id":"2384396","latitude":"15.71666700","longitude":"104.46666700","name":"Hua Taphan"},{"id":"2385544","latitude":"15.80000000","longitude":"105.00000000","name":"Kut Khao Pun"},{"id":"2386586","latitude":"16.00000000","longitude":"104.66666700","name":"Nalao"},{"id":"2386632","latitude":"15.80000000","longitude":"104.48333300","name":"Nam Phik"},{"id":"2387264","latitude":"15.69833300","longitude":"104.89277800","name":"Phana"}]