[{"id":"2394507","latitude":"36.63305560","longitude":"10.28361110","name":"Ahmed Zid"},{"id":"2394632","latitude":"36.64555560","longitude":"10.19277780","name":"Al Khulaydiyah"},{"id":"2395002","latitude":"36.63305560","longitude":"10.28361110","name":"Bordj Admed Za\ufffdd"},{"id":"2395054","latitude":"36.63305560","longitude":"10.28361110","name":"Borj Ahmed Za\ufffdd"},{"id":"2395167","latitude":"36.63305560","longitude":"10.28361110","name":"Burj Ahmad Za'id"},{"id":"2395428","latitude":"36.63861110","longitude":"10.35166670","name":"Dar et Talerzat"},{"id":"2395615","latitude":"36.63861110","longitude":"10.35166670","name":"Dawwar at Talib `Ali"},{"id":"2395809","latitude":"36.56500000","longitude":"10.24750000","name":"Douar Abd el Kader"},{"id":"2395815","latitude":"36.60055560","longitude":"10.28194440","name":"Douar Ali Ben Ahmar"},{"id":"2395854","latitude":"36.57888890","longitude":"10.25666670","name":"Douar Ben Miled"},{"id":"2395862","latitude":"36.60222220","longitude":"10.35694440","name":"Douar Ben Sa\ufffdd"},{"id":"2395872","latitude":"36.58944440","longitude":"10.23527780","name":"Douar Bou Beker"},{"id":"2395881","latitude":"36.53805560","longitude":"10.22333330","name":"Douar Bou Said"},{"id":"2395915","latitude":"36.57083330","longitude":"10.32416670","name":"Douar ech Cherit"},{"id":"2395955","latitude":"36.53666670","longitude":"10.35527780","name":"Douar el Ghezel"},{"id":"2395964","latitude":"36.60222220","longitude":"10.27888890","name":"Douar el Hadj Ahmed"},{"id":"2395968","latitude":"36.59972220","longitude":"10.27222220","name":"Douar el Hadj Djemaa"},{"id":"2395975","latitude":"36.63527780","longitude":"10.35111110","name":"Douar el Hadj Mosbah"},{"id":"2395986","latitude":"36.60222220","longitude":"10.27888890","name":"Douar el Haj Ahmed"},{"id":"2395991","latitude":"36.59972220","longitude":"10.27222220","name":"Douar el Haj Jemaa"},{"id":"2395996","latitude":"36.63527780","longitude":"10.35111110","name":"Douar el Haj Mosbah"},{"id":"2396035","latitude":"36.64638890","longitude":"10.25027780","name":"Douar Ennbaza"},{"id":"2396037","latitude":"36.61916670","longitude":"10.23500000","name":"Douar er Rahmane"},{"id":"2396040","latitude":"36.53666670","longitude":"10.35527780","name":"Douar er Rhezel"},{"id":"2396051","latitude":"36.63861110","longitude":"10.35166670","name":"Douar et Taleb Ali"},{"id":"2396090","latitude":"36.55777780","longitude":"10.24527780","name":"Douar Hamrouna"},{"id":"2396107","latitude":"36.62777780","longitude":"10.23305560","name":"Douar Kenndjel"},{"id":"2396108","latitude":"36.62777780","longitude":"10.23305560","name":"Douar Kennjel"},{"id":"2396113","latitude":"36.60527780","longitude":"10.25027780","name":"Douar Kouider en Noual"},{"id":"2396126","latitude":"36.57166670","longitude":"10.24388890","name":"Douar Mbarek"},{"id":"2396141","latitude":"36.55916670","longitude":"10.25833330","name":"Douar Mohammed Ben Redjeb"},{"id":"2396142","latitude":"36.55916670","longitude":"10.25833330","name":"Douar Mohammed Ben Rejeb"},{"id":"2396147","latitude":"36.60666670","longitude":"10.34527780","name":"Douar Mohammed"},{"id":"2396210","latitude":"36.56861110","longitude":"10.35333330","name":"Douar Salah Ben Khalifa"},{"id":"2396214","latitude":"36.62611110","longitude":"10.35194440","name":"Douar Salem"},{"id":"2396252","latitude":"36.63027780","longitude":"10.23888890","name":"Douar Zouila"},{"id":"2396953","latitude":"36.64555560","longitude":"10.19277780","name":"Khledia"},{"id":"2396962","latitude":"36.64555560","longitude":"10.19277780","name":"Kledia"},{"id":"2397106","latitude":"36.61083330","longitude":"10.32055560","name":"La Laverie"},{"id":"2397474","latitude":"36.53666670","longitude":"10.22638890","name":"Oulad Aissa"}]