[{"id":"2398493","latitude":"37.74527800","longitude":"29.41722200","name":"Abas"},{"id":"2398504","latitude":"37.22527800","longitude":"29.23277800","name":"Abaz"},{"id":"2398508","latitude":"37.22527800","longitude":"29.23277800","name":"Abbas"},{"id":"2398536","latitude":"37.93333300","longitude":"29.00000000","name":"Abdalk\ufffdy"},{"id":"2398688","latitude":"37.85694400","longitude":"28.87222200","name":"Acidere"},{"id":"2398690","latitude":"37.85694400","longitude":"28.87222200","name":"Aciderekoy"},{"id":"2398723","latitude":"37.42611100","longitude":"29.35166700","name":"Acipayam"},{"id":"2398735","latitude":"37.90000000","longitude":"28.90000000","name":"Acisu"},{"id":"2398794","latitude":"37.95000000","longitude":"29.01666700","name":"Adak\ufffdy"},{"id":"2398814","latitude":"37.55000000","longitude":"28.76666700","name":"Adamharmani"},{"id":"2398853","latitude":"38.03333300","longitude":"29.18333300","name":"Adiguzeldamlari"},{"id":"2398919","latitude":"37.20694400","longitude":"29.27277800","name":"Afsar"},{"id":"2399350","latitude":"37.80000000","longitude":"28.83333300","name":"Ahilli"},{"id":"2399457","latitude":"37.98333300","longitude":"28.98333300","name":"Ahmetli"},{"id":"2399539","latitude":"37.37222200","longitude":"29.35583300","name":"Akalan"},{"id":"2399545","latitude":"37.37222200","longitude":"29.35583300","name":"Akalank\ufffdy"},{"id":"2399591","latitude":"37.74527800","longitude":"29.41722200","name":"Akbas"},{"id":"2399844","latitude":"38.05166700","longitude":"29.13305600","name":"Akcapinar"},{"id":"2399955","latitude":"38.34305600","longitude":"29.87527800","name":"Akdag"},{"id":"2399986","latitude":"38.04694400","longitude":"29.24444400","name":"Akdere"},{"id":"2400046","latitude":"37.80000000","longitude":"29.13333300","name":"Akhan"},{"id":"2400048","latitude":"37.80000000","longitude":"29.13333300","name":"Akhank\ufffdy"},{"id":"2400108","latitude":"36.95611100","longitude":"29.33861100","name":"Akkaya"},{"id":"2400135","latitude":"38.15111100","longitude":"29.38166700","name":"Akkent"},{"id":"2400175","latitude":"37.95583300","longitude":"29.07861100","name":"Akk\ufffdy"},{"id":"2400293","latitude":"37.00527800","longitude":"29.14111100","name":"Akpinar"},{"id":"2400378","latitude":"37.20694400","longitude":"29.27277800","name":"Aksar"},{"id":"2400627","latitude":"37.47361100","longitude":"29.31972200","name":"Al\ufffdattin"},{"id":"2400708","latitude":"38.11666700","longitude":"28.86666700","name":"Alacaoglu"},{"id":"2400745","latitude":"37.47361100","longitude":"29.31972200","name":"Al\ufffdettin"},{"id":"2400749","latitude":"37.47361100","longitude":"29.31972200","name":"Alaettink\ufffdy"},{"id":"2400869","latitude":"38.07638900","longitude":"28.65916700","name":"Alandiz"},{"id":"2400913","latitude":"37.34138900","longitude":"28.80500000","name":"Alanyurt"},{"id":"2401004","latitude":"37.13305600","longitude":"29.16750000","name":"Alci"},{"id":"2401057","latitude":"38.11666700","longitude":"29.40000000","name":"Alfaklar"},{"id":"2401206","latitude":"37.84250000","longitude":"29.46000000","name":"Alikurt"},{"id":"2401286","latitude":"37.21222200","longitude":"29.42416700","name":"Aliveren"},{"id":"2401560","latitude":"37.21222200","longitude":"29.42416700","name":"Alviran"},{"id":"2401803","latitude":"37.51666700","longitude":"29.36666700","name":"Apa"},{"id":"2401806","latitude":"37.51666700","longitude":"29.36666700","name":"Apa K\ufffdy"},{"id":"2402002","latitude":"38.01000000","longitude":"29.15000000","name":"Arappinar"},{"id":"2402003","latitude":"38.01000000","longitude":"29.15000000","name":"Arappinar K\ufffdy\ufffd"},{"id":"2402140","latitude":"36.91666700","longitude":"29.18333300","name":"Aribeleni Yaylasi"},{"id":"2402291","latitude":"37.90000000","longitude":"29.61666700","name":"Armutalani"},{"id":"2402303","latitude":"37.48333300","longitude":"28.65000000","name":"Armutcuk"},{"id":"2402707","latitude":"39.43333300","longitude":"29.86666700","name":"Asagi Capak"},{"id":"2402730","latitude":"38.22888900","longitude":"29.08722200","name":"Asagicesme"},{"id":"2402764","latitude":"37.81083300","longitude":"29.39722200","name":"Asagidagdere"},{"id":"2402803","latitude":"37.38333300","longitude":"29.55000000","name":"Asagidodurga"},{"id":"2402881","latitude":"37.55055600","longitude":"28.63694400","name":"Asagigorle"},{"id":"2402929","latitude":"38.18333300","longitude":"29.01666700","name":"Asagi Haylamaz"},{"id":"2403009","latitude":"37.68583300","longitude":"29.41805600","name":"Asagikaracay"},{"id":"2403019","latitude":"37.95000000","longitude":"29.08333300","name":"Asagi Karahayit"},{"id":"2403276","latitude":"37.90000000","longitude":"29.03333300","name":"Asagisamli"},{"id":"2403311","latitude":"38.06472200","longitude":"29.47222200","name":"Asagiseyit"},{"id":"2403387","latitude":"37.38333300","longitude":"29.55000000","name":"Asagi Todurga"},{"id":"2403485","latitude":"37.83666700","longitude":"28.80972200","name":"Asar"},{"id":"2403491","latitude":"37.33333300","longitude":"29.30000000","name":"Asarci"},{"id":"2403909","latitude":"37.58222200","longitude":"28.79305600","name":"Avdan"},{"id":"2404026","latitude":"37.55000000","longitude":"29.45000000","name":"Avsarkoyu"},{"id":"2404102","latitude":"37.58333300","longitude":"29.35000000","name":"Ayaz"},{"id":"2404108","latitude":"37.58333300","longitude":"29.35000000","name":"Ayazk\ufffdy"},{"id":"2404198","latitude":"38.16666700","longitude":"28.95000000","name":"Aydogan"},{"id":"2404210","latitude":"37.50000000","longitude":"29.16666700","name":"Aydogdu"},{"id":"2404380","latitude":"37.91666700","longitude":"29.45000000","name":"Ayvacik"},{"id":"2404439","latitude":"37.73333300","longitude":"29.76666700","name":"Ayvaz"},{"id":"2404523","latitude":"37.80277800","longitude":"28.87388900","name":"Babadag"},{"id":"2404652","latitude":"37.41500000","longitude":"29.53972200","name":"Bademli"},{"id":"2404709","latitude":"37.73333300","longitude":"29.15000000","name":"Bagbasi"},{"id":"2404891","latitude":"38.22388900","longitude":"28.76694400","name":"Bahadirlar"},{"id":"2404893","latitude":"38.22388900","longitude":"28.76694400","name":"Bahadirli"},{"id":"2404897","latitude":"38.20000000","longitude":"29.31666700","name":"Bahaettinler"},{"id":"2404905","latitude":"37.43333300","longitude":"28.95000000","name":"Baharlar"},{"id":"2404919","latitude":"37.35972200","longitude":"29.13666700","name":"Bah\ufffdak\ufffdy"},{"id":"2404927","latitude":"37.35972200","longitude":"29.13666700","name":"Bah\ufffde"},{"id":"2404983","latitude":"37.35972200","longitude":"29.13666700","name":"Bah\ufffdek\ufffdy"},{"id":"2405183","latitude":"37.97694400","longitude":"29.60861100","name":"Baklan"},{"id":"2405186","latitude":"37.94527800","longitude":"29.30972200","name":"Baklancakirlar"},{"id":"2405187","latitude":"37.89194400","longitude":"29.54194400","name":"Baklankuyucak"},{"id":"2405308","latitude":"37.15000000","longitude":"29.13333300","name":"Balcidere"},{"id":"2405315","latitude":"38.30000000","longitude":"29.80000000","name":"Balcikhisar"},{"id":"2405368","latitude":"37.32416700","longitude":"29.09888900","name":"Balikci"},{"id":"2405440","latitude":"37.32416700","longitude":"29.09888900","name":"Balkica"},{"id":"2405773","latitude":"37.83333300","longitude":"29.56666700","name":"Bascesme"},{"id":"2406037","latitude":"37.42611100","longitude":"29.35166700","name":"Batikaraagac"},{"id":"2406111","latitude":"38.16861100","longitude":"29.82083300","name":"Bayat"},{"id":"2406180","latitude":"37.97194400","longitude":"29.37083300","name":"Bayiralan"},{"id":"2406408","latitude":"37.35000000","longitude":"29.45000000","name":"Bedirbey"},{"id":"2406520","latitude":"38.23194400","longitude":"29.42166700","name":"Bekilli"},{"id":"2406532","latitude":"39.20000000","longitude":"29.78000000","name":"Bekirler"},{"id":"2406537","latitude":"38.19361100","longitude":"29.77972200","name":"Bekirli"},{"id":"2406651","latitude":"38.05194400","longitude":"29.06527800","name":"Belenardic"},{"id":"2406670","latitude":"38.40638900","longitude":"29.82722200","name":"Belence"},{"id":"2406713","latitude":"37.08333300","longitude":"29.36666700","name":"Belevi"},{"id":"2406865","latitude":"37.18333300","longitude":"29.20000000","name":"Benlik"},{"id":"2406914","latitude":"37.76666700","longitude":"29.03333300","name":"Bereketler"},{"id":"2406917","latitude":"37.40000000","longitude":"29.06666700","name":"Bereketli"},{"id":"2407005","latitude":"38.08333300","longitude":"28.70000000","name":"Bescam"},{"id":"2407152","latitude":"37.23638900","longitude":"28.89555600","name":"Beyagac"},{"id":"2407230","latitude":"38.27416700","longitude":"29.92250000","name":"Beydilli"},{"id":"2407241","latitude":"38.12472200","longitude":"29.58027800","name":"Beyelli"},{"id":"2407245","latitude":"38.12472200","longitude":"29.58027800","name":"Beyerli"},{"id":"2407267","latitude":"39.20000000","longitude":"29.90000000","name":"Beyk\ufffdy"},{"id":"2407297","latitude":"37.88055600","longitude":"28.97944400","name":"Beylerbeyi"},{"id":"2407311","latitude":"37.70000000","longitude":"29.65000000","name":"Beylerli"},{"id":"2407458","latitude":"37.01666700","longitude":"29.31666700","name":"Bicakci"},{"id":"2407887","latitude":"38.20000000","longitude":"28.85000000","name":"Bogazciftligi"},{"id":"2407895","latitude":"37.93277800","longitude":"29.53500000","name":"Bogazici"},{"id":"2408006","latitude":"38.04500000","longitude":"28.83055600","name":"Boldan"},{"id":"2408019","latitude":"38.02027800","longitude":"28.89111100","name":"B\ufffdlmekaya"},{"id":"2408087","latitude":"37.40000000","longitude":"28.91666700","name":"B\ufffdren"},{"id":"2408232","latitude":"36.98333300","longitude":"29.13333300","name":"Boyali"},{"id":"2408319","latitude":"36.95000000","longitude":"29.23333300","name":"Bozalan"},{"id":"2408385","latitude":"38.09861100","longitude":"29.82666700","name":"Bozdag"},{"id":"2408387","latitude":"38.09861100","longitude":"29.82666700","name":"Bozdag Koyu"},{"id":"2408390","latitude":"36.95000000","longitude":"29.23333300","name":"Bozdegne"},{"id":"2408455","latitude":"37.82416700","longitude":"29.60972200","name":"Bozkurt"},{"id":"2408498","latitude":"37.03333300","longitude":"29.18333300","name":"Boztarla"},{"id":"2408535","latitude":"36.97833300","longitude":"29.20277800","name":"Bozyaka"},{"id":"2408571","latitude":"38.25000000","longitude":"29.85000000","name":"Bucak"},{"id":"2408732","latitude":"38.22250000","longitude":"29.47972200","name":"B\ufffdkr\ufffdce"},{"id":"2408785","latitude":"38.04500000","longitude":"28.83055600","name":"Buldan"},{"id":"2408820","latitude":"39.40000000","longitude":"29.70000000","name":"Bulkaz"},{"id":"2409313","latitude":"37.40583300","longitude":"29.13444400","name":"B\ufffdy\ufffdkkonak"},{"id":"2409536","latitude":"39.40000000","longitude":"29.75000000","name":"Cabar"},{"id":"2409537","latitude":"39.40000000","longitude":"29.75000000","name":"Cabardamlari"},{"id":"2409545","latitude":"37.93333300","longitude":"29.00000000","name":"Caber"},{"id":"2409549","latitude":"37.93333300","longitude":"29.00000000","name":"Caberk\ufffdy"},{"id":"2409592","latitude":"37.93333300","longitude":"29.00000000","name":"Cafer"},{"id":"2409622","latitude":"37.31666700","longitude":"29.03333300","name":"Cagirgan"},{"id":"2409681","latitude":"38.36666700","longitude":"29.85000000","name":"\ufffdakal"},{"id":"2409696","latitude":"38.13361100","longitude":"28.91416700","name":"\ufffdakallar"},{"id":"2409769","latitude":"37.43333300","longitude":"28.75000000","name":"Cakirbagi"},{"id":"2409780","latitude":"37.29194400","longitude":"29.34416700","name":"Cakir"},{"id":"2409806","latitude":"37.29194400","longitude":"29.34416700","name":"Cakirkoy"},{"id":"2409810","latitude":"38.19111100","longitude":"29.31694400","name":"Cakirlar"},{"id":"2409854","latitude":"37.78333300","longitude":"29.03333300","name":"\ufffdakmak"},{"id":"2409895","latitude":"36.95000000","longitude":"29.33333300","name":"Caksirlar"},{"id":"2409926","latitude":"37.94527800","longitude":"29.30972200","name":"Calcakirlar"},{"id":"2409931","latitude":"38.08361100","longitude":"29.39888900","name":"\ufffdal"},{"id":"2409971","latitude":"37.58333300","longitude":"28.93333300","name":"Cali"},{"id":"2409989","latitude":"37.58333300","longitude":"28.93333300","name":"Calikoy"},{"id":"2410031","latitude":"37.93277800","longitude":"29.53500000","name":"\ufffdalkebir"},{"id":"2410081","latitude":"37.74527800","longitude":"29.72583300","name":"Calti"},{"id":"2410140","latitude":"37.76111100","longitude":"29.51722200","name":"Cambasi"},{"id":"2410188","latitude":"37.07611100","longitude":"29.34472200","name":"\ufffdameli"},{"id":"2410248","latitude":"38.30000000","longitude":"29.38333300","name":"\ufffdamk\ufffdy"},{"id":"2410364","latitude":"38.23333300","longitude":"29.00000000","name":"\ufffdamrak"},{"id":"2410610","latitude":"38.42944400","longitude":"29.86861100","name":"\ufffdapak"},{"id":"2410653","latitude":"37.82694400","longitude":"29.66833300","name":"\ufffdardak"},{"id":"2410671","latitude":"37.82694400","longitude":"29.66833300","name":"\ufffdardakk\ufffdy\ufffd"},{"id":"2410777","latitude":"38.00277800","longitude":"28.77055600","name":"\ufffdatak"},{"id":"2410914","latitude":"37.93333300","longitude":"29.53333300","name":"\ufffdataloba"},{"id":"2411281","latitude":"37.31666700","longitude":"29.03333300","name":"Cayirgan"},{"id":"2411664","latitude":"37.86666700","longitude":"29.10000000","name":"\ufffdeltik\ufffdi"},{"id":"2412002","latitude":"37.98333300","longitude":"29.06666700","name":"Cesmebasi"},{"id":"2412423","latitude":"37.55944400","longitude":"28.96361100","name":"\ufffdiftlik"},{"id":"2412462","latitude":"37.55944400","longitude":"28.96361100","name":"\ufffdiftlikk\ufffdy"},{"id":"2412607","latitude":"37.48333300","longitude":"28.85000000","name":"Cikrikcikarakoy"},{"id":"2412837","latitude":"38.10722200","longitude":"29.06305600","name":"\ufffdindere"},{"id":"2412840","latitude":"38.10722200","longitude":"29.06305600","name":"\ufffdindire"},{"id":"2413016","latitude":"38.13555600","longitude":"29.64694400","name":"Citak"},{"id":"2413090","latitude":"38.30138900","longitude":"29.73861100","name":"\ufffdivril"},{"id":"2413197","latitude":"38.23833300","longitude":"29.34416700","name":"Cogasli"},{"id":"2413367","latitude":"37.81666700","longitude":"29.23333300","name":"Comleksaz Ciftligi"},{"id":"2413368","latitude":"37.81666700","longitude":"29.23333300","name":"\ufffd\ufffdmleksaz"},{"id":"2413416","latitude":"38.25000000","longitude":"29.75000000","name":"\ufffd\ufffdpl\ufffd"},{"id":"2413511","latitude":"37.48333300","longitude":"29.48333300","name":"\ufffdorum"},{"id":"2413515","latitude":"37.48333300","longitude":"29.48333300","name":"\ufffdorumk\ufffdy"},{"id":"2413524","latitude":"38.26666700","longitude":"29.93333300","name":"\ufffd\ufffdtel"},{"id":"2413555","latitude":"37.36666700","longitude":"29.28333300","name":"\ufffdubuk\ufffdular"},{"id":"2413716","latitude":"37.68500000","longitude":"29.21694400","name":"\ufffdukurk\ufffdy"},{"id":"2413819","latitude":"37.15000000","longitude":"29.38333300","name":"Cumaalani"},{"id":"2413835","latitude":"37.74944400","longitude":"29.56222200","name":"Cumali"},{"id":"2413851","latitude":"37.07611100","longitude":"29.34472200","name":"Cumayani"},{"id":"2413954","latitude":"38.01055600","longitude":"29.61500000","name":"Dagal"},{"id":"2414061","latitude":"38.11250000","longitude":"29.21444400","name":"Dagmarmara"},{"id":"2414114","latitude":"37.95000000","longitude":"28.91666700","name":"Dailli"},{"id":"2414403","latitude":"37.30222200","longitude":"28.78250000","name":"Daricik"},{"id":"2414435","latitude":"37.26666700","longitude":"29.46666700","name":"Dariveren"},{"id":"2414531","latitude":"38.08305600","longitude":"29.52194400","name":"Dayilar"},{"id":"2414573","latitude":"37.29833300","longitude":"29.44444400","name":"Dedebagi"},{"id":"2414599","latitude":"37.97694400","longitude":"29.60861100","name":"Dedek\ufffdy"},{"id":"2414641","latitude":"37.29833300","longitude":"29.44444400","name":"Dedesil"},{"id":"2414949","latitude":"38.03805600","longitude":"29.74472200","name":"Demirci"},{"id":"2414978","latitude":"38.08361100","longitude":"29.39888900","name":"Demircik\ufffdy"},{"id":"2415172","latitude":"37.83333300","longitude":"28.96666700","name":"Denevre"},{"id":"2415180","latitude":"37.77416700","longitude":"29.08750000","name":"Denisli"},{"id":"2415181","latitude":"37.77416700","longitude":"29.08750000","name":"Denisl\ufffd"},{"id":"2415204","latitude":"37.94083300","longitude":"29.47416700","name":"Denizler"},{"id":"2415206","latitude":"37.77416700","longitude":"29.08750000","name":"Denizli"},{"id":"2415211","latitude":"37.77416700","longitude":"29.08750000","name":"Denizlu"},{"id":"2415242","latitude":"38.13333300","longitude":"28.86666700","name":"Derbent"},{"id":"2415290","latitude":"37.23333300","longitude":"28.91666700","name":"Derebasi"},{"id":"2415436","latitude":"37.41666700","longitude":"29.50000000","name":"Derek\ufffdy"},{"id":"2415610","latitude":"37.28333300","longitude":"29.05000000","name":"Derinkuyu"},{"id":"2415613","latitude":"37.28333300","longitude":"29.05000000","name":"Derinkuyuk\ufffdy"},{"id":"2415685","latitude":"38.26000000","longitude":"29.36000000","name":"Desdemir"},{"id":"2415708","latitude":"38.26000000","longitude":"29.36000000","name":"Destemir"},{"id":"2415741","latitude":"38.01666700","longitude":"29.65000000","name":"Deveciler"},{"id":"2415766","latitude":"38.15500000","longitude":"29.30194400","name":"Develer"},{"id":"2415770","latitude":"37.93333300","longitude":"29.11666700","name":"Develi"},{"id":"2416036","latitude":"38.08333300","longitude":"28.83333300","name":"Dimbazlar"},{"id":"2416135","latitude":"38.10000000","longitude":"28.96666700","name":"Direbol"},{"id":"2416201","latitude":"37.33333300","longitude":"28.81666700","name":"Dirlisin"},{"id":"2416342","latitude":"38.01055600","longitude":"29.61500000","name":"Dogal"},{"id":"2416454","latitude":"38.13333300","longitude":"29.15000000","name":"Doganli"},{"id":"2416879","latitude":"37.90000000","longitude":"28.95000000","name":"Duacili"},{"id":"2416958","latitude":"38.18333300","longitude":"30.03333300","name":"Duman"},{"id":"2417203","latitude":"37.85000000","longitude":"29.63333300","name":"Dutluca"},{"id":"2417372","latitude":"37.52777800","longitude":"28.86388900","name":"Ebecik"},{"id":"2417423","latitude":"37.91583300","longitude":"29.11277800","name":"Ecirli"},{"id":"2417592","latitude":"38.03333300","longitude":"28.73333300","name":"Egridere"},{"id":"2417597","latitude":"38.03333300","longitude":"28.73333300","name":"Egridere Koyu"},{"id":"2417748","latitude":"38.25000000","longitude":"29.48333300","name":"Ekse"},{"id":"2417819","latitude":"37.86666700","longitude":"29.20000000","name":"Eldenizli"},{"id":"2417827","latitude":"38.02027800","longitude":"28.89111100","name":"Eldirek"},{"id":"2418036","latitude":"37.00000000","longitude":"29.23333300","name":"Emecik"},{"id":"2418085","latitude":"37.76666700","longitude":"29.25000000","name":"Emirazizli"},{"id":"2418090","latitude":"38.28333300","longitude":"29.80000000","name":"Emircik"},{"id":"2418588","latitude":"38.07472200","longitude":"29.03111100","name":"Ertugrul"},{"id":"2418686","latitude":"37.38972200","longitude":"28.67472200","name":"Esenkaya"},{"id":"2418781","latitude":"37.21666700","longitude":"28.95000000","name":"Eskere"},{"id":"2418873","latitude":"37.81666700","longitude":"29.11666700","name":"Eskihisar"},{"id":"2418912","latitude":"39.20000000","longitude":"29.33333300","name":"Eskik\ufffdy"},{"id":"2419118","latitude":"37.41666700","longitude":"29.33333300","name":"Evkara"},{"id":"2419262","latitude":"38.19583300","longitude":"28.94916700","name":"Eziler"},{"id":"2419837","latitude":"37.42611100","longitude":"29.35166700","name":"Garbi Karaagac"},{"id":"2419855","latitude":"37.46666700","longitude":"29.01666700","name":"Garip"},{"id":"2419858","latitude":"37.46666700","longitude":"29.01666700","name":"Garipk\ufffdy"},{"id":"2419977","latitude":"37.78333300","longitude":"28.95000000","name":"Gebedere"},{"id":"2420284","latitude":"37.77194400","longitude":"29.82472200","name":"Gemi\ufffd"},{"id":"2420291","latitude":"37.77194400","longitude":"29.82472200","name":"Gemi\ufffdk\ufffdy\ufffd"},{"id":"2420301","latitude":"37.77194400","longitude":"29.82472200","name":"Gemiskoyu"},{"id":"2420334","latitude":"38.21666700","longitude":"29.85000000","name":"Gencelli"},{"id":"2420335","latitude":"38.21666700","longitude":"29.85000000","name":"Gencerli"},{"id":"2420365","latitude":"38.21666700","longitude":"29.85000000","name":"Gengerli"},{"id":"2420416","latitude":"37.90000000","longitude":"28.91666700","name":"Gereli"},{"id":"2420532","latitude":"37.75000000","longitude":"29.05000000","name":"Gerzile"},{"id":"2420558","latitude":"38.11666700","longitude":"29.21666700","name":"Geveze"},{"id":"2420694","latitude":"37.16666700","longitude":"29.40000000","name":"Ginikyeri"},{"id":"2421398","latitude":"37.17388900","longitude":"29.24861100","name":"G\ufffdlc\ufffdk"},{"id":"2421445","latitude":"38.00000000","longitude":"29.05000000","name":"G\ufffdlemezli"},{"id":"2421625","latitude":"38.22416700","longitude":"29.53472200","name":"G\ufffdmce"},{"id":"2421791","latitude":"37.79611100","longitude":"28.98138900","name":"G\ufffdve\ufffdlik"},{"id":"2421903","latitude":"38.12305600","longitude":"29.15500000","name":"G\ufffdzler"},{"id":"2422242","latitude":"37.30000000","longitude":"29.61666700","name":"Guluman"},{"id":"2422302","latitude":"37.80000000","longitude":"29.08333300","name":"Gumuscay"},{"id":"2422326","latitude":"37.35000000","longitude":"29.56666700","name":"Gumus"},{"id":"2422374","latitude":"38.23333300","longitude":"30.01666700","name":"Gumussu"},{"id":"2422411","latitude":"38.15444400","longitude":"29.06777800","name":"G\ufffdnay"},{"id":"2422619","latitude":"37.23333300","longitude":"29.25000000","name":"G\ufffdney"},{"id":"2422854","latitude":"37.46666700","longitude":"29.01666700","name":"G\ufffdrip"},{"id":"2422885","latitude":"38.41527800","longitude":"29.70222200","name":"Gurpinar"},{"id":"2422941","latitude":"37.79611100","longitude":"28.98138900","name":"G\ufffdve\ufffdlik"},{"id":"2423089","latitude":"37.97972200","longitude":"29.21722200","name":"Guzelpinar"},{"id":"2423091","latitude":"37.97972200","longitude":"29.21722200","name":"Guzelpinarkoy"},{"id":"2423350","latitude":"37.41694400","longitude":"28.78222200","name":"Hacidurmuslar"},{"id":"2423353","latitude":"37.83166700","longitude":"29.02638900","name":"Hacieyublu"},{"id":"2423355","latitude":"37.83166700","longitude":"29.02638900","name":"Hacieyuplu"},{"id":"2423481","latitude":"37.16666700","longitude":"29.31666700","name":"Hacikurtlar"},{"id":"2423558","latitude":"36.97111100","longitude":"29.32388900","name":"Hacimehmet"},{"id":"2423749","latitude":"38.06555600","longitude":"29.59972200","name":"Hadim"},{"id":"2424079","latitude":"37.82416700","longitude":"29.60972200","name":"Hamidiye"},{"id":"2424223","latitude":"38.12361100","longitude":"29.39500000","name":"Han\ufffdalar"},{"id":"2424705","latitude":"38.13333300","longitude":"28.76666700","name":"Hasanbeyler"},{"id":"2424880","latitude":"37.93333300","longitude":"28.90000000","name":"Hask\ufffdy"},{"id":"2425076","latitude":"38.30000000","longitude":"29.78000000","name":"Haydancedit"},{"id":"2425078","latitude":"38.30000000","longitude":"29.78000000","name":"Haydan"},{"id":"2425173","latitude":"37.93333300","longitude":"29.66666700","name":"Hayrettin"},{"id":"2425187","latitude":"38.00250000","longitude":"29.11722200","name":"Haytabey"},{"id":"2425666","latitude":"37.46750000","longitude":"28.91055600","name":"Hirka"},{"id":"2425669","latitude":"37.46750000","longitude":"28.91055600","name":"Hirkakoy"},{"id":"2425732","latitude":"37.17166700","longitude":"29.15305600","name":"Hisar"},{"id":"2425949","latitude":"38.23333300","longitude":"30.01666700","name":"Homa"},{"id":"2425962","latitude":"37.75444400","longitude":"29.26888900","name":"Honaz"},{"id":"2426000","latitude":"37.41583300","longitude":"29.06194400","name":"Horasanli"},{"id":"2426070","latitude":"37.12972200","longitude":"29.26388900","name":"Hortma"},{"id":"2426308","latitude":"38.11666700","longitude":"28.75000000","name":"H\ufffdsamlar"},{"id":"2426315","latitude":"37.81666700","longitude":"29.33333300","name":"Huseyinaga Ciftligi"},{"id":"2426510","latitude":"37.96666700","longitude":"29.71666700","name":"Icadiye"},{"id":"2426523","latitude":"38.05250000","longitude":"29.56083300","name":"Icikli"},{"id":"2426605","latitude":"38.31666700","longitude":"29.75000000","name":"Igdir"},{"id":"2426714","latitude":"38.25916700","longitude":"29.55527800","name":"Ikizbaba"},{"id":"2426782","latitude":"37.78333300","longitude":"29.08333300","name":"Ilbadi"},{"id":"2427013","latitude":"37.10805600","longitude":"29.39361100","name":"Imamlar"},{"id":"2427068","latitude":"39.18333300","longitude":"29.56666700","name":"Imralli"},{"id":"2427169","latitude":"38.24916700","longitude":"29.78416700","name":"Ince"},{"id":"2427170","latitude":"37.51666700","longitude":"28.63333300","name":"Inceiz"},{"id":"2427178","latitude":"38.24916700","longitude":"29.78416700","name":"Incekoy"},{"id":"2427181","latitude":"37.71138900","longitude":"29.57888900","name":"Inceler"},{"id":"2427185","latitude":"37.68333300","longitude":"29.61666700","name":"Incelertekkekoy"},{"id":"2427186","latitude":"37.68333300","longitude":"29.61666700","name":"Incelertekkesi"},{"id":"2427272","latitude":"37.81666700","longitude":"28.83333300","name":"Incirpinar"},{"id":"2427444","latitude":"38.17111100","longitude":"29.92194400","name":"Irgilli"},{"id":"2427464","latitude":"37.88333300","longitude":"29.20000000","name":"Irlaganli"},{"id":"2427466","latitude":"37.88333300","longitude":"29.20000000","name":"Irliganli"},{"id":"2427501","latitude":"38.00000000","longitude":"29.45000000","name":"Isabey"},{"id":"2427526","latitude":"38.19972200","longitude":"30.01333300","name":"Isakli"},{"id":"2427577","latitude":"38.35000000","longitude":"29.38333300","name":"Ishaklar"},{"id":"2427582","latitude":"38.19972200","longitude":"30.01333300","name":"Ishakli"},{"id":"2427644","latitude":"38.32333300","longitude":"29.84694400","name":"Isikli"},{"id":"2427899","latitude":"38.31666700","longitude":"29.75000000","name":"Iydir"},{"id":"2427956","latitude":"37.93083300","longitude":"28.75722200","name":"Kabaagac"},{"id":"2428060","latitude":"38.11666700","longitude":"29.28333300","name":"Kabalar"},{"id":"2428191","latitude":"37.80277800","longitude":"28.87388900","name":"Kadikoy"},{"id":"2428398","latitude":"37.81666700","longitude":"29.43333300","name":"Kaklik"},{"id":"2428399","latitude":"37.81666700","longitude":"29.43333300","name":"Kaklik Koy"},{"id":"2428433","latitude":"37.13333300","longitude":"29.43333300","name":"Kalaklar"},{"id":"2428552","latitude":"37.43916700","longitude":"28.84527800","name":"Kale"},{"id":"2428578","latitude":"37.80000000","longitude":"29.18333300","name":"Kale K\ufffdy"},{"id":"2428675","latitude":"37.13555600","longitude":"29.32138900","name":"Kalinkoz"},{"id":"2429138","latitude":"37.28027800","longitude":"28.89944400","name":"Kapiz"},{"id":"2429154","latitude":"38.04916700","longitude":"29.31611100","name":"Kaplanlar"},{"id":"2429381","latitude":"36.93305600","longitude":"29.15944400","name":"Karabayir"},{"id":"2429986","latitude":"37.54500000","longitude":"28.71500000","name":"Karag\ufffdl"},{"id":"2429994","latitude":"37.54500000","longitude":"28.71500000","name":"Karag\ufffdlk\ufffdy"},{"id":"2429995","latitude":"37.54500000","longitude":"28.71500000","name":"Karag\ufffdl K\ufffdy\ufffd"},{"id":"2430040","latitude":"38.10694400","longitude":"29.73694400","name":"Karahacili"},{"id":"2430092","latitude":"37.80000000","longitude":"29.03333300","name":"Karahasanli"},{"id":"2430115","latitude":"37.61083300","longitude":"28.95305600","name":"Karahisar"},{"id":"2430142","latitude":"37.55000000","longitude":"29.45000000","name":"Karahuyuk Afsari"},{"id":"2430143","latitude":"37.55000000","longitude":"29.45000000","name":"Karahuyukafsar"},{"id":"2430146","latitude":"37.50722200","longitude":"29.40416700","name":"Karah\ufffdy\ufffdk"},{"id":"2430158","latitude":"37.50722200","longitude":"29.40416700","name":"Karah\ufffdy\ufffdkk\ufffdy"},{"id":"2430160","latitude":"37.50722200","longitude":"29.40416700","name":"Karah\ufffdy\ufffdk K\ufffdy\ufffd"},{"id":"2430224","latitude":"38.03500000","longitude":"29.29833300","name":"Karakaya"},{"id":"2430295","latitude":"37.93333300","longitude":"28.85555600","name":"Karakiran"},{"id":"2430361","latitude":"37.85777800","longitude":"29.10500000","name":"Karakova"},{"id":"2430376","latitude":"37.50083300","longitude":"28.83888900","name":"Karak\ufffdy"},{"id":"2430405","latitude":"36.96611100","longitude":"29.13250000","name":"Karakozluk"},{"id":"2430415","latitude":"37.76666700","longitude":"29.15000000","name":"Karakurt"},{"id":"2430470","latitude":"36.96611100","longitude":"29.13250000","name":"Karakuzluk"},{"id":"2430530","latitude":"37.07611100","longitude":"29.34472200","name":"Karaman"},{"id":"2430552","latitude":"38.25000000","longitude":"29.81666700","name":"Karamanli"},{"id":"2430586","latitude":"37.35000000","longitude":"29.03333300","name":"Karamihli"},{"id":"2430865","latitude":"37.66666700","longitude":"29.18333300","name":"Karatas"},{"id":"2430896","latitude":"37.75000000","longitude":"29.25000000","name":"Karateke"},{"id":"2430971","latitude":"38.22027800","longitude":"29.72916700","name":"Karayahsilar"},{"id":"2430996","latitude":"37.35611100","longitude":"28.96361100","name":"Karayayla"},{"id":"2431056","latitude":"37.76666700","longitude":"29.00000000","name":"Karci"},{"id":"2431290","latitude":"36.95000000","longitude":"29.30000000","name":"Karpak"},{"id":"2431450","latitude":"38.10000000","longitude":"28.71666700","name":"Kasikci"},{"id":"2431649","latitude":"38.39083300","longitude":"29.93277800","name":"Kavakalani"},{"id":"2431652","latitude":"38.39083300","longitude":"29.93277800","name":"Kavakalan"},{"id":"2431655","latitude":"38.39083300","longitude":"29.93277800","name":"Kavakalan Mahallesi"},{"id":"2431659","latitude":"37.95000000","longitude":"29.08333300","name":"Kavakbasi"},{"id":"2431686","latitude":"38.15000000","longitude":"29.63333300","name":"Kavak"},{"id":"2431710","latitude":"38.15000000","longitude":"29.63333300","name":"Kavakk\ufffdy"},{"id":"2431725","latitude":"38.13333300","longitude":"29.56666700","name":"Kavaklar"},{"id":"2431745","latitude":"38.13333300","longitude":"29.56666700","name":"Kavakli"},{"id":"2431890","latitude":"37.31583300","longitude":"28.85805600","name":"Kayabasi"},{"id":"2431930","latitude":"37.26666700","longitude":"28.98333300","name":"Kayaca"},{"id":"2432048","latitude":"38.36305600","longitude":"29.04055600","name":"Kayali"},{"id":"2432092","latitude":"37.61638900","longitude":"28.78555600","name":"Kayapinar"},{"id":"2432106","latitude":"37.61638900","longitude":"28.78555600","name":"Kayapinarkoy"},{"id":"2432137","latitude":"37.80000000","longitude":"29.05000000","name":"Kayi"},{"id":"2432444","latitude":"37.33333300","longitude":"28.75000000","name":"Ke\ufffdeliler"},{"id":"2432653","latitude":"37.23583300","longitude":"29.30500000","name":"Kelekci"},{"id":"2432712","latitude":"38.25000000","longitude":"29.05000000","name":"Kelikli"},{"id":"2432722","latitude":"37.23583300","longitude":"29.30500000","name":"Kelkelci"},{"id":"2432731","latitude":"37.80000000","longitude":"28.91666700","name":"Kelleci"},{"id":"2432732","latitude":"37.80000000","longitude":"28.91666700","name":"Kellecik\ufffdy"},{"id":"2433014","latitude":"38.22611100","longitude":"29.02111100","name":"Kerimler"},{"id":"2433275","latitude":"37.11666700","longitude":"29.11666700","name":"Ketenbeleni"},{"id":"2433886","latitude":"37.21222200","longitude":"29.42416700","name":"Killik"},{"id":"2433973","latitude":"37.73333300","longitude":"29.10000000","name":"Kinikli"},{"id":"2434002","latitude":"38.11666700","longitude":"29.65000000","name":"Kiralan"},{"id":"2434005","latitude":"37.23333300","longitude":"28.83333300","name":"Kiral"},{"id":"2434015","latitude":"38.16666700","longitude":"28.83333300","name":"Kirandamlari"},{"id":"2434059","latitude":"37.80000000","longitude":"28.83333300","name":"Kiranyer"},{"id":"2434112","latitude":"37.61666700","longitude":"28.83333300","name":"Kirbacli"},{"id":"2434128","latitude":"37.46666700","longitude":"29.35000000","name":"Kirca"},{"id":"2434132","latitude":"37.46666700","longitude":"29.35000000","name":"Kircakoy"},{"id":"2434367","latitude":"37.56666700","longitude":"28.75000000","name":"Kirkoy"},{"id":"2434401","latitude":"38.35000000","longitude":"29.43333300","name":"Kirkyeren"},{"id":"2434736","latitude":"36.96666700","longitude":"29.26666700","name":"Kizilagac"},{"id":"2434786","latitude":"37.61416700","longitude":"29.01527800","name":"Kizilcaboluk"},{"id":"2434825","latitude":"37.23333300","longitude":"28.86666700","name":"Kizilca"},{"id":"2434850","latitude":"37.48333300","longitude":"29.15000000","name":"Kizilcakoy"},{"id":"2434892","latitude":"38.28333300","longitude":"29.75000000","name":"Kizilcasogut"},{"id":"2434948","latitude":"37.97000000","longitude":"28.80500000","name":"Kizildere"},{"id":"2434987","latitude":"37.58083300","longitude":"29.26194400","name":"Kizilhisar"},{"id":"2435018","latitude":"36.93333300","longitude":"29.33333300","name":"Kizilkaya"},{"id":"2435027","latitude":"36.93333300","longitude":"29.33333300","name":"Kizilkaya Koyleri"},{"id":"2435065","latitude":"37.81666700","longitude":"28.96666700","name":"Kizilkoy"},{"id":"2435211","latitude":"37.03333300","longitude":"29.36666700","name":"Kizilyaka"},{"id":"2435220","latitude":"37.76666700","longitude":"29.35000000","name":"Kizilyer"},{"id":"2435222","latitude":"37.76666700","longitude":"29.35000000","name":"Kizilyerkoy"},{"id":"2435244","latitude":"36.91666700","longitude":"29.13333300","name":"Kizlan"},{"id":"2435315","latitude":"37.80722200","longitude":"29.32611100","name":"Kocabas"},{"id":"2435316","latitude":"37.80722200","longitude":"29.32611100","name":"Kocabaskoy"},{"id":"2435342","latitude":"37.85000000","longitude":"29.21666700","name":"Kocadere"},{"id":"2435344","latitude":"37.85000000","longitude":"29.21666700","name":"Kocaderek\ufffdy"},{"id":"2435374","latitude":"38.32111100","longitude":"29.77083300","name":"Ko\ufffdak"},{"id":"2435394","latitude":"38.13444400","longitude":"29.47027800","name":"Kocak\ufffdy"},{"id":"2435474","latitude":"38.25027800","longitude":"29.65472200","name":"Kocayaka"},{"id":"2435681","latitude":"37.33333300","longitude":"29.40000000","name":"K\ufffdke"},{"id":"2435683","latitude":"37.33333300","longitude":"29.40000000","name":"K\ufffdkek\ufffdy"},{"id":"2435731","latitude":"37.07277800","longitude":"29.20527800","name":"Kolak"},{"id":"2435931","latitude":"37.40583300","longitude":"29.13444400","name":"Konak"},{"id":"2435952","latitude":"38.03972200","longitude":"29.58694400","name":"Konakli"},{"id":"2436060","latitude":"37.80138900","longitude":"29.21166700","name":"Konyalilar"},{"id":"2436065","latitude":"38.21666700","longitude":"28.95000000","name":"Koparan"},{"id":"2436133","latitude":"38.20000000","longitude":"29.21666700","name":"K\ufffdpr\ufffd"},{"id":"2436138","latitude":"38.20000000","longitude":"29.21666700","name":"K\ufffdpr\ufffdk\ufffdy"},{"id":"2436369","latitude":"37.83333300","longitude":"29.15000000","name":"Korucuk"},{"id":"2436558","latitude":"38.31666700","longitude":"29.40000000","name":"K\ufffdselli"},{"id":"2436657","latitude":"37.73333300","longitude":"29.36666700","name":"K\ufffdsten"},{"id":"2436764","latitude":"38.05805600","longitude":"28.73805600","name":"Kovanoluk"},{"id":"2436825","latitude":"37.80138900","longitude":"29.21166700","name":"Koyunaliler"},{"id":"2436895","latitude":"37.43333300","longitude":"28.70000000","name":"Kozagaci"},{"id":"2436992","latitude":"37.25138900","longitude":"29.01777800","name":"Kozlar"},{"id":"2437074","latitude":"37.23333300","longitude":"29.33333300","name":"Kozveren"},{"id":"2437227","latitude":"37.90000000","longitude":"29.16666700","name":"K\ufffd\ufffd\ufffdkderek\ufffdy"},{"id":"2437231","latitude":"37.90000000","longitude":"29.16666700","name":"K\ufffd\ufffd\ufffdkdere"},{"id":"2437547","latitude":"38.09722200","longitude":"28.78638900","name":"K\ufffdl\ufffdhalan"},{"id":"2437555","latitude":"37.07277800","longitude":"29.20527800","name":"Kulakk\ufffdy"},{"id":"2437670","latitude":"37.32555600","longitude":"29.52222200","name":"Kumafsari"},{"id":"2437744","latitude":"37.85000000","longitude":"29.03333300","name":"Kumkisik"},{"id":"2437766","latitude":"37.90000000","longitude":"28.88333300","name":"Kumluca"},{"id":"2437814","latitude":"37.41666700","longitude":"28.68333300","name":"K\ufffdnar"},{"id":"2437907","latitude":"37.50388900","longitude":"28.70833300","name":"Kurbagalik"},{"id":"2437911","latitude":"37.50388900","longitude":"28.70833300","name":"Kurbalik"},{"id":"2438163","latitude":"37.46666700","longitude":"29.55000000","name":"Kurtlar"},{"id":"2438337","latitude":"37.78333300","longitude":"29.15000000","name":"Kurudere"},{"id":"2438597","latitude":"38.27888900","longitude":"29.35416700","name":"Kutlubey"},{"id":"2438703","latitude":"37.55000000","longitude":"29.40000000","name":"Kuyucak"},{"id":"2438834","latitude":"37.23333300","longitude":"29.33333300","name":"Kuz\ufffdren"},{"id":"2439406","latitude":"38.03333300","longitude":"29.43333300","name":"Mahmutgazi"},{"id":"2439661","latitude":"37.76666700","longitude":"29.01666700","name":"Manastirkoy"},{"id":"2439667","latitude":"37.76666700","longitude":"29.01666700","name":"Manastir"},{"id":"2439900","latitude":"37.08333300","longitude":"29.25000000","name":"Masidkoy"},{"id":"2439901","latitude":"37.08333300","longitude":"29.25000000","name":"Masid"},{"id":"2439905","latitude":"37.08333300","longitude":"29.25000000","name":"Masit"},{"id":"2440008","latitude":"37.91666700","longitude":"29.63333300","name":"Mecidiye"},{"id":"2440034","latitude":"38.24500000","longitude":"29.30472200","name":"Medele"},{"id":"2440035","latitude":"37.50000000","longitude":"29.03333300","name":"Medetk\ufffdy"},{"id":"2440037","latitude":"37.50000000","longitude":"29.03333300","name":"Medet"},{"id":"2440115","latitude":"37.20000000","longitude":"28.96666700","name":"Mehrimler"},{"id":"2440169","latitude":"38.03972200","longitude":"29.58694400","name":"Meler"},{"id":"2440182","latitude":"38.25000000","longitude":"29.70000000","name":"Melhos"},{"id":"2440184","latitude":"38.25000000","longitude":"29.70000000","name":"Melhus"},{"id":"2440363","latitude":"37.75000000","longitude":"29.31666700","name":"Mentes"},{"id":"2440460","latitude":"37.63333300","longitude":"29.11666700","name":"Merkepkiran"},{"id":"2440657","latitude":"37.38333300","longitude":"29.31666700","name":"Mevl\ufffdtler"},{"id":"2440915","latitude":"38.20027800","longitude":"29.19972200","name":"Mildi"},{"id":"2441183","latitude":"37.80000000","longitude":"28.93333300","name":"Mollaahmet"},{"id":"2441278","latitude":"38.27888900","longitude":"29.35416700","name":"Moraca"},{"id":"2441283","latitude":"37.80000000","longitude":"29.55000000","name":"Moran"},{"id":"2442005","latitude":"38.09972200","longitude":"28.95194400","name":"Narlidere"},{"id":"2442021","latitude":"37.53333300","longitude":"28.78333300","name":"Narli"},{"id":"2442249","latitude":"37.40583300","longitude":"29.13444400","name":"Nikfer"},{"id":"2442632","latitude":"37.45000000","longitude":"29.35000000","name":"Oguzkoy"},{"id":"2442633","latitude":"37.83333300","longitude":"28.88333300","name":"Oguzlar"},{"id":"2442639","latitude":"37.45000000","longitude":"29.35000000","name":"Oguz"},{"id":"2442746","latitude":"37.16666700","longitude":"29.03333300","name":"\ufffdk\ufffdzler"},{"id":"2442784","latitude":"37.22527800","longitude":"29.23277800","name":"Olukbasi"},{"id":"2442870","latitude":"38.26666700","longitude":"29.76666700","name":"\ufffdmerli"},{"id":"2443048","latitude":"37.06666700","longitude":"29.28305600","name":"\ufffdren"},{"id":"2443265","latitude":"39.98333300","longitude":"34.23333300","name":"Ortakisla"},{"id":"2443284","latitude":"38.17444400","longitude":"29.30416700","name":"Ortak\ufffdy Kale"},{"id":"2443297","latitude":"37.41666700","longitude":"28.71666700","name":"Ortak\ufffdy"},{"id":"2443365","latitude":"37.01722200","longitude":"29.29861100","name":"Orta"},{"id":"2443382","latitude":"37.38333300","longitude":"28.78333300","name":"Ortatepek\ufffdy"},{"id":"2443384","latitude":"37.38333300","longitude":"28.78333300","name":"Ortatepe"},{"id":"2443468","latitude":"38.38333300","longitude":"29.86666700","name":"Osmanbey"},{"id":"2443511","latitude":"38.38333300","longitude":"27.88333300","name":"Osmank\ufffdy"},{"id":"2443530","latitude":"38.38333300","longitude":"27.88333300","name":"Osman"},{"id":"2443619","latitude":"37.45277800","longitude":"29.13111100","name":"Ovacik"},{"id":"2443675","latitude":"37.51666700","longitude":"29.35000000","name":"Ovayurt"},{"id":"2443756","latitude":"37.16666700","longitude":"29.10000000","name":"Oyulukavak"},{"id":"2443819","latitude":"38.03805600","longitude":"29.74472200","name":"Ozdemirci"},{"id":"2443853","latitude":"37.36583300","longitude":"28.84361100","name":"\ufffdzl\ufffdce"},{"id":"2443986","latitude":"37.91583300","longitude":"29.11277800","name":"Pamukkale"},{"id":"2444134","latitude":"38.35000000","longitude":"29.50000000","name":"Pasalar"},{"id":"2444489","latitude":"38.00916700","longitude":"29.29777800","name":"Peynirci"},{"id":"2444596","latitude":"37.64388900","longitude":"29.10972200","name":"Pinarlik"},{"id":"2445191","latitude":"38.05416700","longitude":"29.71722200","name":"Resadiye"},{"id":"2445817","latitude":"37.18333300","longitude":"29.35000000","name":"Sakalsizlar"},{"id":"2445876","latitude":"38.01666700","longitude":"29.28333300","name":"Sakizcilar"},{"id":"2446119","latitude":"38.13444400","longitude":"29.47027800","name":"Salvan"},{"id":"2446321","latitude":"37.80000000","longitude":"29.46666700","name":"Sapaca"},{"id":"2446350","latitude":"38.11666700","longitude":"29.45000000","name":"Sapcilar"},{"id":"2446451","latitude":"37.92222200","longitude":"28.92527800","name":"Sarayk\ufffdy"},{"id":"2446506","latitude":"37.80000000","longitude":"28.98333300","name":"Sarhank\ufffdy"},{"id":"2446508","latitude":"37.80000000","longitude":"28.98333300","name":"Sarhan"},{"id":"2446510","latitude":"37.61000000","longitude":"29.19250000","name":"Sariabat"},{"id":"2446551","latitude":"38.16666700","longitude":"29.65000000","name":"Saribeyli"},{"id":"2446772","latitude":"36.93333300","longitude":"29.26666700","name":"Sarilar"},{"id":"2446791","latitude":"38.15916700","longitude":"28.80611100","name":"Sarimahmutlu"},{"id":"2446900","latitude":"37.53333300","longitude":"28.80000000","name":"Sariyar"},{"id":"2447062","latitude":"37.80000000","longitude":"28.98333300","name":"Saruhan"},{"id":"2447073","latitude":"37.63333300","longitude":"29.51666700","name":"Saryeri"},{"id":"2447113","latitude":"36.96666700","longitude":"29.20000000","name":"Satirlar"},{"id":"2447176","latitude":"37.96666700","longitude":"28.76666700","name":"Savcilli"},{"id":"2447238","latitude":"36.95000000","longitude":"29.18333300","name":"Sazak"},{"id":"2447258","latitude":"37.76666700","longitude":"29.65000000","name":"Sazk\ufffdy"},{"id":"2447592","latitude":"38.10000000","longitude":"29.40000000","name":"Selcen"},{"id":"2447663","latitude":"37.40000000","longitude":"29.38333300","name":"Selleri"},{"id":"2447725","latitude":"37.79611100","longitude":"29.06527800","name":"Semikler"},{"id":"2447850","latitude":"37.92222200","longitude":"28.92527800","name":"Seraikeui"},{"id":"2447855","latitude":"38.23083300","longitude":"29.80916700","name":"Seraserli"},{"id":"2447860","latitude":"38.21666700","longitude":"29.78333300","name":"Serbansah"},{"id":"2447986","latitude":"37.58083300","longitude":"29.26194400","name":"Serinhisar"},{"id":"2448015","latitude":"36.93333300","longitude":"29.31666700","name":"Serler"},{"id":"2448232","latitude":"38.23333300","longitude":"28.85000000","name":"Seyhdavut"},{"id":"2448420","latitude":"37.85000000","longitude":"28.93333300","name":"Seyne"},{"id":"2449092","latitude":"37.51666700","longitude":"29.50000000","name":"Sircalik"},{"id":"2449109","latitude":"38.27166700","longitude":"29.52916700","name":"Sirikli"},{"id":"2449118","latitude":"37.76666700","longitude":"29.01666700","name":"Sirinkoy"},{"id":"2449373","latitude":"36.99388900","longitude":"29.33222200","name":"Sofular"},{"id":"2449601","latitude":"37.66666700","longitude":"29.56666700","name":"Sogut"},{"id":"2449628","latitude":"38.25000000","longitude":"29.75000000","name":"S\ufffdkmen"},{"id":"2449673","latitude":"37.49277800","longitude":"28.96527800","name":"Solmaz"},{"id":"2449999","latitude":"37.21666700","longitude":"28.88333300","name":"S\ufffdlekler"},{"id":"2450032","latitude":"38.06666700","longitude":"28.75000000","name":"S\ufffdleymaniye"},{"id":"2450047","latitude":"37.31666700","longitude":"29.36666700","name":"S\ufffdleymanlar"},{"id":"2450072","latitude":"38.15972200","longitude":"29.47638900","name":"S\ufffdller"},{"id":"2450178","latitude":"38.35222200","longitude":"29.20222200","name":"S\ufffdl\ufffdmenli"},{"id":"2450222","latitude":"38.19361100","longitude":"29.85694400","name":"Sundurlu"},{"id":"2450233","latitude":"38.20833300","longitude":"29.97194400","name":"S\ufffdng\ufffdll\ufffd"},{"id":"2450581","latitude":"37.85000000","longitude":"28.76666700","name":"Tahtaci"},{"id":"2450607","latitude":"37.18333300","longitude":"29.36666700","name":"Tahtali"},{"id":"2450796","latitude":"37.51666700","longitude":"29.35000000","name":"Taraskoy"},{"id":"2450797","latitude":"37.51666700","longitude":"29.35000000","name":"Taras"},{"id":"2450822","latitude":"37.88333300","longitude":"28.78333300","name":"Tarkaz"},{"id":"2450885","latitude":"36.93333300","longitude":"29.26666700","name":"Tascilar"},{"id":"2451146","latitude":"38.01250000","longitude":"29.70805600","name":"Tatarcik"},{"id":"2451252","latitude":"37.58027800","longitude":"29.06444400","name":"Tavas"},{"id":"2451458","latitude":"37.90000000","longitude":"28.76666700","name":"Teke"},{"id":"2451505","latitude":"37.61666700","longitude":"29.16666700","name":"Tekkek\ufffdy"},{"id":"2451533","latitude":"37.73055600","longitude":"29.16472200","name":"Tekke"},{"id":"2451754","latitude":"38.00944400","longitude":"28.99472200","name":"Tepecifligi"},{"id":"2451755","latitude":"38.00944400","longitude":"28.99472200","name":"Tepe\ufffdiftlik"},{"id":"2451823","latitude":"37.63333300","longitude":"28.83333300","name":"Tepek\ufffdy"},{"id":"2452020","latitude":"37.45000000","longitude":"28.83333300","name":"Teynar"},{"id":"2452157","latitude":"37.52361100","longitude":"28.91305600","name":"Tilkili"},{"id":"2452306","latitude":"37.88333300","longitude":"28.78333300","name":"Tirkaz"},{"id":"2452408","latitude":"38.15694400","longitude":"29.78555600","name":"Tok\ufffda"},{"id":"2452646","latitude":"37.35000000","longitude":"29.30000000","name":"Topuklu"},{"id":"2452666","latitude":"38.05194400","longitude":"29.06527800","name":"Torapan"},{"id":"2452730","latitude":"37.96666700","longitude":"28.95000000","name":"Tosunlar"},{"id":"2452836","latitude":"38.25888900","longitude":"29.84250000","name":"Tuglu"},{"id":"2453075","latitude":"38.15444400","longitude":"28.89694400","name":"T\ufffdrl\ufffdbey"},{"id":"2453275","latitude":"37.47583300","longitude":"29.42583300","name":"Ucariciftligi Koyu"},{"id":"2453276","latitude":"37.47583300","longitude":"29.42583300","name":"Ucariciftligi"},{"id":"2453277","latitude":"37.47583300","longitude":"29.42583300","name":"Ucari"},{"id":"2453379","latitude":"38.26500000","longitude":"29.45333300","name":"\ufffd\ufffdkuyu"},{"id":"2453512","latitude":"37.83333300","longitude":"28.88333300","name":"Uguzlar"},{"id":"2453625","latitude":"37.45888900","longitude":"28.99416700","name":"Ulukent"},{"id":"2453640","latitude":"37.45888900","longitude":"28.99416700","name":"Uluk\ufffdy"},{"id":"2453999","latitude":"37.88333300","longitude":"29.03333300","name":"\ufffdzerlik"},{"id":"2454173","latitude":"37.50000000","longitude":"29.08333300","name":"Uzunpinarkoy"},{"id":"2454176","latitude":"37.50000000","longitude":"29.08333300","name":"Uzunpinar"},{"id":"2454257","latitude":"37.61666700","longitude":"28.98333300","name":"Vakifkoy"},{"id":"2454267","latitude":"37.61666700","longitude":"28.98333300","name":"Vakif"},{"id":"2454294","latitude":"37.36583300","longitude":"28.84361100","name":"Varali"},{"id":"2454407","latitude":"37.11666700","longitude":"29.18333300","name":"Velibeleni"},{"id":"2454760","latitude":"38.14750000","longitude":"29.61472200","name":"Yahyali"},{"id":"2454765","latitude":"38.14750000","longitude":"29.61472200","name":"Yahyalli"},{"id":"2454778","latitude":"38.28333300","longitude":"29.68333300","name":"Yakacik"},{"id":"2454957","latitude":"38.25000000","longitude":"29.83333300","name":"Yalinli"},{"id":"2455050","latitude":"38.22638900","longitude":"29.68027800","name":"Yamanlar"},{"id":"2455195","latitude":"37.58027800","longitude":"29.06444400","name":"Yarang\ufffdme"},{"id":"2455196","latitude":"37.58027800","longitude":"29.06444400","name":"Yarang\ufffdm"},{"id":"2455208","latitude":"38.35000000","longitude":"29.90000000","name":"Yarbasan Mahallesi"},{"id":"2455209","latitude":"38.35000000","longitude":"29.90000000","name":"Yarbasan"},{"id":"2455215","latitude":"38.35000000","longitude":"29.90000000","name":"Yarbissan"},{"id":"2455356","latitude":"37.51666700","longitude":"29.33333300","name":"Yassihuyukkoy"},{"id":"2455357","latitude":"37.51666700","longitude":"29.33333300","name":"Yassihuyuk"},{"id":"2455400","latitude":"37.56055600","longitude":"29.39388900","name":"Yatagan"},{"id":"2455439","latitude":"38.31111100","longitude":"29.90861100","name":"Yava"},{"id":"2455644","latitude":"37.12972200","longitude":"29.26388900","name":"Yaylapinar"},{"id":"2455802","latitude":"37.36500000","longitude":"29.55805600","name":"Yazir"},{"id":"2456024","latitude":"38.10805600","longitude":"28.73027800","name":"Yeni\ufffdam"},{"id":"2456046","latitude":"38.04305600","longitude":"28.94361100","name":"Yenicekent"},{"id":"2456090","latitude":"38.04305600","longitude":"28.94361100","name":"Yenice"},{"id":"2456218","latitude":"38.21555600","longitude":"29.11000000","name":"Yenikonak"},{"id":"2456239","latitude":"37.42027800","longitude":"28.90416700","name":"Yenik\ufffdy"},{"id":"2456387","latitude":"38.30000000","longitude":"29.90000000","name":"Yeni"},{"id":"2456512","latitude":"37.75000000","longitude":"29.05000000","name":"Yesilkoy"},{"id":"2456546","latitude":"38.24500000","longitude":"29.30472200","name":"Yesilova"},{"id":"2456621","latitude":"37.57416700","longitude":"29.42944400","name":"Yesilyuva"},{"id":"2456678","latitude":"37.13333300","longitude":"29.20000000","name":"Yikinti Koyu"},{"id":"2456679","latitude":"37.13333300","longitude":"29.20000000","name":"Yikinti"},{"id":"2456705","latitude":"38.25000000","longitude":"29.83333300","name":"Yilanli"},{"id":"2456994","latitude":"37.35000000","longitude":"29.11666700","name":"Yorgak\ufffdy"},{"id":"2456999","latitude":"37.35000000","longitude":"29.11666700","name":"Yorga"},{"id":"2457003","latitude":"37.35000000","longitude":"29.11666700","name":"Yorgun"},{"id":"2457193","latitude":"37.36083300","longitude":"29.00888900","name":"Yukaribogaz"},{"id":"2457230","latitude":"38.42944400","longitude":"29.86861100","name":"Yukaricapak Mahallesi"},{"id":"2457231","latitude":"38.42944400","longitude":"29.86861100","name":"Yukari Capak"},{"id":"2457289","latitude":"37.78333300","longitude":"29.41666700","name":"Yukari Dagderekoy"},{"id":"2457290","latitude":"37.78333300","longitude":"29.41666700","name":"Yukaridagdere"},{"id":"2457338","latitude":"37.36666700","longitude":"29.56666700","name":"Yukaridodurga"},{"id":"2457428","latitude":"37.53333300","longitude":"28.65000000","name":"Yukari Gorle"},{"id":"2457469","latitude":"38.20000000","longitude":"29.00000000","name":"Yukari Haylamaz"},{"id":"2457545","latitude":"37.65000000","longitude":"29.40000000","name":"Yukarikaracay"},{"id":"2457554","latitude":"37.95000000","longitude":"29.10000000","name":"Yukari Karahayit"},{"id":"2457825","latitude":"37.91666700","longitude":"29.05000000","name":"Yukarisamli"},{"id":"2457867","latitude":"38.05000000","longitude":"29.41666700","name":"Yukariseyit"},{"id":"2457932","latitude":"37.36666700","longitude":"29.56666700","name":"Yukari Todurga"},{"id":"2458084","latitude":"37.38972200","longitude":"29.48750000","name":"Yumrutas"},{"id":"2458146","latitude":"37.56055600","longitude":"29.39388900","name":"Yuregil"},{"id":"2458305","latitude":"38.31111100","longitude":"29.90861100","name":"Yuva"},{"id":"2458678","latitude":"37.73333300","longitude":"29.11666700","name":"Zeytink\ufffdy"},{"id":"2458698","latitude":"37.73333300","longitude":"29.11666700","name":"Zeytin"},{"id":"2458706","latitude":"38.15000000","longitude":"29.38333300","name":"Zeyve"},{"id":"2458831","latitude":"37.86666700","longitude":"29.46666700","name":"Zipirkoy"},{"id":"2458832","latitude":"37.86666700","longitude":"29.46666700","name":"Zipir"}]