[{"id":"2472117","latitude":"-5.03333330","longitude":"36.05000000","name":"Aimabu"},{"id":"2472118","latitude":"-5.03333330","longitude":"36.05000000","name":"Aimba"},{"id":"2472128","latitude":"-5.00000000","longitude":"35.93333330","name":"Araa"},{"id":"2472138","latitude":"-4.96666670","longitude":"35.80000000","name":"Ausia"},{"id":"2472142","latitude":"-4.21666670","longitude":"35.75000000","name":"Babati"},{"id":"2472192","latitude":"-4.23333330","longitude":"35.41666670","name":"Bashanet"},{"id":"2472193","latitude":"-4.00000000","longitude":"35.35000000","name":"Bashay"},{"id":"2472195","latitude":"-4.30000000","longitude":"35.13333330","name":"Basodesh"},{"id":"2472204","latitude":"-4.53333330","longitude":"35.66666670","name":"Berabera"},{"id":"2472206","latitude":"-4.45000000","longitude":"35.73333330","name":"Bereko"},{"id":"2472207","latitude":"-4.45000000","longitude":"35.73333330","name":"Bereku"},{"id":"2472215","latitude":"-4.93333330","longitude":"35.80000000","name":"Bicha"},{"id":"2472245","latitude":"-4.81666670","longitude":"35.81666670","name":"Bolisa"},{"id":"2472264","latitude":"-4.35000000","longitude":"35.73333330","name":"Bonga"},{"id":"2472341","latitude":"-4.58333330","longitude":"35.75000000","name":"Bukulu"},{"id":"2472401","latitude":"-3.85000000","longitude":"35.53333330","name":"Burru"},{"id":"2472422","latitude":"-4.85000000","longitude":"36.05000000","name":"Busi"},{"id":"2472606","latitude":"-5.00000000","longitude":"35.73333330","name":"Chemchem"},{"id":"2472742","latitude":"-4.53333330","longitude":"36.05000000","name":"Chubi"},{"id":"2472763","latitude":"-4.68333330","longitude":"35.86666670","name":"Chungai"},{"id":"2472772","latitude":"-5.01666670","longitude":"36.10000000","name":"Churuku"},{"id":"2472783","latitude":"-4.26666670","longitude":"35.46666670","name":"Dabil"},{"id":"2472793","latitude":"-4.21666670","longitude":"35.55000000","name":"Dareda"},{"id":"2472800","latitude":"-3.76666670","longitude":"35.55000000","name":"Daudi"},{"id":"2472827","latitude":"-4.46666670","longitude":"35.83333330","name":"Disa"},{"id":"2472840","latitude":"-4.06666670","longitude":"35.38333330","name":"Dongabesh"},{"id":"2472847","latitude":"-4.06666670","longitude":"35.38333330","name":"Dongobesh"},{"id":"2472852","latitude":"-4.20000000","longitude":"35.35000000","name":"Donya"},{"id":"2472881","latitude":"-3.60000000","longitude":"35.60000000","name":"Endabash"},{"id":"2472882","latitude":"-3.86666670","longitude":"35.53333330","name":"Endagikot"},{"id":"2472883","latitude":"-4.23333330","longitude":"35.41666670","name":"Endalaghanet"},{"id":"2472884","latitude":"-4.23333330","longitude":"35.41666670","name":"Endalaghranid"},{"id":"2472885","latitude":"-3.60000000","longitude":"35.60000000","name":"Endarbash"},{"id":"2472886","latitude":"-4.41666670","longitude":"35.51666670","name":"Endasak"},{"id":"2472890","latitude":"-3.18333330","longitude":"35.16666670","name":"Endulen"},{"id":"2472949","latitude":"-4.26666670","longitude":"35.85000000","name":"Galapo"},{"id":"2472950","latitude":"-4.26666670","longitude":"35.85000000","name":"Galappo"},{"id":"2472974","latitude":"-4.23333330","longitude":"35.75000000","name":"Gendi"},{"id":"2472980","latitude":"-4.51666670","longitude":"35.38333330","name":"Ghatesh"},{"id":"2472991","latitude":"-4.40000000","longitude":"35.45000000","name":"Giting"},{"id":"2472995","latitude":"-5.10000000","longitude":"36.01666670","name":"Goima"},{"id":"2473040","latitude":"-4.26666670","longitude":"35.38333330","name":"Guse"},{"id":"2473046","latitude":"-4.26666670","longitude":"35.85000000","name":"Gwanzave"},{"id":"2473072","latitude":"-4.35000000","longitude":"35.90000000","name":"Harui"},{"id":"2473075","latitude":"-4.80000000","longitude":"35.96666670","name":"Haubi"},{"id":"2473125","latitude":"-4.35000000","longitude":"35.90000000","name":"Hurui"},{"id":"2473181","latitude":"-4.00000000","longitude":"35.76666670","name":"Idulo"},{"id":"2473444","latitude":"-3.85000000","longitude":"35.53333330","name":"Iraku"},{"id":"2473458","latitude":"-4.68333330","longitude":"35.80000000","name":"Isabe"},{"id":"2473573","latitude":"-4.65000000","longitude":"35.85000000","name":"Itundwi"},{"id":"2473619","latitude":"-5.01666670","longitude":"36.20000000","name":"Jangalo"},{"id":"2473620","latitude":"-5.01666670","longitude":"36.20000000","name":"Jangalu"},{"id":"2473773","latitude":"-3.91666670","longitude":"35.58333330","name":"Kainam"},{"id":"2473775","latitude":"-3.76666670","longitude":"35.83333330","name":"Kaiti"},{"id":"2473784","latitude":"-3.33333330","longitude":"35.03333330","name":"Kakessio"},{"id":"2473785","latitude":"-3.33333330","longitude":"35.03333330","name":"Kakesyo"},{"id":"2473902","latitude":"-3.65000000","longitude":"35.60000000","name":"Kansay"},{"id":"2474056","latitude":"-4.51666670","longitude":"35.38333330","name":"Katesh"},{"id":"2474479","latitude":"-4.35000000","longitude":"35.83333330","name":"Kikore"},{"id":"2474642","latitude":"-5.05000000","longitude":"35.76666670","name":"Kingali"},{"id":"2474682","latitude":"-4.75000000","longitude":"36.05000000","name":"Kinyasi"},{"id":"2474749","latitude":"-5.03333330","longitude":"35.58333330","name":"Kipungu"},{"id":"2474781","latitude":"-4.11666670","longitude":"35.63333330","name":"Kiru"},{"id":"2475104","latitude":"-4.73333330","longitude":"35.83333330","name":"Kola"},{"id":"2475109","latitude":"-4.73333330","longitude":"35.83333330","name":"Kolo"},{"id":"2475136","latitude":"-4.90000000","longitude":"35.78333330","name":"Kondoa Irangi"},{"id":"2475137","latitude":"-4.90000000","longitude":"35.78333330","name":"Kondoa"},{"id":"2475150","latitude":"-3.65000000","longitude":"35.60000000","name":"Konsay"},{"id":"2475222","latitude":"-3.95000000","longitude":"35.60000000","name":"Kuta"},{"id":"2475228","latitude":"-4.78333330","longitude":"35.96666670","name":"Kuuta"},{"id":"2475265","latitude":"-3.68333330","longitude":"35.95000000","name":"Kwa Kuchinia"},{"id":"2475266","latitude":"-3.68333330","longitude":"35.95000000","name":"Kwakuchinja"},{"id":"2475543","latitude":"-4.26666670","longitude":"36.40000000","name":"Loibor Serrit"},{"id":"2475797","latitude":"-4.16666670","longitude":"35.85000000","name":"Madege"},{"id":"2475806","latitude":"-3.88333330","longitude":"35.80000000","name":"Madukani"},{"id":"2475808","latitude":"-4.15000000","longitude":"35.41666670","name":"Madunga"},{"id":"2475823","latitude":"-4.01666670","longitude":"35.76666670","name":"Magagu"},{"id":"2475832","latitude":"-3.83333330","longitude":"35.70000000","name":"Magara"},{"id":"2475842","latitude":"-4.15000000","longitude":"35.08333330","name":"Maghang"},{"id":"2475867","latitude":"-4.01666670","longitude":"35.76666670","name":"Magugu"},{"id":"2475945","latitude":"-4.63333330","longitude":"36.73333330","name":"Makama"},{"id":"2475948","latitude":"-4.63333330","longitude":"36.73333330","name":"Makame"},{"id":"2475949","latitude":"-4.63333330","longitude":"36.73333330","name":"Makami"},{"id":"2476150","latitude":"-3.41666670","longitude":"35.43333330","name":"Mangola"},{"id":"2476152","latitude":"-4.90000000","longitude":"35.61666670","name":"Mangoloma"},{"id":"2476184","latitude":"-3.60000000","longitude":"35.93333330","name":"Manyara"},{"id":"2476253","latitude":"-4.36666670","longitude":"35.55000000","name":"Masagaloda"},{"id":"2476261","latitude":"-4.36666670","longitude":"35.55000000","name":"Masakaloda"},{"id":"2476268","latitude":"-4.60000000","longitude":"35.80000000","name":"Masange"},{"id":"2476280","latitude":"-4.36666670","longitude":"35.55000000","name":"Masekaroda"},{"id":"2476506","latitude":"-3.93333330","longitude":"35.80000000","name":"Mbesi"},{"id":"2476510","latitude":"-3.93333330","longitude":"35.80000000","name":"Mbezi"},{"id":"2476543","latitude":"-3.85000000","longitude":"35.53333330","name":"Mbulu"},{"id":"2476551","latitude":"-3.85000000","longitude":"35.53333330","name":"Mburu"},{"id":"2476658","latitude":"-4.08333330","longitude":"35.55000000","name":"Mer"},{"id":"2477097","latitude":"-4.90000000","longitude":"35.81666670","name":"Mkuku"},{"id":"2477239","latitude":"-4.68333330","longitude":"35.86666670","name":"Mnenya"},{"id":"2477284","latitude":"-4.98333330","longitude":"35.90000000","name":"Mondo"},{"id":"2477290","latitude":"-4.90000000","longitude":"35.61666670","name":"Mongoroma"},{"id":"2477750","latitude":"-4.00000000","longitude":"35.56666670","name":"Muray"},{"id":"2477822","latitude":"-3.88333330","longitude":"35.80000000","name":"Mwada"},{"id":"2478075","latitude":"-4.23333330","longitude":"35.70000000","name":"Nakwa"},{"id":"2478188","latitude":"-4.46666670","longitude":"35.45000000","name":"Nangwa"},{"id":"2478211","latitude":"-4.16666670","longitude":"35.38333330","name":"Nar"},{"id":"2478257","latitude":"-4.21666670","longitude":"35.55000000","name":"Ndareda"},{"id":"2478260","latitude":"-4.83333330","longitude":"36.75000000","name":"Ndedo"},{"id":"2478503","latitude":"-3.86666670","longitude":"35.70000000","name":"Njoro"},{"id":"2478543","latitude":"-4.90000000","longitude":"35.81666670","name":"Nkuku"},{"id":"2478876","latitude":"-3.35000000","longitude":"35.55000000","name":"Oldeani"},{"id":"2478905","latitude":"-4.71666670","longitude":"35.91666670","name":"Pahi"},{"id":"2479072","latitude":"-4.30000000","longitude":"35.65000000","name":"Riroda"},{"id":"2479245","latitude":"-4.76666670","longitude":"35.43333330","name":"Sambala"},{"id":"2479246","latitude":"-4.80000000","longitude":"36.08333330","name":"Sambwa"},{"id":"2479330","latitude":"-3.50000000","longitude":"35.61666670","name":"Seremai"},{"id":"2479331","latitude":"-4.93333330","longitude":"35.66666670","name":"Serya"},{"id":"2479488","latitude":"-4.76666670","longitude":"35.93333330","name":"Soro"},{"id":"2479519","latitude":"-4.95000000","longitude":"35.76666670","name":"Suruke"},{"id":"2479520","latitude":"-4.95000000","longitude":"35.76666670","name":"Suruki"},{"id":"2479552","latitude":"-4.95000000","longitude":"36.03333330","name":"Tandala"},{"id":"2479613","latitude":"-3.91666670","longitude":"35.48333330","name":"Tlawi"},{"id":"2479656","latitude":"-4.85000000","longitude":"35.76666670","name":"Tumbelo"},{"id":"2479706","latitude":"-4.25000000","longitude":"35.35000000","name":"Ufana"},{"id":"2479790","latitude":"-3.85000000","longitude":"35.53333330","name":"Umbulu"},{"id":"2479982","latitude":"-5.03333330","longitude":"35.90000000","name":"Waida"},{"id":"2480037","latitude":"-3.85000000","longitude":"35.15000000","name":"Yaida"}]