[{"id":"2480120","latitude":"49.87111100","longitude":"38.04083300","name":"Abashkin"},{"id":"2480123","latitude":"49.25000000","longitude":"35.33333300","name":"Abazovka"},{"id":"2480202","latitude":"48.95000000","longitude":"35.53333300","name":"Afanasyevka"},{"id":"2480206","latitude":"48.88333300","longitude":"36.78333300","name":"Afrikanovka"},{"id":"2480234","latitude":"50.25388900","longitude":"35.60000000","name":"Akhremtsey"},{"id":"2480243","latitude":"48.91666700","longitude":"36.48333300","name":"Akimovka"},{"id":"2480272","latitude":"49.80694400","longitude":"36.20138900","name":"Aksyutovka"},{"id":"2480326","latitude":"48.60000000","longitude":"36.55000000","name":"Aleksandropol"},{"id":"2480339","latitude":"48.71666700","longitude":"36.91666700","name":"Aleksandrovka"},{"id":"2480362","latitude":"49.07666700","longitude":"36.21333300","name":"Aleksandrovka Vtoraya"},{"id":"2480371","latitude":"50.15000000","longitude":"35.08333300","name":"Aleksandrovskiy"},{"id":"2480374","latitude":"49.01666700","longitude":"35.88333300","name":"Aleksandrovskoye"},{"id":"2480388","latitude":"48.90000000","longitude":"35.93333300","name":"Alekseyevka"},{"id":"2480406","latitude":"48.90000000","longitude":"35.93333300","name":"Alekseyevskaya"},{"id":"2480411","latitude":"49.39583300","longitude":"36.28611100","name":"Alekseyevskoye"},{"id":"2480421","latitude":"50.36555600","longitude":"35.82638900","name":"Aleksndrovka"},{"id":"2480422","latitude":"49.39583300","longitude":"36.28611100","name":"Aleksyeevskoye"},{"id":"2480428","latitude":"49.23083300","longitude":"36.37500000","name":"Aleshki"},{"id":"2480437","latitude":"48.71666700","longitude":"36.91666700","name":"Alexandrowka"},{"id":"2480446","latitude":"50.26888900","longitude":"36.29944400","name":"Alisivka"},{"id":"2480448","latitude":"50.26888900","longitude":"36.29944400","name":"Alisovka"},{"id":"2480479","latitude":"50.10861100","longitude":"37.63611100","name":"Ambarnoye"},{"id":"2480504","latitude":"50.10000000","longitude":"35.10000000","name":"Anastasyevka"},{"id":"2480536","latitude":"48.65000000","longitude":"36.35000000","name":"Andreyevka"},{"id":"2480551","latitude":"49.53333300","longitude":"36.65000000","name":"Andreyevka Pervaya"},{"id":"2480552","latitude":"49.53333300","longitude":"36.66666700","name":"Andreyevka Vtoraya"},{"id":"2480617","latitude":"50.20805600","longitude":"37.52527800","name":"Aniskin"},{"id":"2480621","latitude":"50.03166700","longitude":"37.11916700","name":"Annenskiy"},{"id":"2480624","latitude":"48.96666700","longitude":"35.66666700","name":"Anninka"},{"id":"2480626","latitude":"48.96666700","longitude":"35.66666700","name":"Anninskaya"},{"id":"2480638","latitude":"50.14083300","longitude":"37.18555600","name":"Annopolye"},{"id":"2480645","latitude":"49.11083300","longitude":"36.38694400","name":"Annovka"},{"id":"2480693","latitude":"49.04805600","longitude":"36.01333300","name":"Antonovka"},{"id":"2480741","latitude":"49.03333300","longitude":"36.01666700","name":"Apollonovka"},{"id":"2480744","latitude":"49.03333300","longitude":"36.01666700","name":"Apolonovka"},{"id":"2480763","latitude":"50.11027800","longitude":"37.19472200","name":"Arapovka"},{"id":"2480773","latitude":"50.12750000","longitude":"37.14555600","name":"Arbuzov"},{"id":"2480796","latitude":"49.77111100","longitude":"37.25833300","name":"Arkadevka"},{"id":"2480797","latitude":"49.77111100","longitude":"37.25833300","name":"Arkadiyevka"},{"id":"2480802","latitude":"49.77111100","longitude":"37.25833300","name":"Arkadyevka"},{"id":"2480805","latitude":"48.93333300","longitude":"36.95000000","name":"Arkhangelovka"},{"id":"2480806","latitude":"48.93333300","longitude":"36.95000000","name":"Arkhangelsk"},{"id":"2480811","latitude":"49.95666700","longitude":"37.14916700","name":"Arkushino"},{"id":"2480842","latitude":"49.98111100","longitude":"36.45000000","name":"Artamonov"},{"id":"2480845","latitude":"49.73055600","longitude":"36.71472200","name":"Artel"},{"id":"2480848","latitude":"49.01750000","longitude":"36.16388900","name":"Artelnoye Aleksandrovka"},{"id":"2480849","latitude":"49.06555600","longitude":"36.16916700","name":"Artelnoye"},{"id":"2480861","latitude":"49.84055600","longitude":"36.04166700","name":"Artemovka"},{"id":"2480870","latitude":"49.84055600","longitude":"36.04166700","name":"Artemovsk"},{"id":"2480878","latitude":"49.92611100","longitude":"37.07972200","name":"Artemyevskoye"},{"id":"2480883","latitude":"49.71500000","longitude":"36.78666700","name":"Artishchevka"},{"id":"2480894","latitude":"49.71222200","longitude":"36.27055600","name":"Artyukhovka"},{"id":"2480896","latitude":"49.36472200","longitude":"36.69694400","name":"Aseyevka"},{"id":"2480943","latitude":"49.46861100","longitude":"36.62277800","name":"Avangard"},{"id":"2481008","latitude":"49.70694400","longitude":"37.17111100","name":"Baba"},{"id":"2481010","latitude":"50.09722200","longitude":"37.20888900","name":"Babachiy"},{"id":"2481011","latitude":"49.88472200","longitude":"36.20277800","name":"Babai"},{"id":"2481013","latitude":"50.12083300","longitude":"35.77111100","name":"Babaki"},{"id":"2481021","latitude":"49.45277800","longitude":"37.13694400","name":"Babarykov"},{"id":"2481022","latitude":"49.88472200","longitude":"36.20277800","name":"Babay"},{"id":"2481030","latitude":"49.25194400","longitude":"37.33527800","name":"Babenkovo"},{"id":"2481061","latitude":"49.30861100","longitude":"36.40777800","name":"Babinovka"},{"id":"2481070","latitude":"50.33333300","longitude":"35.66666700","name":"Babovka"},{"id":"2481082","latitude":"50.08583300","longitude":"35.61666700","name":"Babykino"},{"id":"2481086","latitude":"50.08583300","longitude":"35.61666700","name":"Babynki"},{"id":"2481089","latitude":"50.18750000","longitude":"37.40694400","name":"Babyshkino"},{"id":"2481141","latitude":"50.01444400","longitude":"35.66361100","name":"Bairak"},{"id":"2481150","latitude":"49.25361100","longitude":"36.23638900","name":"Bakayevka"},{"id":"2481160","latitude":"49.80000000","longitude":"35.83333300","name":"Bakhmetyevka"},{"id":"2481172","latitude":"49.33805600","longitude":"37.53111100","name":"Bakhtyk"},{"id":"2481173","latitude":"49.33805600","longitude":"37.53111100","name":"Bakhtyn"},{"id":"2481186","latitude":"49.18777800","longitude":"36.60194400","name":"Baksharovka"},{"id":"2481188","latitude":"50.20777800","longitude":"37.21250000","name":"Baksheyevka"},{"id":"2481189","latitude":"50.20777800","longitude":"37.21250000","name":"Baksheyevko"},{"id":"2481211","latitude":"49.47000000","longitude":"36.86388900","name":"Balakleya"},{"id":"2481213","latitude":"49.47000000","longitude":"36.86388900","name":"Balakliya"},{"id":"2481225","latitude":"50.06222200","longitude":"35.80916700","name":"Balanovka"},{"id":"2481252","latitude":"49.30000000","longitude":"35.63333300","name":"Balki"},{"id":"2481290","latitude":"48.83333300","longitude":"37.30000000","name":"Bantyshevo"},{"id":"2481304","latitude":"49.11750000","longitude":"37.05000000","name":"Barabashevka"},{"id":"2481324","latitude":"49.60916700","longitude":"37.43861100","name":"Baranova"},{"id":"2481327","latitude":"49.60916700","longitude":"37.43861100","name":"Baranovka"},{"id":"2481333","latitude":"49.90000000","longitude":"35.63333300","name":"Baranovo"},{"id":"2481352","latitude":"48.81666700","longitude":"36.65000000","name":"Barbalatovo"},{"id":"2481361","latitude":"49.03138900","longitude":"36.24138900","name":"Barbashevka"},{"id":"2481400","latitude":"50.04694400","longitude":"37.61222200","name":"Bartenyevka"},{"id":"2481403","latitude":"48.90000000","longitude":"37.01666700","name":"Barvenkova"},{"id":"2481404","latitude":"50.06083300","longitude":"37.71027800","name":"Barvenkov"},{"id":"2481405","latitude":"48.90000000","longitude":"37.01666700","name":"Barvenkovo"},{"id":"2481406","latitude":"48.90000000","longitude":"37.01666700","name":"Barvinkove"},{"id":"2481408","latitude":"48.90000000","longitude":"37.01666700","name":"Barwenkowa"},{"id":"2481434","latitude":"49.84694400","longitude":"36.70888900","name":"Bashkirovka"},{"id":"2481455","latitude":"50.41250000","longitude":"35.88500000","name":"Basov"},{"id":"2481458","latitude":"50.41250000","longitude":"35.88500000","name":"Basovo"},{"id":"2481502","latitude":"49.27777800","longitude":"36.91555600","name":"Baydaki"},{"id":"2481515","latitude":"50.32333300","longitude":"37.14083300","name":"Baykova"},{"id":"2481524","latitude":"49.41638900","longitude":"36.83666700","name":"Bayrak"},{"id":"2481529","latitude":"49.83388900","longitude":"36.98583300","name":"Bazaleyevka"},{"id":"2481531","latitude":"49.83388900","longitude":"36.98583300","name":"Bazaliyevka"},{"id":"2481555","latitude":"50.31250000","longitude":"37.39527800","name":"Bedino"},{"id":"2481562","latitude":"49.48083300","longitude":"36.10583300","name":"Bednyak"},{"id":"2481563","latitude":"50.24472200","longitude":"36.45583300","name":"Bednyy"},{"id":"2481588","latitude":"50.13862938","longitude":"36.14422667","name":"Belashi"},{"id":"2481596","latitude":"49.48805600","longitude":"37.56972200","name":"Belaya"},{"id":"2481646","latitude":"49.04777800","longitude":"36.92694400","name":"Belikov"},{"id":"2481648","latitude":"49.04777800","longitude":"36.92694400","name":"Belikov Kolodets"},{"id":"2481759","latitude":"49.85000000","longitude":"35.26666700","name":"Belousov"},{"id":"2481786","latitude":"49.48805600","longitude":"37.56972200","name":"Beloye"},{"id":"2481805","latitude":"49.80000000","longitude":"35.43333300","name":"Beltsevo"},{"id":"2481806","latitude":"49.80000000","longitude":"35.43333300","name":"Beltsovo"},{"id":"2481817","latitude":"49.23444400","longitude":"36.28305600","name":"Belyayevka"},{"id":"2481824","latitude":"50.20750000","longitude":"37.10527800","name":"Bely Kolodes"},{"id":"2481825","latitude":"50.20750000","longitude":"37.10527800","name":"Bely Kolodez"},{"id":"2481828","latitude":"49.08694400","longitude":"36.66083300","name":"Belyy"},{"id":"2481834","latitude":"50.20750000","longitude":"37.10527800","name":"Belyy Kolodez"},{"id":"2481876","latitude":"49.10000000","longitude":"35.45000000","name":"Berdyanka"},{"id":"2481911","latitude":"49.41277800","longitude":"36.17722200","name":"Bereka"},{"id":"2481930","latitude":"48.73333300","longitude":"36.60000000","name":"Berestova"},{"id":"2481932","latitude":"49.54277800","longitude":"37.89166700","name":"Berestovaya"},{"id":"2481934","latitude":"49.48333300","longitude":"35.58333300","name":"Berestovenka"},{"id":"2481940","latitude":"49.57666700","longitude":"36.14111100","name":"Berestovo"},{"id":"2481943","latitude":"49.54277800","longitude":"37.89166700","name":"Berestovoye"},{"id":"2481945","latitude":"48.73333300","longitude":"36.60000000","name":"Berestovyy"},{"id":"2481950","latitude":"49.23361100","longitude":"36.86472200","name":"Berestyanka"},{"id":"2481958","latitude":"49.20722200","longitude":"36.55861100","name":"Beretskiy"},{"id":"2481993","latitude":"50.17250000","longitude":"36.12472200","name":"Berezhnoy"},{"id":"2482015","latitude":"49.45000000","longitude":"35.70000000","name":"Berezivka"},{"id":"2482020","latitude":"50.19694400","longitude":"37.39111100","name":"Berezki"},{"id":"2482041","latitude":"50.13000000","longitude":"36.87000000","name":"Berezniki"},{"id":"2482051","latitude":"50.25916700","longitude":"37.59083300","name":"Bereznyak"},{"id":"2482058","latitude":"49.62555600","longitude":"37.46944400","name":"Berezova"},{"id":"2482064","latitude":"49.62555600","longitude":"37.46944400","name":"Berezov"},{"id":"2482077","latitude":"49.45000000","longitude":"35.70000000","name":"Ber\ufffdzovka"},{"id":"2482092","latitude":"49.88333300","longitude":"34.93333300","name":"Ber\ufffdzovo"},{"id":"2482099","latitude":"49.87722200","longitude":"36.14444400","name":"Berezovoye"},{"id":"2482105","latitude":"49.62555600","longitude":"37.46944400","name":"Berezovyy"},{"id":"2482184","latitude":"49.62777800","longitude":"36.23083300","name":"Bespalovka"},{"id":"2482191","latitude":"49.25000000","longitude":"35.81666700","name":"Bessarabovka"},{"id":"2482216","latitude":"49.87638900","longitude":"36.27555600","name":"Bezlyudivka"},{"id":"2482217","latitude":"49.87638900","longitude":"36.27555600","name":"Bezlyudovka"},{"id":"2482218","latitude":"49.56138900","longitude":"37.31750000","name":"Bezmyatezhnoye"},{"id":"2482223","latitude":"49.00527800","longitude":"36.71194400","name":"Bezpaltsevo"},{"id":"2482229","latitude":"50.17484013","longitude":"36.11994292","name":"Bezruki"},{"id":"2482230","latitude":"50.01666700","longitude":"35.83333300","name":"Bezrukov"},{"id":"2482231","latitude":"50.17484013","longitude":"36.11994292","name":"Bezrukovka"},{"id":"2482232","latitude":"50.17484013","longitude":"36.11994292","name":"Bezruky"},{"id":"2482240","latitude":"49.10000000","longitude":"35.45000000","name":"Bezvodnaya"},{"id":"2482246","latitude":"49.89777800","longitude":"37.27805600","name":"Bezvodnyy Yar"},{"id":"2482255","latitude":"48.68333300","longitude":"37.03333300","name":"Bezzabotovka"},{"id":"2482356","latitude":"50.20750000","longitude":"37.10527800","name":"Bilyy Kolodyaz"},{"id":"2482448","latitude":"48.58333300","longitude":"37.11666700","name":"Blagodat"},{"id":"2482449","latitude":"49.63333300","longitude":"36.64500000","name":"Blagodatnaja"},{"id":"2482451","latitude":"49.63333300","longitude":"36.64500000","name":"Blagodatnaya"},{"id":"2482454","latitude":"48.65000000","longitude":"36.26666700","name":"Blagodatnoye"},{"id":"2482462","latitude":"49.08333300","longitude":"36.68805600","name":"Blagodatnyy"},{"id":"2482468","latitude":"49.04833300","longitude":"36.44916700","name":"Blagoveshchenka"},{"id":"2482473","latitude":"49.04833300","longitude":"36.44916700","name":"Blagoveshchenskiy"},{"id":"2482504","latitude":"48.86666700","longitude":"36.55000000","name":"Blisnezy"},{"id":"2482520","latitude":"48.86666700","longitude":"36.55000000","name":"Bliznetsy"},{"id":"2482523","latitude":"48.86666700","longitude":"36.55000000","name":"Bliznyuki"},{"id":"2482550","latitude":"48.86666700","longitude":"36.55000000","name":"Blyznyuky"},{"id":"2482585","latitude":"50.04943375","longitude":"36.39528004","name":"Bobrivka"},{"id":"2482587","latitude":"48.96666700","longitude":"37.16666700","name":"Bobrovaya"},{"id":"2482589","latitude":"50.04943375","longitude":"36.39528004","name":"Bobrov"},{"id":"2482594","latitude":"50.04943375","longitude":"36.39528004","name":"Bobrovka"},{"id":"2482618","latitude":"50.32333300","longitude":"37.14083300","name":"Bochkovo"},{"id":"2482628","latitude":"50.16083300","longitude":"35.51638900","name":"Bododukhov"},{"id":"2482640","latitude":"48.98333300","longitude":"35.58333300","name":"Bogataya Cherneshchina"},{"id":"2482641","latitude":"48.98333300","longitude":"35.58333300","name":"Bogataya Chernetchina"},{"id":"2482642","latitude":"48.98333300","longitude":"35.58333300","name":"Bogataya Chernetshchina"},{"id":"2482646","latitude":"48.96666700","longitude":"35.53333300","name":"Bogatoye"},{"id":"2482668","latitude":"48.80000000","longitude":"36.81666700","name":"Bogdanovka"},{"id":"2482682","latitude":"48.80000000","longitude":"36.81666700","name":"Bogdanovo"},{"id":"2482687","latitude":"48.95000000","longitude":"36.58333300","name":"Bogdanovskiy"},{"id":"2482703","latitude":"49.68138900","longitude":"37.11527800","name":"Bogodarovka"},{"id":"2482706","latitude":"48.85000000","longitude":"36.96666700","name":"Bogodarovo"},{"id":"2482708","latitude":"50.16083300","longitude":"35.51638900","name":"Bogoduchow"},{"id":"2482709","latitude":"50.16083300","longitude":"35.51638900","name":"Bogodukhov"},{"id":"2482713","latitude":"49.08638900","longitude":"36.55555600","name":"Bogomolovka"},{"id":"2482718","latitude":"49.54555600","longitude":"37.50638900","name":"Bogorodichna"},{"id":"2482720","latitude":"49.88166700","longitude":"37.03222200","name":"Bogorodichnoye"},{"id":"2482751","latitude":"49.47916700","longitude":"37.69027800","name":"Boguslavka"},{"id":"2482763","latitude":"50.16083300","longitude":"35.51638900","name":"Bohodukhiv"},{"id":"2482791","latitude":"49.63277800","longitude":"37.57583300","name":"Boldyrevka"},{"id":"2482803","latitude":"49.88333300","longitude":"35.68333300","name":"Bolgar"},{"id":"2482812","latitude":"50.15677670","longitude":"36.06639591","name":"Boliboki"},{"id":"2482815","latitude":"50.05611100","longitude":"37.79805600","name":"Bologovka"},{"id":"2482846","latitude":"49.00361100","longitude":"36.79027800","name":"Bolshaya Andreyevka"},{"id":"2482851","latitude":"49.98527800","longitude":"36.73833300","name":"Bolshaya Babka"},{"id":"2482874","latitude":"50.04318804","longitude":"36.33502727","name":"Bolshaya Danilovka"},{"id":"2482882","latitude":"49.16666700","longitude":"37.00000000","name":"Bolshaya Garazhevka"},{"id":"2482885","latitude":"49.55333300","longitude":"36.26805600","name":"Bolshaya Gomilsha"},{"id":"2482886","latitude":"49.55333300","longitude":"36.26805600","name":"Bolshaya Gomolsha"},{"id":"2482888","latitude":"49.71666700","longitude":"35.58333300","name":"Bolshaya Gubshchina"},{"id":"2482892","latitude":"49.11361100","longitude":"36.98138900","name":"Bolshaya Kamyshevakha"},{"id":"2482914","latitude":"49.91666700","longitude":"35.71666700","name":"Bolshaya Likhovka"},{"id":"2482945","latitude":"50.18750000","longitude":"35.83861100","name":"Bolshaya Rogozyanka"},{"id":"2482957","latitude":"49.78194400","longitude":"37.51888900","name":"Bolshaya Shapkovka"},{"id":"2482967","latitude":"50.24027800","longitude":"35.85583300","name":"Bolshaya Tsapovka"},{"id":"2482984","latitude":"49.08861100","longitude":"37.45583300","name":"Bolshaya Yeremovka"},{"id":"2482993","latitude":"50.04318804","longitude":"36.33502727","name":"Bolshe Danilovka"},{"id":"2483001","latitude":"49.24722200","longitude":"36.43888900","name":"Bolshevik"},{"id":"2483008","latitude":"48.98333300","longitude":"35.65000000","name":"Bolshiye Buchki"},{"id":"2483024","latitude":"49.81694400","longitude":"37.18527800","name":"Bolshiye Khutora"},{"id":"2483046","latitude":"50.20220164","longitude":"36.33427479","name":"Bolshiye Prokhody"},{"id":"2483057","latitude":"50.05916700","longitude":"37.38305600","name":"Bolshoi Burlak"},{"id":"2483062","latitude":"50.41250000","longitude":"35.88500000","name":"Bolshoy Basov"},{"id":"2483067","latitude":"50.05916700","longitude":"37.38305600","name":"Bolshoy Burluk"},{"id":"2483142","latitude":"49.13333300","longitude":"35.75000000","name":"Bolyasnovka"},{"id":"2483218","latitude":"50.27942370","longitude":"36.55983924","name":"Borisovka"},{"id":"2483231","latitude":"49.68444400","longitude":"36.04805600","name":"Borki"},{"id":"2483270","latitude":"50.31666700","longitude":"35.92944400","name":"Borokhov"},{"id":"2483277","latitude":"49.37722200","longitude":"37.61916700","name":"Borova"},{"id":"2483281","latitude":"49.37722200","longitude":"37.61916700","name":"Borovaya"},{"id":"2483299","latitude":"49.80916700","longitude":"36.30444400","name":"Borovoye"},{"id":"2483304","latitude":"49.38527800","longitude":"37.59527800","name":"Borovskoy"},{"id":"2483305","latitude":"49.64222200","longitude":"37.32416700","name":"Borovskoye"},{"id":"2483315","latitude":"49.37722200","longitude":"37.61916700","name":"Borowaja"},{"id":"2483326","latitude":"50.16486478","longitude":"36.41729345","name":"Borshchevaya"},{"id":"2483331","latitude":"49.50222200","longitude":"36.96388900","name":"Borshchevka"},{"id":"2483337","latitude":"49.50222200","longitude":"36.96388900","name":"Borshchevoye"},{"id":"2483346","latitude":"50.16486478","longitude":"36.41729345","name":"Borshchova"},{"id":"2483351","latitude":"49.50222200","longitude":"36.96388900","name":"Borshchovka"},{"id":"2483354","latitude":"49.98333300","longitude":"37.13333300","name":"Borshchovoye"},{"id":"2483492","latitude":"50.03527800","longitude":"37.02083300","name":"Bozhkovka"},{"id":"2483502","latitude":"49.78333300","longitude":"35.66666700","name":"Bragivka"},{"id":"2483505","latitude":"49.12805600","longitude":"36.34694400","name":"Brailovka"},{"id":"2483520","latitude":"50.27333300","longitude":"35.67500000","name":"Bratenitsa"},{"id":"2483530","latitude":"48.90000000","longitude":"36.43333300","name":"Bratolyubovka"},{"id":"2483548","latitude":"49.04333300","longitude":"37.20944400","name":"Brazhkovka"},{"id":"2483549","latitude":"49.99500000","longitude":"36.45333300","name":"Brazhniki"},{"id":"2483550","latitude":"49.04333300","longitude":"37.20944400","name":"Brazhovka"},{"id":"2483564","latitude":"49.28444400","longitude":"37.36583300","name":"Brigadirovka"},{"id":"2483594","latitude":"49.16666700","longitude":"35.41666700","name":"Brodshchyna"},{"id":"2483656","latitude":"48.80000000","longitude":"35.85000000","name":"Brusova"},{"id":"2483657","latitude":"48.80000000","longitude":"35.85000000","name":"Brusov"},{"id":"2483658","latitude":"48.80000000","longitude":"35.85000000","name":"Brusove"},{"id":"2483740","latitude":"50.39611100","longitude":"37.43722200","name":"Budarka"},{"id":"2483766","latitude":"49.87833300","longitude":"37.84750000","name":"Bud\ufffdnnovka"},{"id":"2483784","latitude":"49.88694400","longitude":"37.82527800","name":"Budenovka"},{"id":"2483794","latitude":"49.89555600","longitude":"36.02000000","name":"Budi"},{"id":"2483840","latitude":"49.89555600","longitude":"36.02000000","name":"Budy"},{"id":"2483871","latitude":"50.25500000","longitude":"35.90944400","name":"Bugai Pervyye"},{"id":"2483873","latitude":"50.32611100","longitude":"35.98083300","name":"Bugai Vtoryye"},{"id":"2483878","latitude":"50.31666700","longitude":"35.98333300","name":"Bugay"},{"id":"2483881","latitude":"50.16416700","longitude":"36.09833300","name":"Bugayev"},{"id":"2483882","latitude":"49.47583300","longitude":"37.39111100","name":"Bugayevka"},{"id":"2483900","latitude":"50.25383343","longitude":"36.82195130","name":"Bugrovatka"},{"id":"2483902","latitude":"50.25383343","longitude":"36.82195130","name":"Bugruvatka"},{"id":"2483910","latitude":"50.14472200","longitude":"36.87361100","name":"Buhayivka"},{"id":"2483952","latitude":"50.26638900","longitude":"35.61305600","name":"Bulakhov"},{"id":"2483962","latitude":"49.69611100","longitude":"37.17083300","name":"Bulatselivka"},{"id":"2483967","latitude":"49.69611100","longitude":"37.17083300","name":"Bulazelewka"},{"id":"2483969","latitude":"49.23750000","longitude":"37.23138900","name":"Bulbovka"},{"id":"2483984","latitude":"49.22250000","longitude":"36.54361100","name":"Bunakovo"},{"id":"2483999","latitude":"48.81666700","longitude":"36.65000000","name":"Burbulatovo"},{"id":"2484068","latitude":"49.76916700","longitude":"37.85916700","name":"Buryakovka"},{"id":"2484071","latitude":"49.73333300","longitude":"35.56666700","name":"Buryakovo"},{"id":"2484098","latitude":"50.07321756","longitude":"36.46355554","name":"Butenkov"},{"id":"2484099","latitude":"50.07321756","longitude":"36.46355554","name":"Butenkovo"},{"id":"2484105","latitude":"50.35000000","longitude":"36.01250000","name":"Butov"},{"id":"2484108","latitude":"49.71083300","longitude":"36.37750000","name":"Butovka"},{"id":"2484165","latitude":"49.13333300","longitude":"35.08333300","name":"Buzovka"},{"id":"2484166","latitude":"50.28694400","longitude":"37.35555600","name":"Buzovoye"},{"id":"2484167","latitude":"49.55861100","longitude":"36.12250000","name":"Buzovyy"},{"id":"2484202","latitude":"50.20750000","longitude":"37.10527800","name":"Byeli Kolodez"},{"id":"2484351","latitude":"49.24000000","longitude":"37.72611100","name":"Chapayeva"},{"id":"2484352","latitude":"49.36666700","longitude":"35.86666700","name":"Chapayeve"},{"id":"2484360","latitude":"49.11666700","longitude":"35.40000000","name":"Chapayevo"},{"id":"2484382","latitude":"50.00000000","longitude":"36.25000000","name":"Charkow"},{"id":"2484424","latitude":"50.07635098","longitude":"36.19024127","name":"Chaykovka"},{"id":"2484504","latitude":"49.70666700","longitude":"36.32444400","name":"Chemuzhovka"},{"id":"2484510","latitude":"49.32083300","longitude":"36.91722200","name":"Chepel"},{"id":"2484536","latitude":"48.93333300","longitude":"35.85000000","name":"Cherchyavshchina"},{"id":"2484555","latitude":"49.85000000","longitude":"35.76666700","name":"Cheremushna"},{"id":"2484557","latitude":"49.69222200","longitude":"36.43333300","name":"Cheremushnaya"},{"id":"2484558","latitude":"49.69222200","longitude":"36.43333300","name":"Cheremushnoye"},{"id":"2484588","latitude":"49.01333300","longitude":"36.25611100","name":"CheringoPoltavskiy"},{"id":"2484592","latitude":"50.11082163","longitude":"36.22087810","name":"Cherkaska Lozova"},{"id":"2484593","latitude":"50.11786008","longitude":"36.37829068","name":"Cherkaski Tyshky"},{"id":"2484595","latitude":"49.21666700","longitude":"35.73333300","name":"CherkasovoKarabotskiye"},{"id":"2484596","latitude":"49.21666700","longitude":"35.73333300","name":"CherkasovoKarabutskiye"},{"id":"2484598","latitude":"48.83333300","longitude":"37.38333300","name":"Cherkasskaya"},{"id":"2484599","latitude":"50.11082163","longitude":"36.22087810","name":"Cherkasskaya Lozovaya"},{"id":"2484600","latitude":"49.54805600","longitude":"36.41611100","name":"Cherkasskiy Bishkin"},{"id":"2484601","latitude":"50.11786008","longitude":"36.37829068","name":"Cherkasskiye Tishhi"},{"id":"2484602","latitude":"50.11786008","longitude":"36.37829068","name":"Cherkasskiye Tishki"},{"id":"2484604","latitude":"48.83333300","longitude":"37.38333300","name":"Cherkasskoye"},{"id":"2484606","latitude":"50.11082163","longitude":"36.22087810","name":"Cherkasskoye Lozovoye"},{"id":"2484610","latitude":"49.54805600","longitude":"36.41611100","name":"Cherkesskiy Bishkin"},{"id":"2484621","latitude":"49.18333300","longitude":"35.80000000","name":"Chermalose"},{"id":"2484627","latitude":"49.18333300","longitude":"35.80000000","name":"Chernaloza"},{"id":"2484667","latitude":"49.28333300","longitude":"35.10000000","name":"Cherneshchina"},{"id":"2484672","latitude":"50.06694400","longitude":"35.26416700","name":"Chernetchina"},{"id":"2484676","latitude":"49.96666700","longitude":"36.90000000","name":"Chernetskiy"},{"id":"2484678","latitude":"49.31861100","longitude":"37.85277800","name":"Chernetskoye"},{"id":"2484719","latitude":"49.52638900","longitude":"37.36000000","name":"Chernobayevka"},{"id":"2484723","latitude":"48.95000000","longitude":"35.88333300","name":"Chernoglazovka"},{"id":"2484731","latitude":"49.15916700","longitude":"36.45972200","name":"Chernokomenka"},{"id":"2484736","latitude":"49.18333300","longitude":"35.80000000","name":"Chernolozka"},{"id":"2484737","latitude":"49.18333300","longitude":"35.80000000","name":"Chernolozki"},{"id":"2484741","latitude":"50.01666700","longitude":"37.03333300","name":"Chernomordov"},{"id":"2484742","latitude":"50.01666700","longitude":"37.03333300","name":"Chernomordovka"},{"id":"2484771","latitude":"50.22194400","longitude":"37.43666700","name":"Chernoye"},{"id":"2484776","latitude":"50.08537718","longitude":"36.45418879","name":"Chernushin"},{"id":"2484787","latitude":"50.08537718","longitude":"36.45418879","name":"Chernyaki"},{"id":"2484790","latitude":"50.33416700","longitude":"37.46583300","name":"Chernyakov"},{"id":"2484815","latitude":"48.93333300","longitude":"35.85000000","name":"Chernyavshchina"},{"id":"2484840","latitude":"48.98333300","longitude":"36.66666700","name":"Chernyy Shpil"},{"id":"2484869","latitude":"49.79527800","longitude":"37.64194400","name":"Chervona Dolina"},{"id":"2484872","latitude":"49.48388900","longitude":"36.60000000","name":"Chervona Gorka"},{"id":"2484876","latitude":"49.98555600","longitude":"37.56805600","name":"Chervona Khvilya"},{"id":"2484881","latitude":"49.03333300","longitude":"36.30000000","name":"ChervonaShakhtarka"},{"id":"2484893","latitude":"49.33361100","longitude":"37.29111100","name":"Chervonaya Dolina"},{"id":"2484896","latitude":"49.48388900","longitude":"36.60000000","name":"Chervonaya Gorka"},{"id":"2484897","latitude":"49.39472200","longitude":"36.88333300","name":"Chervonaya Gusarovka"},{"id":"2484900","latitude":"49.97500000","longitude":"37.32555600","name":"Chervonaya Khvylya"},{"id":"2484911","latitude":"50.40719224","longitude":"36.13019695","name":"Chervonaya Zarya"},{"id":"2484913","latitude":"49.89750000","longitude":"37.70222200","name":"ChervonaZirka"},{"id":"2484916","latitude":"49.46666700","longitude":"35.45000000","name":"Chervona Zorya"},{"id":"2484928","latitude":"49.01055600","longitude":"36.66472200","name":"Chervonnaya Niva"},{"id":"2484929","latitude":"49.23583300","longitude":"37.84305600","name":"Chervonnaya Rashcha"},{"id":"2484932","latitude":"49.68333300","longitude":"37.28333300","name":"Chervonnotroitskoye"},{"id":"2484938","latitude":"49.16694400","longitude":"36.13666700","name":"Chervonny"},{"id":"2484955","latitude":"49.23333300","longitude":"35.76666700","name":"Chervonoarmeyskiy"},{"id":"2484961","latitude":"50.21284223","longitude":"36.89275369","name":"Chervonoarmeyskoye Pervoye"},{"id":"2484962","latitude":"50.07388900","longitude":"37.14055600","name":"Chervonoarmeyskoye Vtoroye"},{"id":"2484967","latitude":"50.07388900","longitude":"37.14055600","name":"Chervonoarmiyske Druge"},{"id":"2484968","latitude":"50.21284223","longitude":"36.89275369","name":"Chervonoarmiyske Pershe"},{"id":"2484969","latitude":"49.51000000","longitude":"36.57250000","name":"ChervonoDonetskiy"},{"id":"2484983","latitude":"49.68333300","longitude":"37.28333300","name":"Chervonotroitskoye"},{"id":"2485019","latitude":"49.58388900","longitude":"36.89694400","name":"Chervonyy"},{"id":"2485023","latitude":"49.31027800","longitude":"37.16027800","name":"Chervonyy Donets"},{"id":"2485027","latitude":"49.22944400","longitude":"36.00777800","name":"Chervonyy Kaganets"},{"id":"2485028","latitude":"49.33444400","longitude":"37.36444400","name":"Chervonyy Khleborob"},{"id":"2485036","latitude":"49.18111100","longitude":"37.42333300","name":"Chervonyy Oskol"},{"id":"2485040","latitude":"49.96666700","longitude":"35.36666700","name":"Chervonyy Prapor"},{"id":"2485044","latitude":"49.18833300","longitude":"37.05527800","name":"Chervonyy Shakhter"},{"id":"2485045","latitude":"49.45138900","longitude":"36.61722200","name":"Chervonyy Shlyakh"},{"id":"2485046","latitude":"48.98333300","longitude":"36.66666700","name":"Chervonyy Shpil"},{"id":"2485047","latitude":"49.28611100","longitude":"37.84000000","name":"Chervonyy Stav"},{"id":"2485049","latitude":"49.07444400","longitude":"36.07444400","name":"Chervonyy Step"},{"id":"2485050","latitude":"49.58388900","longitude":"36.89694400","name":"Chervonyy Yar"},{"id":"2485123","latitude":"49.40750000","longitude":"37.33916700","name":"Chistovodovka"},{"id":"2485150","latitude":"49.71750000","longitude":"36.91722200","name":"Chkalovske"},{"id":"2485152","latitude":"49.71750000","longitude":"36.91722200","name":"Chkalovskoye"},{"id":"2485197","latitude":"49.18333300","longitude":"35.80000000","name":"Chomoloze"},{"id":"2485225","latitude":"50.23564349","longitude":"36.05336324","name":"Chornohlazivka"},{"id":"2485262","latitude":"49.87250000","longitude":"37.35416700","name":"Chubarevka"},{"id":"2485293","latitude":"50.18194400","longitude":"37.60472200","name":"Chugunovka"},{"id":"2485294","latitude":"49.83555600","longitude":"36.68638900","name":"Chuguyev"},{"id":"2485297","latitude":"49.83555600","longitude":"36.68638900","name":"Chuhuyiv"},{"id":"2485325","latitude":"49.94694400","longitude":"36.33666700","name":"Chunikhin"},{"id":"2485475","latitude":"49.33333300","longitude":"35.61666700","name":"Dalnyaya"},{"id":"2485477","latitude":"49.47638900","longitude":"36.55472200","name":"Dalnyaya Shebelinka"},{"id":"2485478","latitude":"50.01249569","longitude":"36.27213756","name":"Dalnyaya Zhuravlevka"},{"id":"2485479","latitude":"50.01249569","longitude":"36.27213756","name":"Dalnya Zhuravlivka"},{"id":"2485488","latitude":"49.58333300","longitude":"35.45000000","name":"Dandasovka"},{"id":"2485497","latitude":"48.93333300","longitude":"36.88333300","name":"Danilovka"},{"id":"2485529","latitude":"49.15000000","longitude":"35.75000000","name":"DarNadezhda"},{"id":"2485530","latitude":"49.15000000","longitude":"35.75000000","name":"Dar Nadezhdy"},{"id":"2485589","latitude":"48.98333300","longitude":"35.45000000","name":"Davydovka"},{"id":"2485623","latitude":"50.43555600","longitude":"37.43666700","name":"Degtyarnoye"},{"id":"2485625","latitude":"50.43555600","longitude":"37.43666700","name":"Degtyarnyy"},{"id":"2485630","latitude":"50.27694400","longitude":"35.47583300","name":"Dekhtyary"},{"id":"2485633","latitude":"50.11361100","longitude":"34.97111100","name":"Dekreshevo"},{"id":"2485659","latitude":"50.23381939","longitude":"36.23668539","name":"Dementeyevka"},{"id":"2485661","latitude":"50.23381939","longitude":"36.23668539","name":"Dementiyevka"},{"id":"2485663","latitude":"50.23381939","longitude":"36.23668539","name":"Dementyevka"},{"id":"2485760","latitude":"50.39277800","longitude":"37.35194400","name":"Derevenskoye"},{"id":"2485786","latitude":"48.76666700","longitude":"36.93333300","name":"Derezivka"},{"id":"2485789","latitude":"49.06972200","longitude":"36.15888900","name":"Derfeldipovka"},{"id":"2485792","latitude":"50.10944400","longitude":"36.12083300","name":"Dergachi"},{"id":"2485794","latitude":"50.10944400","longitude":"36.12083300","name":"Dergatschi"},{"id":"2485795","latitude":"50.10944400","longitude":"36.12083300","name":"Derhachi"},{"id":"2485796","latitude":"50.10944400","longitude":"36.12083300","name":"Derhachy"},{"id":"2485848","latitude":"49.30111100","longitude":"37.42166700","name":"Detskaya"},{"id":"2485884","latitude":"49.17972200","longitude":"37.28583300","name":"Dibrova"},{"id":"2485892","latitude":"49.17972200","longitude":"37.28583300","name":"Dibrovo"},{"id":"2485934","latitude":"49.67750000","longitude":"36.21361100","name":"Diptany"},{"id":"2485936","latitude":"49.63638900","longitude":"36.18888900","name":"Diskovka"},{"id":"2485952","latitude":"48.80000000","longitude":"36.38333300","name":"Diyevka"},{"id":"2485962","latitude":"50.03333300","longitude":"35.23333300","name":"Dmitrenkov"},{"id":"2485972","latitude":"48.58333300","longitude":"36.66666700","name":"Dmitriyevka"},{"id":"2485985","latitude":"48.76666700","longitude":"36.96666700","name":"DmitroDarovka"},{"id":"2485986","latitude":"48.76666700","longitude":"36.96666700","name":"DmitroDaryevka"},{"id":"2485997","latitude":"49.14250000","longitude":"36.67250000","name":"Dmitrovka"},{"id":"2486020","latitude":"49.14250000","longitude":"36.67250000","name":"Dmytrivka"},{"id":"2486085","latitude":"49.31666700","longitude":"35.45000000","name":"Dobrenka"},{"id":"2486089","latitude":"48.61666700","longitude":"36.55000000","name":"Dobrinka"},{"id":"2486099","latitude":"49.78694400","longitude":"37.95250000","name":"Dobrolyubovka"},{"id":"2486108","latitude":"49.96666700","longitude":"35.71666700","name":"Dobropolye"},{"id":"2486143","latitude":"49.60694400","longitude":"37.15138900","name":"Dobrovolskiy"},{"id":"2486145","latitude":"48.68333300","longitude":"36.61666700","name":"Dobrovolye"},{"id":"2486180","latitude":"49.10166700","longitude":"36.55611100","name":"Dobryy"},{"id":"2486193","latitude":"50.19944400","longitude":"36.13277800","name":"Dolbino"},{"id":"2486204","latitude":"49.01916700","longitude":"37.31944400","name":"Dolgenkaya"},{"id":"2486205","latitude":"49.01916700","longitude":"37.31944400","name":"Dolgenkoye"},{"id":"2486213","latitude":"49.01277800","longitude":"37.19472200","name":"Dolgiy Yar"},{"id":"2486220","latitude":"49.89083300","longitude":"37.63083300","name":"Dolgonkoye"},{"id":"2486222","latitude":"50.23898768","longitude":"36.08923722","name":"Dolgopoly"},{"id":"2486224","latitude":"50.23898768","longitude":"36.08923722","name":"Dolgopolye"},{"id":"2486252","latitude":"49.03444400","longitude":"36.09666700","name":"Dolino"},{"id":"2486304","latitude":"50.17000000","longitude":"37.52027800","name":"Dolzhanka"},{"id":"2486309","latitude":"50.20083300","longitude":"35.96166700","name":"Dolzhik"},{"id":"2486314","latitude":"49.25666700","longitude":"36.99305600","name":"Dolzhino"},{"id":"2486320","latitude":"50.24694400","longitude":"37.39944400","name":"Dolzhok"},{"id":"2486324","latitude":"48.85000000","longitude":"36.30000000","name":"Domakha"},{"id":"2486362","latitude":"49.59138900","longitude":"36.57222200","name":"Donets"},{"id":"2486365","latitude":"49.15166700","longitude":"37.25000000","name":"Donetskiy"},{"id":"2486370","latitude":"49.15166700","longitude":"37.25000000","name":"Donetskoye"},{"id":"2486383","latitude":"48.71666700","longitude":"36.31666700","name":"Dorino"},{"id":"2486387","latitude":"49.80000000","longitude":"35.43333300","name":"Dorofeyevka"},{"id":"2486408","latitude":"50.10388900","longitude":"37.18527800","name":"Doroshenkovo"},{"id":"2486411","latitude":"49.83138900","longitude":"37.56694400","name":"Doroshevka"},{"id":"2486460","latitude":"49.38722200","longitude":"37.06944400","name":"Dovgalevka"},{"id":"2486472","latitude":"50.17000000","longitude":"37.52027800","name":"Dovzhanka"},{"id":"2486478","latitude":"50.20083300","longitude":"35.96166700","name":"Dovzhik"},{"id":"2486583","latitude":"49.26583300","longitude":"37.85583300","name":"Druzhelyubovka"},{"id":"2486647","latitude":"49.47027800","longitude":"37.10111100","name":"Dubnikovka"},{"id":"2486669","latitude":"50.27805279","longitude":"36.21245138","name":"Dubovka"},{"id":"2486692","latitude":"48.95000000","longitude":"35.80000000","name":"Dubovyye Gryady"},{"id":"2486714","latitude":"48.98333300","longitude":"37.25000000","name":"Dubrovka"},{"id":"2486722","latitude":"48.98333300","longitude":"37.25000000","name":"Dubrovna"},{"id":"2486747","latitude":"49.64777800","longitude":"36.21500000","name":"Dudkovka"},{"id":"2486748","latitude":"49.47027800","longitude":"37.10111100","name":"Dudnikovka"},{"id":"2486751","latitude":"49.06666700","longitude":"35.51666700","name":"Dudovka"},{"id":"2486802","latitude":"48.86666700","longitude":"36.66666700","name":"Dunina"},{"id":"2486804","latitude":"48.86666700","longitude":"36.66666700","name":"Dunino"},{"id":"2486828","latitude":"49.53638900","longitude":"37.42444400","name":"Duvanka"},{"id":"2486832","latitude":"49.27250000","longitude":"37.81222200","name":"Dvadtsatoye Oktyabrya"},{"id":"2486842","latitude":"49.85027800","longitude":"37.68555600","name":"Dvorichna"},{"id":"2486847","latitude":"50.02222200","longitude":"37.76805600","name":"Dvurechanskiy"},{"id":"2486848","latitude":"49.85027800","longitude":"37.68555600","name":"Dvurechnaya"},{"id":"2486849","latitude":"50.04000000","longitude":"35.93111100","name":"Dvurechnyy Kut"},{"id":"2486852","latitude":"49.85027800","longitude":"37.68555600","name":"Dvuretshnaya"},{"id":"2486860","latitude":"48.73333300","longitude":"36.51666700","name":"Dyagovka"},{"id":"2486862","latitude":"48.73333300","longitude":"36.51666700","name":"Dyagovo"},{"id":"2486999","latitude":"49.67527800","longitude":"36.09944400","name":"Dzhgun"},{"id":"2487078","latitude":"49.91583300","longitude":"37.52083300","name":"Eliseyevka"},{"id":"2487106","latitude":"49.79805600","longitude":"36.58833300","name":"Eskhar"},{"id":"2487185","latitude":"48.65000000","longitude":"37.06666700","name":"F\ufffddorovka"},{"id":"2487201","latitude":"49.02083300","longitude":"36.09833300","name":"Fedorovka Pervaya"},{"id":"2487202","latitude":"48.98333300","longitude":"36.18333300","name":"F\ufffddorovka Vtoraya"},{"id":"2487203","latitude":"49.73583300","longitude":"36.04972200","name":"Fedorovshchino"},{"id":"2487205","latitude":"48.91666700","longitude":"36.01666700","name":"F\ufffddorovskiy"},{"id":"2487209","latitude":"49.92972200","longitude":"36.31777800","name":"Fedortsy"},{"id":"2487257","latitude":"49.22916700","longitude":"37.36388900","name":"Ferma"},{"id":"2487268","latitude":"50.13500000","longitude":"35.95277800","name":"Feski"},{"id":"2487277","latitude":"49.83333300","longitude":"35.00000000","name":"Filenkovo"},{"id":"2487293","latitude":"49.24722200","longitude":"37.26583300","name":"Fimenovka"},{"id":"2487418","latitude":"50.01993754","longitude":"36.44797271","name":"Frunze"},{"id":"2487474","latitude":"49.32222200","longitude":"37.19777800","name":"Galastrov"},{"id":"2487581","latitude":"50.28243969","longitude":"36.26207821","name":"Gaptivka"},{"id":"2487582","latitude":"50.28243969","longitude":"36.26207821","name":"Gaptovka"},{"id":"2487590","latitude":"49.16666700","longitude":"37.00000000","name":"Garazhevka Pervaya"},{"id":"2487597","latitude":"50.28805600","longitude":"35.52916700","name":"Garbuzy"},{"id":"2487601","latitude":"49.11666700","longitude":"35.78333300","name":"Garkushin"},{"id":"2487603","latitude":"49.11666700","longitude":"35.78333300","name":"Garkushino"},{"id":"2487607","latitude":"49.20000000","longitude":"35.88333300","name":"Garmanovka"},{"id":"2487630","latitude":"50.29952675","longitude":"36.86633285","name":"Gatishche"},{"id":"2487649","latitude":"48.85000000","longitude":"36.81666700","name":"Gavrilovka"},{"id":"2487660","latitude":"49.10000000","longitude":"35.10000000","name":"Gavrishovka"},{"id":"2487671","latitude":"49.62777800","longitude":"36.30694400","name":"Gaydary"},{"id":"2487727","latitude":"49.67277800","longitude":"36.50027800","name":"Geneyevka"},{"id":"2487732","latitude":"49.67277800","longitude":"36.50027800","name":"Geniyevka"},{"id":"2487734","latitude":"49.44888900","longitude":"37.59027800","name":"Genovo"},{"id":"2487741","latitude":"49.11888900","longitude":"36.29777800","name":"Georgiyevka"},{"id":"2487753","latitude":"48.88333300","longitude":"35.40000000","name":"Gerasimovka"},{"id":"2487767","latitude":"50.30472200","longitude":"36.96277800","name":"Gerlegovka"},{"id":"2487773","latitude":"49.20000000","longitude":"35.88333300","name":"Germanovka"},{"id":"2487787","latitude":"49.73916700","longitude":"37.10527800","name":"Getmanovka"},{"id":"2487793","latitude":"49.50472200","longitude":"36.49638900","name":"Geyevka"},{"id":"2487807","latitude":"49.67277800","longitude":"36.50027800","name":"Gineyevka"},{"id":"2487828","latitude":"49.50472200","longitude":"36.49638900","name":"Giyevka"},{"id":"2487834","latitude":"49.08333300","longitude":"35.90000000","name":"Gladkov"},{"id":"2487836","latitude":"49.08333300","longitude":"35.90000000","name":"Gladkovka"},{"id":"2487852","latitude":"49.41250000","longitude":"36.62944400","name":"Glazunovka"},{"id":"2487881","latitude":"49.53722200","longitude":"36.40055600","name":"Glinishche"},{"id":"2487904","latitude":"49.25333300","longitude":"37.22027800","name":"Glinskoye"},{"id":"2487940","latitude":"49.71694400","longitude":"36.12527800","name":"Glubokiy"},{"id":"2487948","latitude":"50.25940845","longitude":"36.42795797","name":"Glubokoye"},{"id":"2487972","latitude":"49.60083300","longitude":"37.70972200","name":"Glushkovka"},{"id":"2488013","latitude":"49.53722200","longitude":"36.40055600","name":"Gnilishche"},{"id":"2488016","latitude":"49.73833300","longitude":"36.68555600","name":"Gnilitsa"},{"id":"2488018","latitude":"50.05000000","longitude":"37.21666700","name":"Gnilitsa Pervaya"},{"id":"2488019","latitude":"50.03416700","longitude":"37.20972200","name":"Gnilitsa Vtoraya"},{"id":"2488028","latitude":"50.16833300","longitude":"36.88861100","name":"Gnilushka"},{"id":"2488040","latitude":"50.03416700","longitude":"37.20972200","name":"Gnylytsya"},{"id":"2488068","latitude":"50.16833300","longitude":"37.38500000","name":"Gogino"},{"id":"2488197","latitude":"49.73861100","longitude":"36.08361100","name":"Golubov"},{"id":"2488200","latitude":"48.88333300","longitude":"35.85000000","name":"Golubovka"},{"id":"2488207","latitude":"48.88333300","longitude":"35.85000000","name":"Golubovskiy"},{"id":"2488232","latitude":"49.55333300","longitude":"36.26805600","name":"Gomolsha"},{"id":"2488259","latitude":"50.07625358","longitude":"36.98513258","name":"Gontarevka"},{"id":"2488260","latitude":"49.70361100","longitude":"36.15111100","name":"Gontar"},{"id":"2488261","latitude":"50.07625358","longitude":"36.98513258","name":"Gontarovka"},{"id":"2488263","latitude":"49.81666700","longitude":"35.53333300","name":"GontovYar"},{"id":"2488282","latitude":"50.21305600","longitude":"35.44555600","name":"Gorbanevka"},{"id":"2488285","latitude":"50.21305600","longitude":"35.44555600","name":"Gorbanivka"},{"id":"2488292","latitude":"49.85000000","longitude":"35.86666700","name":"Gorb"},{"id":"2488315","latitude":"50.10222200","longitude":"36.65805600","name":"Gordiyenko"},{"id":"2488357","latitude":"49.70944400","longitude":"37.18833300","name":"Gorkiy"},{"id":"2488439","latitude":"50.10888900","longitude":"35.23055600","name":"Gorodnoye"},{"id":"2488454","latitude":"49.66416700","longitude":"37.86361100","name":"Gorodskoy"},{"id":"2488472","latitude":"49.34750000","longitude":"37.53055600","name":"Gorokhovatka"},{"id":"2488474","latitude":"49.47694400","longitude":"37.45972200","name":"Gorokhovatochka"},{"id":"2488478","latitude":"49.21944400","longitude":"36.50055600","name":"Gorokhovka"},{"id":"2488502","latitude":"49.74750000","longitude":"37.18138900","name":"Gorozhanovka"},{"id":"2488557","latitude":"49.70250000","longitude":"36.37694400","name":"Gottvald"},{"id":"2488558","latitude":"49.70250000","longitude":"36.37694400","name":"Gotvald"},{"id":"2488606","latitude":"50.27111100","longitude":"37.46138900","name":"Grachevka"},{"id":"2488625","latitude":"49.71972200","longitude":"36.81472200","name":"Grakovo"},{"id":"2488627","latitude":"49.71972200","longitude":"36.81472200","name":"Grakowo"},{"id":"2488636","latitude":"50.36633921","longitude":"36.22506372","name":"Granov"},{"id":"2488639","latitude":"50.36633921","longitude":"36.22506372","name":"Grany"},{"id":"2488712","latitude":"49.97194400","longitude":"36.76722200","name":"Gremyachiy"},{"id":"2488717","latitude":"49.83500000","longitude":"37.67722200","name":"Grennikovka"},{"id":"2488718","latitude":"50.31944400","longitude":"35.88555600","name":"Gresov"},{"id":"2488743","latitude":"48.75000000","longitude":"36.31666700","name":"Grigorovka"},{"id":"2488755","latitude":"48.75000000","longitude":"36.31666700","name":"Grigoryevka"},{"id":"2488799","latitude":"49.11666700","longitude":"35.83333300","name":"Grishevka"},{"id":"2488827","latitude":"48.71666700","longitude":"37.08333300","name":"Gromovaya Balka"},{"id":"2488842","latitude":"49.67027800","longitude":"37.20694400","name":"Groza"},{"id":"2488873","latitude":"49.11722200","longitude":"36.89833300","name":"Grushevakha"},{"id":"2488875","latitude":"49.01722200","longitude":"36.86611100","name":"Grushevatskiy"},{"id":"2488896","latitude":"49.36500000","longitude":"36.15111100","name":"Grushino"},{"id":"2488921","latitude":"49.65805600","longitude":"37.04638900","name":"Gruzinovka"},{"id":"2488924","latitude":"49.95000000","longitude":"35.11666700","name":"Gruzkaya"},{"id":"2488945","latitude":"49.63333300","longitude":"35.38333300","name":"Gryakova"},{"id":"2488946","latitude":"49.63333300","longitude":"35.38333300","name":"Gryakovo"},{"id":"2488947","latitude":"49.63333300","longitude":"35.38333300","name":"Gryakovoye"},{"id":"2488971","latitude":"50.16000000","longitude":"35.36277800","name":"Gubarevka"},{"id":"2488974","latitude":"50.16000000","longitude":"35.36277800","name":"Gubarovka"},{"id":"2489011","latitude":"50.03583300","longitude":"35.84305600","name":"Gukovla"},{"id":"2489023","latitude":"49.73861100","longitude":"36.08361100","name":"Gulobov"},{"id":"2489047","latitude":"49.19444400","longitude":"36.39333300","name":"Gundosovka"},{"id":"2489064","latitude":"50.14555600","longitude":"35.84000000","name":"Gurinovka"},{"id":"2489083","latitude":"50.28666700","longitude":"35.72138900","name":"Guryev"},{"id":"2489085","latitude":"50.41888900","longitude":"35.96722200","name":"Guryev Kazachok"},{"id":"2489086","latitude":"50.41888900","longitude":"35.96722200","name":"Guryevskiy Kozachek"},{"id":"2489095","latitude":"48.88333300","longitude":"37.15000000","name":"Gusarovka"},{"id":"2489103","latitude":"50.22750000","longitude":"37.46916700","name":"Gusevka Pervaya"},{"id":"2489108","latitude":"49.82250000","longitude":"36.29000000","name":"Gusinaya Polyana"},{"id":"2489109","latitude":"49.52833300","longitude":"37.40694400","name":"Gusinka"},{"id":"2489115","latitude":"50.01333300","longitude":"37.09194400","name":"Guslovka"},{"id":"2489189","latitude":"50.12527800","longitude":"35.34055600","name":"Guty"},{"id":"2489191","latitude":"49.28333300","longitude":"35.65000000","name":"Gutyrovka"},{"id":"2489254","latitude":"50.28243969","longitude":"36.26207821","name":"Haptivka"},{"id":"2489264","latitude":"50.29952675","longitude":"36.86633285","name":"Hatyshche"},{"id":"2489298","latitude":"50.25940845","longitude":"36.42795797","name":"Hliboke"},{"id":"2489352","latitude":"50.07625358","longitude":"36.98513258","name":"Hontarivka"},{"id":"2489493","latitude":"50.12527800","longitude":"35.34055600","name":"Huty"},{"id":"2489530","latitude":"48.88333300","longitude":"35.46666700","name":"Ignatyeva"},{"id":"2489532","latitude":"48.88333300","longitude":"35.46666700","name":"Ignatyevka"},{"id":"2489546","latitude":"50.30245494","longitude":"36.17132416","name":"Ilicha"},{"id":"2489614","latitude":"49.06666700","longitude":"35.40000000","name":"Imeni Art\ufffdma"},{"id":"2489627","latitude":"49.95486769","longitude":"36.35344068","name":"Imeni Frunze"},{"id":"2489630","latitude":"48.85000000","longitude":"35.51666700","name":"Imeni Ilicha"},{"id":"2489632","latitude":"50.18305600","longitude":"36.21777800","name":"Imeni"},{"id":"2489636","latitude":"49.41861100","longitude":"36.60694400","name":"Imeni Kalinina"},{"id":"2489650","latitude":"50.00312783","longitude":"36.32036351","name":"Imeni Kirova"},{"id":"2489667","latitude":"49.37361100","longitude":"36.58722200","name":"Imeni Pervogo Maya"},{"id":"2489680","latitude":"49.38277800","longitude":"36.05027800","name":"Imeni Shevchenko"},{"id":"2489701","latitude":"50.00312783","longitude":"36.32036351","name":"Imennyy Kirova"},{"id":"2489808","latitude":"49.20000000","longitude":"37.31666700","name":"Isjum"},{"id":"2489849","latitude":"49.37000000","longitude":"37.18444400","name":"Ivanchukovka"},{"id":"2489875","latitude":"49.80000000","longitude":"35.51666700","name":"Ivanivka"},{"id":"2489885","latitude":"50.30000000","longitude":"35.61666700","name":"Ivanki"},{"id":"2489925","latitude":"50.28472200","longitude":"35.59916700","name":"IvanoSheychino"},{"id":"2489926","latitude":"50.28472200","longitude":"35.59916700","name":"IvanoShiychino"},{"id":"2489935","latitude":"48.73333300","longitude":"36.33333300","name":"Ivanovka"},{"id":"2489960","latitude":"48.91666700","longitude":"37.35000000","name":"Ivanovskiy"},{"id":"2489964","latitude":"50.40000000","longitude":"35.83333300","name":"Ivanovskoye"},{"id":"2489984","latitude":"49.76666700","longitude":"35.75000000","name":"Ivany"},{"id":"2489990","latitude":"50.40000000","longitude":"35.83333300","name":"Ivashki"},{"id":"2489991","latitude":"50.23555600","longitude":"37.52305600","name":"Ivashkin"},{"id":"2489992","latitude":"49.22500000","longitude":"36.24305600","name":"Ivashkivka"},{"id":"2489995","latitude":"49.22500000","longitude":"36.24305600","name":"Ivashkovka"},{"id":"2490003","latitude":"48.63333300","longitude":"36.95000000","name":"Iverskoye"},{"id":"2490028","latitude":"50.20432976","longitude":"36.74196135","name":"Izbitske"},{"id":"2490029","latitude":"50.20432976","longitude":"36.74196135","name":"Izbitskoye"},{"id":"2490055","latitude":"49.21277800","longitude":"37.25694400","name":"Izyum"},{"id":"2490117","latitude":"49.63333300","longitude":"35.78333300","name":"Kabakovka"},{"id":"2490139","latitude":"50.01277800","longitude":"35.21888900","name":"Kachalovka"},{"id":"2490176","latitude":"50.10944400","longitude":"35.75666700","name":"Kadnitsa"},{"id":"2490183","latitude":"48.95000000","longitude":"35.46666700","name":"Kadygrob"},{"id":"2490191","latitude":"49.05250000","longitude":"36.84944400","name":"Kagadayevka"},{"id":"2490283","latitude":"49.77611100","longitude":"37.62972200","name":"Kalinovaya"},{"id":"2490288","latitude":"49.25000000","longitude":"35.73333300","name":"Kalinovka"},{"id":"2490311","latitude":"49.43361100","longitude":"37.50277800","name":"Kalinovo"},{"id":"2490388","latitude":"49.30000000","longitude":"35.98333300","name":"Kalyuzhino"},{"id":"2490389","latitude":"49.30000000","longitude":"35.98333300","name":"Kalyuzhnoye"},{"id":"2490433","latitude":"49.12750000","longitude":"37.29444400","name":"Kamenka"},{"id":"2490470","latitude":"49.89861100","longitude":"36.60694400","name":"Kamennaya Yaruga"},{"id":"2490530","latitude":"49.40444400","longitude":"36.41500000","name":"Kaminka"},{"id":"2490548","latitude":"49.65861100","longitude":"36.43861100","name":"Kamplitsa"},{"id":"2490578","latitude":"49.10694400","longitude":"37.09777800","name":"Kamyshevakha"},{"id":"2490583","latitude":"49.12055600","longitude":"36.51861100","name":"Kamyshevakhskiy"},{"id":"2490590","latitude":"50.20083300","longitude":"36.19638900","name":"Kamyshevka"},{"id":"2490594","latitude":"50.20083300","longitude":"36.19638900","name":"Kamyshevkha"},{"id":"2490626","latitude":"49.96805600","longitude":"37.38166700","name":"Kanevtsevo"},{"id":"2490648","latitude":"49.19388900","longitude":"37.35250000","name":"Kapitalovka"},{"id":"2490655","latitude":"49.19388900","longitude":"37.35250000","name":"Kapitolovka"},{"id":"2490656","latitude":"49.78333300","longitude":"35.31666700","name":"Kapitonovka"},{"id":"2490663","latitude":"50.15944400","longitude":"35.09944400","name":"Kaplunivka"},{"id":"2490664","latitude":"50.13583300","longitude":"37.20861100","name":"Kaplunovka"},{"id":"2490684","latitude":"49.72250000","longitude":"36.78138900","name":"Kapustyanka"},{"id":"2490714","latitude":"49.26555600","longitude":"37.64055600","name":"Karachev"},{"id":"2490716","latitude":"49.38166700","longitude":"36.13527800","name":"Karachintsev"},{"id":"2490736","latitude":"50.29583300","longitude":"37.11138900","name":"Karaichnoye"},{"id":"2490744","latitude":"50.00472200","longitude":"35.05805600","name":"Karakoyzovka"},{"id":"2490783","latitude":"50.26708553","longitude":"36.07453812","name":"Karasevka"},{"id":"2490789","latitude":"50.26708553","longitude":"36.07453812","name":"Karasivka"},{"id":"2490802","latitude":"49.60000000","longitude":"35.80000000","name":"Karavan"},{"id":"2490804","latitude":"49.60000000","longitude":"35.80000000","name":"Karavanskoye"},{"id":"2490809","latitude":"50.00472200","longitude":"35.05805600","name":"Karaykozovka"},{"id":"2490813","latitude":"50.30750000","longitude":"35.43083300","name":"Karbyni Ivany"},{"id":"2490859","latitude":"49.76666700","longitude":"35.93333300","name":"Karlovka"},{"id":"2490887","latitude":"49.05111100","longitude":"37.03194400","name":"Karnaukhovka"},{"id":"2490928","latitude":"48.80000000","longitude":"36.73333300","name":"Karpovka"},{"id":"2490945","latitude":"49.27861100","longitude":"36.54027800","name":"Kartamysh"},{"id":"2490946","latitude":"49.89472200","longitude":"37.30472200","name":"Kartavovka"},{"id":"2490974","latitude":"50.33919525","longitude":"36.18722669","name":"Kasatschja Lopan"},{"id":"2490995","latitude":"49.32416700","longitude":"36.20388900","name":"Kashpurovka"},{"id":"2491017","latitude":"49.88472200","longitude":"37.56722200","name":"Kasyanovka"},{"id":"2491040","latitude":"48.75000000","longitude":"36.43333300","name":"Katerinovka"},{"id":"2491050","latitude":"50.00722200","longitude":"37.47000000","name":"Katerynivka"},{"id":"2491077","latitude":"49.94972200","longitude":"37.54888900","name":"Kauchuk"},{"id":"2491104","latitude":"49.38333300","longitude":"35.78333300","name":"Kazachi Maydany"},{"id":"2491106","latitude":"49.38333300","longitude":"35.78333300","name":"Kazachiy Maydan"},{"id":"2491108","latitude":"49.60055600","longitude":"36.21166700","name":"Kazachka"},{"id":"2491111","latitude":"50.33919525","longitude":"36.18722669","name":"Kazachya Lopan"},{"id":"2491113","latitude":"50.42944400","longitude":"35.91972200","name":"KazachyeRudchenskoye"},{"id":"2491114","latitude":"49.38333300","longitude":"35.78333300","name":"Kazachy Maydany"},{"id":"2491169","latitude":"49.28333300","longitude":"35.78333300","name":"Kegich\ufffdvka"},{"id":"2491171","latitude":"49.28333300","longitude":"35.78333300","name":"Kehychivka"},{"id":"2491215","latitude":"48.95000000","longitude":"35.63333300","name":"Kernosovka"},{"id":"2491263","latitude":"50.16916700","longitude":"37.04138900","name":"Kharchenkov"},{"id":"2491270","latitude":"50.00000000","longitude":"36.25000000","name":"Kharkiv"},{"id":"2491272","latitude":"50.00000000","longitude":"36.25000000","name":"Kharkov"},{"id":"2491300","latitude":"50.11805600","longitude":"37.56666700","name":"Khatnee"},{"id":"2491301","latitude":"50.11805600","longitude":"37.56666700","name":"Khatne"},{"id":"2491302","latitude":"50.11805600","longitude":"37.56666700","name":"Khatneye"},{"id":"2491308","latitude":"49.44638900","longitude":"37.33388900","name":"Khaylovka"},{"id":"2491319","latitude":"49.81666700","longitude":"35.28333300","name":"Kheruvimskiy"},{"id":"2491333","latitude":"49.19222200","longitude":"36.24611100","name":"Khimichevka"},{"id":"2491358","latitude":"48.98333300","longitude":"35.98333300","name":"Khizhnyakovka"},{"id":"2491359","latitude":"50.31222200","longitude":"37.46305600","name":"Khizhnyakov"},{"id":"2491400","latitude":"50.12611100","longitude":"37.66000000","name":"Khmelevka"},{"id":"2491489","latitude":"49.43333300","longitude":"35.33333300","name":"Kholodnoye Pleso"},{"id":"2491518","latitude":"49.46555600","longitude":"37.62333300","name":"Khomino"},{"id":"2491526","latitude":"49.05000000","longitude":"35.53333300","name":"Khomutovka"},{"id":"2491564","latitude":"49.86777800","longitude":"36.16500000","name":"Khorosheve"},{"id":"2491566","latitude":"49.86777800","longitude":"36.16500000","name":"Khoroshevo"},{"id":"2491593","latitude":"50.04166700","longitude":"35.64833300","name":"Khoruzhi"},{"id":"2491615","latitude":"50.02187913","longitude":"36.87693478","name":"Khotimlya"},{"id":"2491628","latitude":"50.02187913","longitude":"36.87693478","name":"Khotomlya"},{"id":"2491678","latitude":"50.35055600","longitude":"37.30805600","name":"Khripun"},{"id":"2491796","latitude":"50.31277800","longitude":"37.14000000","name":"Khutora Zybino"},{"id":"2491797","latitude":"50.08583300","longitude":"35.61666700","name":"Khutor Babynki"},{"id":"2491814","latitude":"49.88333300","longitude":"35.68333300","name":"Khutor Bolgar"},{"id":"2491816","latitude":"49.71666700","longitude":"35.58333300","name":"Khutor Bolshaya Gubshchina"},{"id":"2491827","latitude":"50.31666700","longitude":"35.98333300","name":"Khutor Bugai Pervyye"},{"id":"2491828","latitude":"50.25000000","longitude":"35.91666700","name":"Khutor Bugai Vtoryye"},{"id":"2491842","latitude":"49.58333300","longitude":"35.45000000","name":"Khutor Dandasovka"},{"id":"2491843","latitude":"50.27694400","longitude":"35.47583300","name":"Khutor Degtyary"},{"id":"2491845","latitude":"49.96666700","longitude":"35.48333300","name":"Khutor Dergachi"},{"id":"2491859","latitude":"50.13500000","longitude":"35.95277800","name":"Khutor Feski"},{"id":"2491863","latitude":"50.28805600","longitude":"35.52916700","name":"Khutor Garbuzy"},{"id":"2491867","latitude":"49.85000000","longitude":"35.86666700","name":"Khutor Gelunev Gorb"},{"id":"2491871","latitude":"49.81666700","longitude":"35.53333300","name":"Khutor GontovYar"},{"id":"2491883","latitude":"48.85000000","longitude":"35.51666700","name":"Khutor Ilicha"},{"id":"2491901","latitude":"49.35111100","longitude":"36.17027800","name":"Khutor"},{"id":"2491903","latitude":"49.98333300","longitude":"35.55000000","name":"Khutor Kirasirskiy"},{"id":"2491908","latitude":"48.86666700","longitude":"36.41666700","name":"Khutor Korolenko"},{"id":"2491913","latitude":"49.96666700","longitude":"35.16666700","name":"Khutor Kovalchukovskiy"},{"id":"2491914","latitude":"49.95000000","longitude":"35.86666700","name":"Khutor Kovalenkov"},{"id":"2491927","latitude":"49.45138900","longitude":"36.75500000","name":"Khutor Krinichnyy"},{"id":"2491939","latitude":"49.91666700","longitude":"35.71666700","name":"Khutor Likhovka"},{"id":"2491944","latitude":"50.21666700","longitude":"35.76666700","name":"Khutor Lozovoy"},{"id":"2491945","latitude":"48.76666700","longitude":"36.50000000","name":"Khutor Lukashevo"},{"id":"2491947","latitude":"50.27916700","longitude":"35.65444400","name":"Khutor Lyakhov"},{"id":"2491948","latitude":"49.68333300","longitude":"35.70000000","name":"Khutor Lyashova"},{"id":"2491952","latitude":"49.70000000","longitude":"35.55000000","name":"Khutor Malaya Gubshchina"},{"id":"2491955","latitude":"49.98333300","longitude":"35.86666700","name":"Khutor Manchenkov"},{"id":"2491956","latitude":"50.30527800","longitude":"35.97861100","name":"Khutor Marenka"},{"id":"2491966","latitude":"50.16666700","longitude":"35.60000000","name":"Khutor Moskalenki"},{"id":"2491967","latitude":"49.70000000","longitude":"35.71666700","name":"Khutor Moskaltsova"},{"id":"2491971","latitude":"50.13333300","longitude":"35.53694400","name":"Khutor Musiyki"},{"id":"2491973","latitude":"49.98333300","longitude":"35.58333300","name":"Khutor Nadezhnyy"},{"id":"2491975","latitude":"50.30555600","longitude":"35.59444400","name":"Khutor Nakaznyye"},{"id":"2492012","latitude":"49.68333300","longitude":"35.95000000","name":"Khutor Ordivka"},{"id":"2492017","latitude":"50.31694400","longitude":"35.60305600","name":"Khutor Ostrasy"},{"id":"2492023","latitude":"49.58472200","longitude":"36.19750000","name":"Khutor Pasiki"},{"id":"2492030","latitude":"49.73333300","longitude":"35.68333300","name":"Khutor Peresel"},{"id":"2492036","latitude":"50.33333300","longitude":"35.91666700","name":"Khutor Petrovka"},{"id":"2492041","latitude":"48.96666700","longitude":"36.11666700","name":"Khutor Petrovskiy"},{"id":"2492048","latitude":"50.18333300","longitude":"35.68333300","name":"Khutor Popovka"},{"id":"2492054","latitude":"49.73333300","longitude":"35.66666700","name":"Khutor Prusovka"},{"id":"2492060","latitude":"49.68333300","longitude":"35.51666700","name":"Khutor Razumnyy"},{"id":"2492063","latitude":"49.93333300","longitude":"35.90000000","name":"Khutor Revchik"},{"id":"2492067","latitude":"49.93666700","longitude":"36.49083300","name":"Khutor Rogan"},{"id":"2492074","latitude":"49.76666700","longitude":"35.58333300","name":"Khutor Rudoy Bayrak"},{"id":"2492077","latitude":"50.03333300","longitude":"35.60000000","name":"Khutor Sakhny"},{"id":"2492084","latitude":"50.11833300","longitude":"35.51527800","name":"Khutor Semenov Yar"},{"id":"2492110","latitude":"50.13666700","longitude":"35.78805600","name":"Khutor Smelyy Pervyy"},{"id":"2492111","latitude":"50.13333300","longitude":"35.80000000","name":"Khutor Smelyy Tretiy"},{"id":"2492112","latitude":"50.13333300","longitude":"35.78333300","name":"Khutor Smelyy Vtoroy"},{"id":"2492114","latitude":"49.80000000","longitude":"35.51666700","name":"Khutor Snezhkov Kut"},{"id":"2492127","latitude":"48.91666700","longitude":"36.18333300","name":"Khutor Strastnoy"},{"id":"2492132","latitude":"50.00000000","longitude":"35.61666700","name":"Khutor Tarasovka"},{"id":"2492134","latitude":"49.85000000","longitude":"35.93333300","name":"Khutor Timchenko"},{"id":"2492178","latitude":"49.95000000","longitude":"35.61666700","name":"Khutor Voytenkov"},{"id":"2492183","latitude":"49.07500000","longitude":"36.30527800","name":"Khutor Yakovlevskiy"},{"id":"2492209","latitude":"49.95000000","longitude":"35.56666700","name":"Khutor Zhuravli"},{"id":"2492211","latitude":"50.08333300","longitude":"35.86666700","name":"Khutor Zinkovskiy"},{"id":"2492298","latitude":"49.24305600","longitude":"36.18194400","name":"Kiptivka"},{"id":"2492306","latitude":"49.98333300","longitude":"35.55000000","name":"Kirasirskiy"},{"id":"2492314","latitude":"49.31250000","longitude":"37.04861100","name":"Kirichinovka"},{"id":"2492321","latitude":"49.51666700","longitude":"35.61666700","name":"Kirillovka"},{"id":"2492338","latitude":"48.95000000","longitude":"35.63333300","name":"Kirnosovka"},{"id":"2492339","latitude":"50.30944400","longitude":"37.36277800","name":"Kirnosov"},{"id":"2492353","latitude":"48.86666700","longitude":"36.41666700","name":"Kirovo"},{"id":"2492389","latitude":"49.43583300","longitude":"36.44416700","name":"Kiseli"},{"id":"2492395","latitude":"49.80000000","longitude":"35.35000000","name":"Kisevka"},{"id":"2492396","latitude":"49.80000000","longitude":"35.35000000","name":"Kisev"},{"id":"2492425","latitude":"49.64083300","longitude":"37.89055600","name":"Kislovka"},{"id":"2492428","latitude":"49.68472200","longitude":"37.93111100","name":"Kislovskiy"},{"id":"2492443","latitude":"49.96666700","longitude":"35.20000000","name":"Kitchenkovka"},{"id":"2492444","latitude":"49.96666700","longitude":"35.20000000","name":"Kitchinkovskiy"},{"id":"2492450","latitude":"49.86666700","longitude":"36.81666700","name":"Kitsevka"},{"id":"2492452","latitude":"48.76666700","longitude":"35.70000000","name":"Kivach\ufffdvka"},{"id":"2492456","latitude":"49.62138900","longitude":"37.70305600","name":"Kivsharivka"},{"id":"2492469","latitude":"50.06250000","longitude":"35.55722200","name":"Kiyany"},{"id":"2492492","latitude":"49.23333300","longitude":"35.20000000","name":"Kizimi"},{"id":"2492513","latitude":"48.85000000","longitude":"35.61666700","name":"Klebtsova"},{"id":"2492531","latitude":"50.14722200","longitude":"35.69111100","name":"Klenovoye"},{"id":"2492557","latitude":"48.85000000","longitude":"35.61666700","name":"Klevtsova"},{"id":"2492570","latitude":"49.55833300","longitude":"36.19333300","name":"Klimenkovka"},{"id":"2492571","latitude":"49.55833300","longitude":"36.19333300","name":"Klimenovka"},{"id":"2492583","latitude":"49.31666700","longitude":"35.13333300","name":"Klimovka"},{"id":"2492641","latitude":"49.84694400","longitude":"36.70888900","name":"KluginoBashkirovka"},{"id":"2492642","latitude":"49.84694400","longitude":"36.70888900","name":"Kluginovka"},{"id":"2492662","latitude":"49.67888900","longitude":"36.00527800","name":"Klyuchevonsk"},{"id":"2492668","latitude":"50.06688501","longitude":"36.47867869","name":"Klyuchki"},{"id":"2492669","latitude":"50.06688501","longitude":"36.47867869","name":"Klyuchkin"},{"id":"2492715","latitude":"49.11666700","longitude":"36.46666700","name":"Knyazevka"},{"id":"2492718","latitude":"49.11666700","longitude":"36.46666700","name":"Knyazevo"},{"id":"2492721","latitude":"49.96666700","longitude":"35.36666700","name":"Knyazha Dolyna"},{"id":"2492749","latitude":"49.63333300","longitude":"35.93333300","name":"Knyazhnoye"},{"id":"2492750","latitude":"49.63333300","longitude":"35.93333300","name":"Knyazhnoy"},{"id":"2492805","latitude":"49.78333300","longitude":"35.66666700","name":"Kobzarevka"},{"id":"2492817","latitude":"49.88138900","longitude":"36.73694400","name":"Kochegok"},{"id":"2492820","latitude":"48.76666700","longitude":"35.80000000","name":"Kocherezhskiye"},{"id":"2492826","latitude":"49.88138900","longitude":"36.73694400","name":"Kochetok"},{"id":"2492834","latitude":"50.26544044","longitude":"36.23849861","name":"Kochubeyevka"},{"id":"2492875","latitude":"49.28333300","longitude":"35.86666700","name":"Kokhanovka"},{"id":"2492887","latitude":"48.73333300","longitude":"36.26666700","name":"Kokhovskiy"},{"id":"2492904","latitude":"49.98333300","longitude":"34.96666700","name":"Kolantayev"},{"id":"2492936","latitude":"49.28083300","longitude":"36.21888900","name":"Kolesnikovka"},{"id":"2492938","latitude":"49.75666700","longitude":"36.11222200","name":"Kolesnikov"},{"id":"2492952","latitude":"49.62305600","longitude":"37.19111100","name":"Kolisnikovka"},{"id":"2492953","latitude":"49.62305600","longitude":"37.19111100","name":"Kolisnykovka"},{"id":"2492961","latitude":"49.46805600","longitude":"37.68611100","name":"Kolkhoznyy"},{"id":"2492988","latitude":"50.01027800","longitude":"37.69694400","name":"Kolodeznoye"},{"id":"2493006","latitude":"49.89333300","longitude":"37.81555600","name":"Kolodnyy"},{"id":"2493012","latitude":"50.01027800","longitude":"37.69694400","name":"Kolodyazhnoye"},{"id":"2493016","latitude":"50.01027800","longitude":"37.69694400","name":"Kolodyazne"},{"id":"2493025","latitude":"49.83333300","longitude":"35.30000000","name":"Kolomak"},{"id":"2493044","latitude":"50.28353642","longitude":"36.23740189","name":"Kolonia Hoptivka"},{"id":"2493047","latitude":"49.38333300","longitude":"37.85000000","name":"Kolonia Khutir Stepy"},{"id":"2493090","latitude":"48.73333300","longitude":"36.83333300","name":"Koloniya Ivanovskaya"},{"id":"2493093","latitude":"49.17055600","longitude":"36.04611100","name":"Koloniya"},{"id":"2493201","latitude":"49.68138900","longitude":"37.60722200","name":"Kolontayevka"},{"id":"2493202","latitude":"49.98333300","longitude":"34.96666700","name":"Kolontayev"},{"id":"2493220","latitude":"49.13333300","longitude":"35.01666700","name":"Kolpakovka"},{"id":"2493237","latitude":"50.19308114","longitude":"36.42760795","name":"Kolupayevka"},{"id":"2493265","latitude":"49.24444400","longitude":"37.49472200","name":"Komarovka"},{"id":"2493305","latitude":"49.61611100","longitude":"36.31833300","name":"Komendantov"},{"id":"2493309","latitude":"48.90000000","longitude":"35.75000000","name":"Komintern"},{"id":"2493316","latitude":"49.67611100","longitude":"37.44388900","name":"Komissarovka"},{"id":"2493321","latitude":"50.28722200","longitude":"37.49750000","name":"Komissarov"},{"id":"2493328","latitude":"49.09694400","longitude":"36.18166700","name":"Kommuna Imeni"},{"id":"2493347","latitude":"49.53555600","longitude":"36.71444400","name":"Kommunist"},{"id":"2493357","latitude":"49.77555600","longitude":"37.44972200","name":"Komsomolets"},{"id":"2493361","latitude":"49.59472200","longitude":"36.52527800","name":"Komsomolske"},{"id":"2493370","latitude":"48.96666700","longitude":"36.15000000","name":"Komsomolskoye"},{"id":"2493382","latitude":"49.65000000","longitude":"35.50000000","name":"Komyshuvata"},{"id":"2493390","latitude":"49.76944400","longitude":"37.58250000","name":"Kondrashevka"},{"id":"2493392","latitude":"49.76944400","longitude":"37.58250000","name":"Kondrashovka"},{"id":"2493405","latitude":"49.76944400","longitude":"37.58250000","name":"Kondrshevka"},{"id":"2493423","latitude":"49.02083300","longitude":"36.55138900","name":"Konnoye"},{"id":"2493426","latitude":"49.70750000","longitude":"36.13055600","name":"Kononenkov"},{"id":"2493458","latitude":"49.31666700","longitude":"35.41666700","name":"Konstantinodar"},{"id":"2493459","latitude":"49.36666700","longitude":"35.45000000","name":"Konstantinograd"},{"id":"2493467","latitude":"49.10000000","longitude":"35.68333300","name":"Konstantinovka"},{"id":"2493481","latitude":"49.78305600","longitude":"36.25861100","name":"Konstantovka"},{"id":"2493506","latitude":"50.38138900","longitude":"36.00694400","name":"Konyki"},{"id":"2493528","latitude":"49.26444400","longitude":"36.31638900","name":"Kooperatorka"},{"id":"2493549","latitude":"48.90000000","longitude":"36.05000000","name":"Kopani"},{"id":"2493557","latitude":"49.47361100","longitude":"36.58638900","name":"Kopanka"},{"id":"2493559","latitude":"49.09138900","longitude":"37.14694400","name":"Kopanki"},{"id":"2493617","latitude":"50.08459268","longitude":"36.17799645","name":"Kopyten"},{"id":"2493629","latitude":"50.30750000","longitude":"35.43083300","name":"Korbany Ivany"},{"id":"2493631","latitude":"50.30750000","longitude":"35.43083300","name":"Korbiny Ivany"},{"id":"2493632","latitude":"49.09666700","longitude":"36.84194400","name":"Korbovka"},{"id":"2493674","latitude":"49.97388900","longitude":"37.68416700","name":"Korechnoye"},{"id":"2493721","latitude":"50.11786085","longitude":"36.00124467","name":"Korobki"},{"id":"2493724","latitude":"49.77638900","longitude":"36.82000000","name":"Korobochkino"},{"id":"2493726","latitude":"49.58888900","longitude":"36.34277800","name":"Korobov"},{"id":"2493758","latitude":"49.58888900","longitude":"36.34277800","name":"Koropov"},{"id":"2493759","latitude":"49.58888900","longitude":"36.34277800","name":"Koropovo"},{"id":"2493792","latitude":"49.94444400","longitude":"36.03444400","name":"Korotich"},{"id":"2493793","latitude":"50.25472200","longitude":"35.46194400","name":"Korotkiy"},{"id":"2493796","latitude":"49.94444400","longitude":"36.03444400","name":"Korotych"},{"id":"2493873","latitude":"49.73861100","longitude":"37.84555600","name":"Korzhovka"},{"id":"2493964","latitude":"49.20000000","longitude":"34.96666700","name":"Kosogor"},{"id":"2493998","latitude":"49.86666700","longitude":"35.65000000","name":"Kostev"},{"id":"2494039","latitude":"49.00638900","longitude":"36.28527800","name":"Kostyanka"},{"id":"2494054","latitude":"49.65527800","longitude":"36.38527800","name":"Kostyukovka"},{"id":"2494073","latitude":"50.13388900","longitude":"37.06444400","name":"Kotavka"},{"id":"2494095","latitude":"49.34361100","longitude":"37.40555600","name":"Kotlyarovka"},{"id":"2494099","latitude":"49.91277800","longitude":"36.27388900","name":"Kotlyary"},{"id":"2494102","latitude":"49.13333300","longitude":"34.95000000","name":"Kotovka"},{"id":"2494151","latitude":"50.21416700","longitude":"36.07166700","name":"Koty"},{"id":"2494163","latitude":"49.96666700","longitude":"35.16666700","name":"Kovalchyukovskiy"},{"id":"2494167","latitude":"49.95000000","longitude":"35.86666700","name":"Kovalenkov"},{"id":"2494170","latitude":"49.66444400","longitude":"36.40500000","name":"Kovalevka"},{"id":"2494185","latitude":"50.33861100","longitude":"35.92055600","name":"Kovali"},{"id":"2494203","latitude":"49.26666700","longitude":"35.33333300","name":"Kovlovshchyna"},{"id":"2494208","latitude":"49.62138900","longitude":"37.70305600","name":"Kovsharovka"},{"id":"2494209","latitude":"49.62138900","longitude":"37.70305600","name":"Kovsharov"},{"id":"2494214","latitude":"49.45333300","longitude":"36.99055600","name":"Kovtunovka"},{"id":"2494218","latitude":"49.90000000","longitude":"35.55000000","name":"Kovyagi"},{"id":"2494219","latitude":"49.90000000","longitude":"35.55000000","name":"Kov\"yahy"},{"id":"2494232","latitude":"50.33919525","longitude":"36.18722669","name":"Kozacha Lopan"},{"id":"2494233","latitude":"50.43333300","longitude":"35.91666700","name":"Kozachek"},{"id":"2494243","latitude":"50.33919525","longitude":"36.18722669","name":"Kozachya Lopan"},{"id":"2494302","latitude":"50.14277800","longitude":"35.20916700","name":"Koziyevka"},{"id":"2494315","latitude":"50.22805600","longitude":"36.58666700","name":"Kozlov"},{"id":"2494345","latitude":"50.14277800","longitude":"35.20916700","name":"Kozyevka"},{"id":"2494347","latitude":"49.44944400","longitude":"37.28055600","name":"Kozylovka"},{"id":"2494349","latitude":"49.08333300","longitude":"35.26666700","name":"Kozyrshchina"},{"id":"2494354","latitude":"49.57416700","longitude":"37.91666700","name":"Krakhmalnyy"},{"id":"2494361","latitude":"49.28027800","longitude":"37.26083300","name":"Kramarovka"},{"id":"2494382","latitude":"50.10805600","longitude":"37.25694400","name":"Krasenopolye"},{"id":"2494385","latitude":"49.25222200","longitude":"37.82055600","name":"Krashche Zhittya"},{"id":"2494401","latitude":"49.28000000","longitude":"36.47777800","name":"Krasivoye"},{"id":"2494402","latitude":"49.26388900","longitude":"36.41750000","name":"Krasivskoy"},{"id":"2494416","latitude":"49.95000000","longitude":"36.36666700","name":"Krasnaya Armiya"},{"id":"2494417","latitude":"49.20972200","longitude":"36.70555600","name":"Krasnaya Balka"},{"id":"2494418","latitude":"50.02250000","longitude":"37.60166700","name":"Krasnaya Dolina"},{"id":"2494424","latitude":"49.39472200","longitude":"36.88333300","name":"Krasnaya Gusarovka"},{"id":"2494439","latitude":"49.02333300","longitude":"36.92333300","name":"Krasnaya Polyana"},{"id":"2494460","latitude":"49.46666700","longitude":"35.45000000","name":"Krasnaya Zarya"},{"id":"2494486","latitude":"49.87333300","longitude":"37.24166700","name":"Krasnoarmeyskiy"},{"id":"2494491","latitude":"49.08333300","longitude":"35.46666700","name":"Krasnoarmeysk"},{"id":"2494494","latitude":"49.08333300","longitude":"35.46666700","name":"Krasnoarmeyskoye"},{"id":"2494500","latitude":"50.07388900","longitude":"37.14055600","name":"Krasnoarmeyskoye Vtoroye"},{"id":"2494523","latitude":"49.36666700","longitude":"35.45000000","name":"Krasnograd"},{"id":"2494531","latitude":"49.36666700","longitude":"35.45000000","name":"Krasnohrad"},{"id":"2494538","latitude":"50.05222200","longitude":"35.16444400","name":"Krasnokutsk"},{"id":"2494552","latitude":"49.13722200","longitude":"36.32722200","name":"Krasnopavlivka"},{"id":"2494553","latitude":"49.13722200","longitude":"36.32722200","name":"Krasnopavlovka"},{"id":"2494554","latitude":"49.13388900","longitude":"36.26500000","name":"Krasnopavlovka Pervaya"},{"id":"2494555","latitude":"49.13361100","longitude":"36.30055600","name":"Krasnopavlovka Vtoraya"},{"id":"2494565","latitude":"49.16666700","longitude":"34.85000000","name":"Krasnopol"},{"id":"2494571","latitude":"48.98333300","longitude":"37.41666700","name":"Krasnopolye"},{"id":"2494578","latitude":"48.98333300","longitude":"37.41666700","name":"Krasnopolye Vtoroye"},{"id":"2494633","latitude":"49.21055600","longitude":"37.82833300","name":"Krasnoyarskoye"},{"id":"2494640","latitude":"49.16666700","longitude":"35.68333300","name":"Krasnoye"},{"id":"2494658","latitude":"49.93888900","longitude":"37.80222200","name":"Krasnoye Pervoye"},{"id":"2494671","latitude":"49.56666700","longitude":"35.38333300","name":"Krasnoznamenka"},{"id":"2494690","latitude":"50.28222200","longitude":"36.45444400","name":"Krasny"},{"id":"2494708","latitude":"49.18111100","longitude":"37.42333300","name":"Krasny Oskol"},{"id":"2494723","latitude":"49.51000000","longitude":"36.57250000","name":"Krasnyy Donets"},{"id":"2494732","latitude":"49.65500000","longitude":"36.08000000","name":"Krasnyy Gigant"},{"id":"2494742","latitude":"49.41500000","longitude":"36.13666700","name":"Krasnyy"},{"id":"2494754","latitude":"49.03000000","longitude":"36.29250000","name":"Krasnyy Kut"},{"id":"2494760","latitude":"49.11222200","longitude":"36.80777800","name":"Krasnyy Liman"},{"id":"2494770","latitude":"49.40805600","longitude":"37.25861100","name":"Krasnyy Oktyabr"},{"id":"2494774","latitude":"49.18111100","longitude":"37.42333300","name":"Krasnyy Oskol"},{"id":"2494786","latitude":"49.18833300","longitude":"37.05527800","name":"Krasnyy Shakhter"},{"id":"2494793","latitude":"50.39156390","longitude":"36.19188777","name":"Krasnyy Veterinar"},{"id":"2494795","latitude":"49.06277800","longitude":"37.44083300","name":"Krasnyy Yar"},{"id":"2494821","latitude":"49.56666700","longitude":"37.31944400","name":"Kravtsovka"},{"id":"2494830","latitude":"50.40719224","longitude":"36.13019695","name":"Kraznaya Zorya"},{"id":"2494893","latitude":"49.54888900","longitude":"37.55888900","name":"Kreshchatoye"},{"id":"2494897","latitude":"49.55000000","longitude":"35.51666700","name":"Krestishche"},{"id":"2494908","latitude":"49.43638900","longitude":"36.77722200","name":"Kreydyanka"},{"id":"2494910","latitude":"50.15194400","longitude":"37.09444400","name":"Kreydyanyy"},{"id":"2494939","latitude":"49.59888900","longitude":"37.78138900","name":"Krinichki"},{"id":"2494950","latitude":"49.45138900","longitude":"36.75500000","name":"Krinichnoye"},{"id":"2494955","latitude":"49.99500000","longitude":"37.77638900","name":"Krinichnyy"},{"id":"2494973","latitude":"48.68333300","longitude":"36.30000000","name":"Krishtopovka"},{"id":"2494997","latitude":"49.05000000","longitude":"35.28333300","name":"Krivets"},{"id":"2495086","latitude":"50.19416700","longitude":"37.47694400","name":"Kruglenkoye"},{"id":"2495094","latitude":"49.94777800","longitude":"37.60055600","name":"Krugloye"},{"id":"2495097","latitude":"49.53416700","longitude":"37.72250000","name":"Kruglyakovka"},{"id":"2495126","latitude":"50.07416700","longitude":"35.81500000","name":"Krupchany"},{"id":"2495145","latitude":"50.06666700","longitude":"35.50000000","name":"Krushch\ufffdvaya Nikitovka"},{"id":"2495153","latitude":"50.10416700","longitude":"35.61555600","name":"Krusino"},{"id":"2495159","latitude":"49.02333300","longitude":"36.70611100","name":"Krutaya Balka"},{"id":"2495180","latitude":"49.29138900","longitude":"36.58666700","name":"Krutoyarka"},{"id":"2495183","latitude":"49.05000000","longitude":"35.53333300","name":"Krutoyarovka"},{"id":"2495221","latitude":"49.13888900","longitude":"37.56833300","name":"Krymki"},{"id":"2495243","latitude":"48.68333300","longitude":"36.30000000","name":"Kryshtopovka"},{"id":"2495245","latitude":"50.10416700","longitude":"35.61555600","name":"Krysino"},{"id":"2495253","latitude":"50.13444400","longitude":"35.39944400","name":"Kryuchik"},{"id":"2495254","latitude":"49.51638900","longitude":"37.16027800","name":"Kryuchki"},{"id":"2495314","latitude":"49.20583300","longitude":"36.17972200","name":"Kuberla"},{"id":"2495326","latitude":"49.71777800","longitude":"37.64027800","name":"Kucherovka"},{"id":"2495365","latitude":"50.29121350","longitude":"36.26317494","name":"Kudayevka"},{"id":"2495367","latitude":"50.29121350","longitude":"36.26317494","name":"Kudeyevka"},{"id":"2495370","latitude":"49.51916700","longitude":"37.52138900","name":"Kudinov"},{"id":"2495371","latitude":"50.29121350","longitude":"36.26317494","name":"Kudiyevka"},{"id":"2495436","latitude":"49.96666700","longitude":"36.90000000","name":"Kulakovka"},{"id":"2495474","latitude":"50.21770650","longitude":"36.15672896","name":"Kuliki"},{"id":"2495493","latitude":"49.98194400","longitude":"36.37833300","name":"Kulinichi"},{"id":"2495523","latitude":"49.98194400","longitude":"36.37833300","name":"Kulynychi"},{"id":"2495553","latitude":"49.37833300","longitude":"37.25972200","name":"Kunye"},{"id":"2495558","latitude":"49.05888900","longitude":"36.42777800","name":"Kupchynivka"},{"id":"2495567","latitude":"50.20444400","longitude":"35.25055600","name":"Kupevakha"},{"id":"2495569","latitude":"50.20444400","longitude":"35.25055600","name":"Kupewacha"},{"id":"2495576","latitude":"50.25027800","longitude":"37.46361100","name":"Kupin"},{"id":"2495580","latitude":"49.72138900","longitude":"37.59805600","name":"Kupjansk"},{"id":"2495593","latitude":"49.30722200","longitude":"37.28861100","name":"Kupyanka"},{"id":"2495594","latitude":"49.72138900","longitude":"37.59805600","name":"Kup\"yansk"},{"id":"2495595","latitude":"49.66000000","longitude":"37.66611100","name":"Kupyansk Uslovoi"},{"id":"2495596","latitude":"49.66000000","longitude":"37.66611100","name":"Kupyansk Uzlovoi"},{"id":"2495597","latitude":"49.66000000","longitude":"37.66611100","name":"KupyanskUzlovoy"},{"id":"2495598","latitude":"49.66000000","longitude":"37.66611100","name":"Kup\"yansk Vuzlovyy"},{"id":"2495599","latitude":"50.11138900","longitude":"36.70055600","name":"Kupyevakha"},{"id":"2495618","latitude":"50.01178956","longitude":"36.07402576","name":"Kurazh"},{"id":"2495635","latitude":"50.28250000","longitude":"37.59222200","name":"Kurenki"},{"id":"2495645","latitude":"50.01178956","longitude":"36.07402576","name":"Kuriazh"},{"id":"2495650","latitude":"49.66000000","longitude":"37.71833300","name":"Kurilovka"},{"id":"2495685","latitude":"48.63333300","longitude":"37.06666700","name":"Kuroyedovka"},{"id":"2495697","latitude":"48.95000000","longitude":"37.25000000","name":"Kurulka"},{"id":"2495698","latitude":"48.95000000","longitude":"37.25000000","name":"Kurulka Pervaya"},{"id":"2495699","latitude":"48.95000000","longitude":"37.25000000","name":"Kurulka Vtoraya"},{"id":"2495704","latitude":"49.68916700","longitude":"36.13972200","name":"Kuryache"},{"id":"2495716","latitude":"50.01178956","longitude":"36.07402576","name":"Kuryazhanka"},{"id":"2495729","latitude":"49.49138900","longitude":"37.49583300","name":"Kushchuvakha"},{"id":"2495766","latitude":"49.96666700","longitude":"35.20000000","name":"Kutchinkovskiy"},{"id":"2495778","latitude":"49.82444400","longitude":"37.93416700","name":"Kutkovka"},{"id":"2495797","latitude":"49.16666700","longitude":"35.95000000","name":"KutsoGanebne"},{"id":"2495808","latitude":"50.04465762","longitude":"36.46967751","name":"Kutuzovka"},{"id":"2495950","latitude":"49.46583300","longitude":"36.80472200","name":"Lageri"},{"id":"2495985","latitude":"49.68333300","longitude":"35.46666700","name":"Landygi"},{"id":"2495986","latitude":"49.68333300","longitude":"35.46666700","name":"Landyshevo"},{"id":"2496070","latitude":"49.80000000","longitude":"35.33333300","name":"Latysh\ufffdvka"},{"id":"2496071","latitude":"49.80000000","longitude":"35.33333300","name":"Latyshov"},{"id":"2496084","latitude":"49.67944400","longitude":"36.28944400","name":"Lavrovka"},{"id":"2496110","latitude":"50.29250000","longitude":"35.60861100","name":"Lazorki"},{"id":"2496115","latitude":"49.21888900","longitude":"36.56416700","name":"Lazovskiy"},{"id":"2496116","latitude":"49.73583300","longitude":"36.43555600","name":"Lazukovka"},{"id":"2496123","latitude":"49.16666700","longitude":"36.00000000","name":"Lebedevka"},{"id":"2496127","latitude":"50.02250000","longitude":"36.54361100","name":"Lebedinka"},{"id":"2496137","latitude":"49.16666700","longitude":"36.00000000","name":"Lebedovka"},{"id":"2496140","latitude":"49.26666700","longitude":"35.33333300","name":"Lebyazhye"},{"id":"2496176","latitude":"49.78388900","longitude":"37.13277800","name":"Lelyukovka"},{"id":"2496189","latitude":"50.33333300","longitude":"35.71666700","name":"Lemishchin"},{"id":"2496190","latitude":"50.33333300","longitude":"35.71666700","name":"Lemishchino"},{"id":"2496200","latitude":"49.98333300","longitude":"36.47805600","name":"Lenina"},{"id":"2496214","latitude":"49.46666700","longitude":"35.41666700","name":"Leninka"},{"id":"2496249","latitude":"49.34472200","longitude":"36.00916700","name":"Lenivka"},{"id":"2496255","latitude":"50.25000000","longitude":"36.28333300","name":"Lennoy"},{"id":"2496286","latitude":"50.16464732","longitude":"36.05655764","name":"Leshchenki"},{"id":"2496301","latitude":"49.05027800","longitude":"36.09250000","name":"Lesivka"},{"id":"2496309","latitude":"50.20361100","longitude":"35.48805600","name":"Leskovka"},{"id":"2496319","latitude":"49.48055600","longitude":"37.63250000","name":"Lesnaya Stenka"},{"id":"2496331","latitude":"50.10955220","longitude":"36.27662851","name":"Lesnoye"},{"id":"2496385","latitude":"49.88333300","longitude":"35.50000000","name":"Levendalovka"},{"id":"2496390","latitude":"48.91666700","longitude":"35.61666700","name":"Leventsovka"},{"id":"2496398","latitude":"49.29305600","longitude":"37.14166700","name":"Levkovka"},{"id":"2496408","latitude":"48.61666700","longitude":"37.13333300","name":"Levshino"},{"id":"2496410","latitude":"49.29305600","longitude":"37.14166700","name":"Lewkowka"},{"id":"2496411","latitude":"49.24722200","longitude":"36.43888900","name":"Leybovka"},{"id":"2496445","latitude":"49.15750000","longitude":"36.05444400","name":"Ligovka"},{"id":"2496450","latitude":"50.03027800","longitude":"37.79055600","name":"Likhachobovka"},{"id":"2496452","latitude":"50.03027800","longitude":"37.79055600","name":"Likholobovka"},{"id":"2496455","latitude":"49.91666700","longitude":"35.71666700","name":"Likhov"},{"id":"2496465","latitude":"49.00416700","longitude":"36.60138900","name":"Liman"},{"id":"2496468","latitude":"49.79055600","longitude":"37.70472200","name":"Liman Pervyy"},{"id":"2496473","latitude":"49.95444400","longitude":"37.87361100","name":"Liman Vtoroy"},{"id":"2496499","latitude":"49.32027800","longitude":"37.31277800","name":"Lipchanovka"},{"id":"2496507","latitude":"50.27860115","longitude":"36.33720392","name":"Lipetskoye"},{"id":"2496534","latitude":"49.95000000","longitude":"36.16666700","name":"Lipovaya Rosheha"},{"id":"2496566","latitude":"50.20311369","longitude":"36.40511071","name":"Liptsi"},{"id":"2496567","latitude":"50.15361100","longitude":"36.53638900","name":"Liptsy"},{"id":"2496571","latitude":"50.20311369","longitude":"36.40511071","name":"Lipzy"},{"id":"2496572","latitude":"50.00670177","longitude":"36.18431385","name":"Lisa Hora"},{"id":"2496626","latitude":"49.27722200","longitude":"36.08361100","name":"Lisovinovka"},{"id":"2496628","latitude":"49.59055600","longitude":"36.74888900","name":"Lisovitskiy"},{"id":"2496684","latitude":"49.85000000","longitude":"35.70000000","name":"Litvinovka"},{"id":"2496707","latitude":"49.81500000","longitude":"36.38694400","name":"Lizogubovka"},{"id":"2496713","latitude":"50.31138900","longitude":"35.81638900","name":"Ljutowka"},{"id":"2496724","latitude":"50.26845644","longitude":"36.18859759","name":"Lobanovka"},{"id":"2496725","latitude":"50.26722200","longitude":"37.45333300","name":"Lobanov"},{"id":"2496737","latitude":"50.33222200","longitude":"36.12194400","name":"Loboykov"},{"id":"2496741","latitude":"48.95000000","longitude":"36.78333300","name":"Lochinov"},{"id":"2496742","latitude":"48.95000000","longitude":"36.78333300","name":"Lochinovo"},{"id":"2496748","latitude":"49.92055600","longitude":"36.35861100","name":"Logachevka"},{"id":"2496831","latitude":"50.17754522","longitude":"36.89521496","name":"Losevka"},{"id":"2496833","latitude":"49.95361100","longitude":"36.32166700","name":"Losevo"},{"id":"2496835","latitude":"50.31944400","longitude":"37.46083300","name":"Loshakov"},{"id":"2496850","latitude":"50.11082163","longitude":"36.22087810","name":"Losovoye Cherkasskoye"},{"id":"2496851","latitude":"48.88333300","longitude":"36.38333300","name":"Losowaja"},{"id":"2496853","latitude":"49.18333300","longitude":"35.80000000","name":"Losse"},{"id":"2496893","latitude":"48.88333300","longitude":"36.38333300","name":"Lozova"},{"id":"2496908","latitude":"49.01666700","longitude":"35.78333300","name":"Lozovatyy"},{"id":"2496912","latitude":"48.88333300","longitude":"36.38333300","name":"Lozovaya"},{"id":"2496918","latitude":"49.88916700","longitude":"37.49694400","name":"Lozovaya Pervaya"},{"id":"2496919","latitude":"49.86972200","longitude":"37.55416700","name":"Lozovaya Vtoraya"},{"id":"2496921","latitude":"49.26333300","longitude":"36.63916700","name":"Lozovenka"},{"id":"2496931","latitude":"49.86805600","longitude":"37.19777800","name":"Lozovoye"},{"id":"2496936","latitude":"50.14212743","longitude":"36.28611645","name":"Lozovoye Russkoye"},{"id":"2496939","latitude":"50.21666700","longitude":"35.76666700","name":"Lozovoy"},{"id":"2496945","latitude":"49.21888900","longitude":"36.56416700","name":"Lozovskiy"},{"id":"2497078","latitude":"49.18333300","longitude":"35.46666700","name":"Lukashevka"},{"id":"2497084","latitude":"50.32444400","longitude":"37.42861100","name":"Lukashev"},{"id":"2497088","latitude":"48.76666700","longitude":"36.50000000","name":"Lukashovka"},{"id":"2497128","latitude":"50.24719613","longitude":"36.50300412","name":"Lukyantsi"},{"id":"2497129","latitude":"50.24719613","longitude":"36.50300412","name":"Lukyantsy"},{"id":"2497140","latitude":"50.03833300","longitude":"37.81916700","name":"Lupachevka"},{"id":"2497148","latitude":"49.21694400","longitude":"37.78388900","name":"Lushchenkov"},{"id":"2497181","latitude":"50.08247339","longitude":"36.12077548","name":"Luzhok"},{"id":"2497188","latitude":"48.76666700","longitude":"37.31666700","name":"Lvovka"},{"id":"2497212","latitude":"50.27916700","longitude":"35.65444400","name":"Lyakhova"},{"id":"2497220","latitude":"49.68333300","longitude":"35.70000000","name":"Lyakhovki"},{"id":"2497221","latitude":"50.27916700","longitude":"35.65444400","name":"Lyakhov"},{"id":"2497231","latitude":"49.90333300","longitude":"36.36750000","name":"Lyalyuki"},{"id":"2497232","latitude":"49.76055600","longitude":"36.07305600","name":"Lyalyukov"},{"id":"2497258","latitude":"49.68333300","longitude":"35.70000000","name":"Lyashovka"},{"id":"2497269","latitude":"49.10000000","longitude":"35.20000000","name":"Lychkovo"},{"id":"2497271","latitude":"49.59555600","longitude":"36.46861100","name":"Lyman"},{"id":"2497275","latitude":"49.95000000","longitude":"35.96666700","name":"Lyobotin"},{"id":"2497288","latitude":"50.20311369","longitude":"36.40511071","name":"Lyptsy"},{"id":"2497296","latitude":"50.00670177","longitude":"36.18431385","name":"Lysaya Gora"},{"id":"2497310","latitude":"49.33750000","longitude":"37.16916700","name":"Lysogorka"},{"id":"2497378","latitude":"49.37111100","longitude":"36.48000000","name":"Lyubitskiye"},{"id":"2497379","latitude":"49.37111100","longitude":"36.48000000","name":"Lyubitskiy"},{"id":"2497400","latitude":"49.95000000","longitude":"35.96666700","name":"Lyubotin"},{"id":"2497401","latitude":"49.95000000","longitude":"35.96666700","name":"Lyubotyn"},{"id":"2497407","latitude":"50.01277800","longitude":"35.07888900","name":"Lyubovka"},{"id":"2497458","latitude":"50.31138900","longitude":"35.81638900","name":"Lyutovka"},{"id":"2497489","latitude":"48.86666700","longitude":"35.61666700","name":"Magdenkova"},{"id":"2497511","latitude":"50.20378062","longitude":"35.99118685","name":"Makarikha"},{"id":"2497515","latitude":"50.20861100","longitude":"35.99472200","name":"Makarkha"},{"id":"2497517","latitude":"50.29477786","longitude":"36.14527693","name":"Makarove"},{"id":"2497520","latitude":"49.42416700","longitude":"37.15111100","name":"Makarovka"},{"id":"2497528","latitude":"50.29477786","longitude":"36.14527693","name":"Makarovo"},{"id":"2497564","latitude":"49.71027800","longitude":"37.51694400","name":"Makhovka"},{"id":"2497604","latitude":"49.15000000","longitude":"35.65000000","name":"Maksimovka"},{"id":"2497635","latitude":"50.06670131","longitude":"36.16271905","name":"Mala Danylivka"},{"id":"2497689","latitude":"50.06670131","longitude":"36.16271905","name":"Malaya Danilovka"},{"id":"2497696","latitude":"49.15388900","longitude":"36.99027800","name":"Malaya Garazhevka"},{"id":"2497702","latitude":"49.70000000","longitude":"35.55000000","name":"Malaya Gubshchina"},{"id":"2497709","latitude":"49.10277800","longitude":"37.22083300","name":"Malaya Kamyschewacha"},{"id":"2497710","latitude":"49.10277800","longitude":"37.22083300","name":"Malaya Kamyshevakha"},{"id":"2497711","latitude":"49.10277800","longitude":"37.22083300","name":"Malaya Kamyshevkha"},{"id":"2497731","latitude":"49.05000000","longitude":"35.28333300","name":"Malaya Kozyrshchina"},{"id":"2497767","latitude":"50.24916700","longitude":"35.75750000","name":"Malaya Pisarevka"},{"id":"2497778","latitude":"50.11777800","longitude":"35.91388900","name":"Malaya Rogozyanka"},{"id":"2497792","latitude":"49.78611100","longitude":"37.56000000","name":"Malaya Shapkovka"},{"id":"2497816","latitude":"49.49000000","longitude":"37.14055600","name":"Malaya Vishnevaya"},{"id":"2497820","latitude":"50.36277800","longitude":"37.27833300","name":"Malaya Volchya"},{"id":"2497856","latitude":"49.24277800","longitude":"37.71500000","name":"Maleyevka"},{"id":"2497881","latitude":"48.81666700","longitude":"36.70000000","name":"Malinovka"},{"id":"2497903","latitude":"50.22986717","longitude":"36.34278726","name":"Mali Prokhody"},{"id":"2497994","latitude":"49.88861100","longitude":"37.99444400","name":"Maltsevka"},{"id":"2498000","latitude":"49.43277800","longitude":"37.32805600","name":"Malyarovka"},{"id":"2498020","latitude":"49.80416700","longitude":"36.71916700","name":"Malynivka"},{"id":"2498046","latitude":"50.39194400","longitude":"35.89638900","name":"Malyy Basov"},{"id":"2498054","latitude":"50.14833300","longitude":"37.48972200","name":"Malyy Burluchek"},{"id":"2498055","latitude":"49.73916700","longitude":"37.10527800","name":"Malyy Burluk"},{"id":"2498083","latitude":"49.74000000","longitude":"37.05750000","name":"Malyye Krynki"},{"id":"2498101","latitude":"50.22986717","longitude":"36.34278726","name":"Malyye Prokhody"},{"id":"2498138","latitude":"49.18333300","longitude":"35.08333300","name":"Malyy Orchik"},{"id":"2498162","latitude":"50.21805600","longitude":"35.71861100","name":"Malyzhino"},{"id":"2498179","latitude":"50.05457728","longitude":"36.46324810","name":"Mamotov"},{"id":"2498196","latitude":"49.98333300","longitude":"35.86666700","name":"Manchenki"},{"id":"2498197","latitude":"49.98333300","longitude":"35.86666700","name":"Manchenkov"},{"id":"2498198","latitude":"49.98333300","longitude":"35.86666700","name":"Manchenky"},{"id":"2498221","latitude":"49.73222200","longitude":"37.84138900","name":"Mankovka"},{"id":"2498233","latitude":"49.64750000","longitude":"37.41805600","name":"Manukhino"},{"id":"2498240","latitude":"49.73694400","longitude":"37.92111100","name":"Manuylovka"},{"id":"2498283","latitude":"50.30527800","longitude":"35.97861100","name":"Marenkov"},{"id":"2498305","latitude":"49.98333300","longitude":"35.46666700","name":"Marina"},{"id":"2498314","latitude":"49.98333300","longitude":"35.46666700","name":"Marino"},{"id":"2498325","latitude":"48.60000000","longitude":"36.21666700","name":"Marinskaya"},{"id":"2498411","latitude":"49.47638900","longitude":"37.51555600","name":"Marsovka Vtoraya"},{"id":"2498412","latitude":"49.95000000","longitude":"36.95000000","name":"Martavaya"},{"id":"2498415","latitude":"49.95000000","longitude":"36.95000000","name":"Martovaya"},{"id":"2498417","latitude":"49.95000000","longitude":"36.95000000","name":"Martovo"},{"id":"2498438","latitude":"49.31666700","longitude":"35.41666700","name":"Martynovka"},{"id":"2498452","latitude":"50.30527800","longitude":"35.97861100","name":"Marvenkov"},{"id":"2498462","latitude":"48.61666700","longitude":"36.80000000","name":"Maryanka"},{"id":"2498487","latitude":"50.04694400","longitude":"37.77638900","name":"Maryanskoye"},{"id":"2498495","latitude":"48.51666700","longitude":"36.70000000","name":"Maryevka"},{"id":"2498535","latitude":"50.17076891","longitude":"36.04868702","name":"Maslii"},{"id":"2498539","latitude":"50.17076891","longitude":"36.04868702","name":"Maslovka"},{"id":"2498546","latitude":"49.38500000","longitude":"36.17500000","name":"Maslovskiy"},{"id":"2498554","latitude":"49.81416700","longitude":"37.69194400","name":"Masyutovka"},{"id":"2498601","latitude":"50.21972200","longitude":"35.40638900","name":"Matveyevka"},{"id":"2498739","latitude":"49.16666700","longitude":"35.60000000","name":"Mazharka"},{"id":"2498762","latitude":"49.06666700","longitude":"36.68777800","name":"Mechebelova"},{"id":"2498763","latitude":"49.06666700","longitude":"36.68777800","name":"Mechebilovka"},{"id":"2498764","latitude":"49.06666700","longitude":"36.68777800","name":"Mechebilovo"},{"id":"2498769","latitude":"49.77861100","longitude":"37.95722200","name":"Mechnikovo"},{"id":"2498809","latitude":"49.46666700","longitude":"35.83333300","name":"Medvedovka"},{"id":"2498851","latitude":"49.53333300","longitude":"35.93333300","name":"Melekhovka"},{"id":"2498861","latitude":"49.53333300","longitude":"35.93333300","name":"Melikhovka"},{"id":"2498882","latitude":"49.70000000","longitude":"35.56666700","name":"Melnikovo"},{"id":"2498891","latitude":"49.44916700","longitude":"36.70361100","name":"Melovaya"},{"id":"2498893","latitude":"50.14000000","longitude":"37.67638900","name":"Melovoye"},{"id":"2498897","latitude":"49.39388900","longitude":"36.51888900","name":"Melovoy Yar"},{"id":"2498898","latitude":"50.14000000","longitude":"37.67638900","name":"Melovye"},{"id":"2498925","latitude":"49.81972200","longitude":"36.05194400","name":"Merefa"},{"id":"2498926","latitude":"49.81972200","longitude":"36.05194400","name":"Meref"},{"id":"2498939","latitude":"50.20055600","longitude":"35.74222200","name":"Merlo"},{"id":"2498940","latitude":"50.18694400","longitude":"37.45444400","name":"Mertelevo"},{"id":"2498950","latitude":"49.45000000","longitude":"35.55000000","name":"Merzliki"},{"id":"2498969","latitude":"50.12154739","longitude":"36.82490306","name":"Metallovka"},