[{"id":"2520668","latitude":"0.35000000","longitude":"32.88333330","name":"Bibo"},{"id":"2521017","latitude":"0.35000000","longitude":"32.60000000","name":"Bukoto"},{"id":"2521025","latitude":"0.33333330","longitude":"32.93333330","name":"Bukuja"},{"id":"2521464","latitude":"0.35083330","longitude":"32.56694440","name":"Bwaise"},{"id":"2522243","latitude":"0.31555560","longitude":"32.56555560","name":"Kampala"},{"id":"2522849","latitude":"0.35000000","longitude":"32.60000000","name":"Kigowa"},{"id":"2523114","latitude":"0.40000000","longitude":"32.95000000","name":"Kisasi"},{"id":"2523229","latitude":"0.43333330","longitude":"32.91666670","name":"Kito"},{"id":"2523305","latitude":"0.41666670","longitude":"32.93333330","name":"Kiyuni"},{"id":"2523576","latitude":"0.35000000","longitude":"32.58333330","name":"Kyebando"},{"id":"2523755","latitude":"0.31666670","longitude":"32.53333330","name":"Lugala"},{"id":"2523769","latitude":"0.37722220","longitude":"32.91972220","name":"Lugazi"},{"id":"2523871","latitude":"0.35000000","longitude":"32.93333330","name":"Luyanzi"},{"id":"2523997","latitude":"0.35000000","longitude":"32.86666670","name":"Madudu"},{"id":"2524048","latitude":"0.33333330","longitude":"32.56666670","name":"Makerere"},{"id":"2524186","latitude":"0.30000000","longitude":"32.56666670","name":"Mengo"},{"id":"2524259","latitude":"0.40000000","longitude":"32.90000000","name":"Moniko"},{"id":"2524403","latitude":"0.35000000","longitude":"32.58333330","name":"Mulago"},{"id":"2524579","latitude":"0.43944440","longitude":"32.88250000","name":"Nagoje"},{"id":"2524580","latitude":"0.43944440","longitude":"32.88250000","name":"Nagojje"},{"id":"2524596","latitude":"0.36666670","longitude":"32.91666670","name":"Najumba"},{"id":"2524729","latitude":"0.37388890","longitude":"32.87861110","name":"Namagunga"},{"id":"2524764","latitude":"0.39055560","longitude":"32.87055560","name":"Namataba"},{"id":"2524794","latitude":"0.31666670","longitude":"32.56666670","name":"Namirembe"},{"id":"2525129","latitude":"0.41666670","longitude":"32.93333330","name":"Ntunda"},{"id":"2526001","latitude":"0.38333330","longitude":"32.96666670","name":"Tebalowoza"},{"id":"2526101","latitude":"0.41666670","longitude":"32.91666670","name":"Wagala"}]