[{"id":"2604141","latitude":"36.30555560","longitude":"-104.25833330","name":"Abbott"},{"id":"2604142","latitude":"31.65194440","longitude":"-108.84500000","name":"Abe Yarbrough"},{"id":"2604143","latitude":"34.46750000","longitude":"-106.81083330","name":"Abeytas"},{"id":"2604144","latitude":"36.20722220","longitude":"-106.31805560","name":"Abiquiu"},{"id":"2604145","latitude":"34.45583330","longitude":"-106.33250000","name":"Abo"},{"id":"2604146","latitude":"35.94500000","longitude":"-105.36027780","name":"Abuelo"},{"id":"2604147","latitude":"33.59222220","longitude":"-104.32805560","name":"Acme"},{"id":"2604148","latitude":"34.89638890","longitude":"-107.58111110","name":"Acoma Pueblo"},{"id":"2604149","latitude":"34.89861110","longitude":"-107.58638890","name":"Acoma Village"},{"id":"2604150","latitude":"35.05527780","longitude":"-107.57111110","name":"Acomita"},{"id":"2604151","latitude":"35.07027780","longitude":"-107.61305560","name":"Acomita Lake"},{"id":"2604152","latitude":"34.71583330","longitude":"-106.73055560","name":"Adelino"},{"id":"2604153","latitude":"32.15277780","longitude":"-107.12694440","name":"Aden"},{"id":"2604154","latitude":"35.35361110","longitude":"-104.45861110","name":"Adero Az"},{"id":"2604155","latitude":"33.86222220","longitude":"-106.30444440","name":"Adobe Ranch"},{"id":"2604156","latitude":"32.07277780","longitude":"-106.94361110","name":"Afton"},{"id":"2604157","latitude":"35.65444440","longitude":"-106.02166670","name":"Agua Fria"},{"id":"2604158","latitude":"35.56333330","longitude":"-105.27138890","name":"Agua Zarca"},{"id":"2604159","latitude":"34.40527780","longitude":"-104.30305560","name":"Agudo"},{"id":"2604160","latitude":"32.76972220","longitude":"-103.19472220","name":"Air Base City"},{"id":"2604161","latitude":"32.24583330","longitude":"-107.40500000","name":"Akela"},{"id":"2604162","latitude":"35.18666670","longitude":"-106.61750000","name":"Alameda"},{"id":"2604163","latitude":"34.25472220","longitude":"-106.91555560","name":"Alamillo"},{"id":"2604164","latitude":"35.82250000","longitude":"-104.43694440","name":"Alamito"},{"id":"2604165","latitude":"34.42083330","longitude":"-107.51027780","name":"Alamo"},{"id":"2604166","latitude":"31.44055560","longitude":"-108.42694440","name":"Alamo Hueco"},{"id":"2604167","latitude":"32.89944440","longitude":"-105.95972220","name":"Alamogordo"},{"id":"2604168","latitude":"35.05277780","longitude":"-107.59555560","name":"Alaska"},{"id":"2604169","latitude":"35.93444440","longitude":"-103.86472220","name":"Albert"},{"id":"2604170","latitude":"35.08444440","longitude":"-106.65055560","name":"Albuquerque"},{"id":"2604171","latitude":"36.08888890","longitude":"-106.05305560","name":"Alcalde"},{"id":"2604172","latitude":"36.75638890","longitude":"-107.75638890","name":"Alcatraz"},{"id":"2604173","latitude":"34.68611110","longitude":"-106.25361110","name":"Alexander Place"},{"id":"2604174","latitude":"35.38055560","longitude":"-106.47861110","name":"Algodones"},{"id":"2604175","latitude":"36.47638890","longitude":"-106.58027780","name":"Alire"},{"id":"2604176","latitude":"32.83666670","longitude":"-107.02027780","name":"Alivio"},{"id":"2604177","latitude":"34.97250000","longitude":"-106.24972220","name":"Alley Place"},{"id":"2604178","latitude":"35.52416670","longitude":"-108.78444440","name":"Allison"},{"id":"2604179","latitude":"33.37944440","longitude":"-108.90277780","name":"Alma"},{"id":"2604180","latitude":"33.37444440","longitude":"-105.69138890","name":"Alpine Cellars Village"},{"id":"2604181","latitude":"35.53500000","longitude":"-104.74305560","name":"Alta Vista"},{"id":"2604182","latitude":"33.39861110","longitude":"-105.68027780","name":"Alto"},{"id":"2604183","latitude":"32.13638890","longitude":"-106.23666670","name":"Alvarado"},{"id":"2604184","latitude":"36.94194440","longitude":"-105.45388890","name":"Amalia"},{"id":"2604185","latitude":"36.93777780","longitude":"-106.89111110","name":"Amargo"},{"id":"2604186","latitude":"35.41888890","longitude":"-107.82111110","name":"Ambrosia Lake"},{"id":"2604187","latitude":"35.91888890","longitude":"-103.15333330","name":"Amistad"},{"id":"2604188","latitude":"31.78416670","longitude":"-106.56333330","name":"Anapra"},{"id":"2604189","latitude":"33.93777780","longitude":"-105.73916670","name":"Ancho"},{"id":"2604190","latitude":"35.71527780","longitude":"-104.42500000","name":"Ancon"},{"id":"2604191","latitude":"36.42388890","longitude":"-106.06250000","name":"Ancones"},{"id":"2604192","latitude":"34.68055560","longitude":"-106.34888890","name":"Anderson Place"},{"id":"2604193","latitude":"32.03250000","longitude":"-103.39750000","name":"Andrews Place"},{"id":"2604194","latitude":"36.39305560","longitude":"-105.28444440","name":"Angel Fire"},{"id":"2604195","latitude":"36.18890000","longitude":"-105.68850000","name":"Angostura"},{"id":"2604196","latitude":"31.94888890","longitude":"-108.80666670","name":"Animas"},{"id":"2604197","latitude":"31.95694440","longitude":"-108.71333330","name":"Antelope"},{"id":"2604198","latitude":"34.83222220","longitude":"-106.06750000","name":"Antelope Springs"},{"id":"2604199","latitude":"31.34888890","longitude":"-108.50833330","name":"Antelope Wells"},{"id":"2604200","latitude":"32.00388890","longitude":"-106.60527780","name":"Anthony"},{"id":"2604201","latitude":"35.20000000","longitude":"-105.14166670","name":"Anton Chico"},{"id":"2604202","latitude":"35.06861110","longitude":"-107.72611110","name":"Anzac"},{"id":"2604203","latitude":"33.32527780","longitude":"-105.90222220","name":"Apache"},{"id":"2604204","latitude":"33.83305560","longitude":"-108.62444440","name":"Apache Creek"},{"id":"2604205","latitude":"35.37222220","longitude":"-105.19250000","name":"Apache Springs"},{"id":"2604206","latitude":"36.19861110","longitude":"-105.86166670","name":"Apodaca"},{"id":"2604207","latitude":"33.58694440","longitude":"-105.17277780","name":"Arabela"},{"id":"2604208","latitude":"34.86361110","longitude":"-104.78361110","name":"Arabella"},{"id":"2604209","latitude":"33.88111110","longitude":"-108.53833330","name":"Aragon"},{"id":"2604210","latitude":"34.11333330","longitude":"-103.14194440","name":"Arch"},{"id":"2604211","latitude":"36.79416670","longitude":"-107.70833330","name":"Archuleta"},{"id":"2604212","latitude":"31.80194440","longitude":"-107.41500000","name":"Arena"},{"id":"2604213","latitude":"35.05333330","longitude":"-106.70361110","name":"Arenal"},{"id":"2604214","latitude":"32.79388890","longitude":"-108.18361110","name":"Arenas Valley"},{"id":"2604215","latitude":"32.69666670","longitude":"-103.35055560","name":"Arkansas Junction"},{"id":"2604216","latitude":"35.05361110","longitude":"-106.67666670","name":"Armijo"},{"id":"2604217","latitude":"32.84861110","longitude":"-107.31861110","name":"Arrey"},{"id":"2604218","latitude":"35.62333330","longitude":"-105.20027780","name":"Arriba"},{"id":"2604219","latitude":"36.53583330","longitude":"-105.66916670","name":"Arroyo Hondo"},{"id":"2604220","latitude":"36.51666670","longitude":"-105.56861110","name":"Arroyo Seco"},{"id":"2604221","latitude":"36.15944440","longitude":"-106.65166670","name":"Arroyo del Agua"},{"id":"2604222","latitude":"32.84222220","longitude":"-104.40277780","name":"Artesia"},{"id":"2604223","latitude":"33.69805560","longitude":"-108.96500000","name":"Aspen Mountain"},{"id":"2604224","latitude":"34.73638890","longitude":"-108.70250000","name":"Atarque"},{"id":"2604225","latitude":"36.77138890","longitude":"-103.12527780","name":"Atencio"},{"id":"2604226","latitude":"32.76944440","longitude":"-104.38833330","name":"Atoka"},{"id":"2604227","latitude":"35.08111110","longitude":"-106.68694440","name":"Atrisco"},{"id":"2604228","latitude":"34.93694440","longitude":"-106.19361110","name":"Augustine"},{"id":"2604229","latitude":"35.14666670","longitude":"-105.44861110","name":"Aurora"},{"id":"2604230","latitude":"32.49750000","longitude":"-104.23611110","name":"Avalon"},{"id":"2604231","latitude":"32.70027780","longitude":"-105.45416670","name":"Avis"},{"id":"2604232","latitude":"36.82222220","longitude":"-107.99222220","name":"Aztec"},{"id":"2604233","latitude":"34.69388890","longitude":"-106.75777780","name":"Azul"},{"id":"2604234","latitude":"34.64222220","longitude":"-106.78000000","name":"Bacaville"},{"id":"2604235","latitude":"32.16083330","longitude":"-103.42750000","name":"Baird Place"},{"id":"2604236","latitude":"36.92222220","longitude":"-105.12861110","name":"Banning Place"},{"id":"2604237","latitude":"32.48527780","longitude":"-104.39611110","name":"Barber Crossing"},{"id":"2604238","latitude":"35.12861110","longitude":"-103.24527780","name":"Bard"},{"id":"2604239","latitude":"35.07305560","longitude":"-106.65611110","name":"Barelas"},{"id":"2604240","latitude":"34.97750000","longitude":"-106.66694440","name":"Barr"},{"id":"2604241","latitude":"36.20361110","longitude":"-106.34527780","name":"Barranca"},{"id":"2604242","latitude":"35.32361110","longitude":"-105.41472220","name":"Barranco"},{"id":"2604243","latitude":"35.08305560","longitude":"-106.24638890","name":"Barton"},{"id":"2604244","latitude":"35.36638890","longitude":"-108.47277780","name":"Basgal Place"},{"id":"2604245","latitude":"35.49444440","longitude":"-103.41277780","name":"Bates Place"},{"id":"2604246","latitude":"32.76166670","longitude":"-108.13000000","name":"Bayard"},{"id":"2604247","latitude":"33.72583330","longitude":"-103.94972220","name":"Beatty Wells"},{"id":"2604248","latitude":"34.49611110","longitude":"-106.61500000","name":"Becker"},{"id":"2604249","latitude":"36.84138890","longitude":"-109.01888890","name":"Beclabito"},{"id":"2604250","latitude":"36.21444440","longitude":"-103.63388890","name":"Beenham"},{"id":"2604251","latitude":"34.66277780","longitude":"-106.77583330","name":"Belen"},{"id":"2604252","latitude":"34.82111110","longitude":"-103.10722220","name":"Bellview"},{"id":"2604253","latitude":"31.71388890","longitude":"-108.82222220","name":"Bene Dunagan"},{"id":"2604254","latitude":"32.11230000","longitude":"-103.19510000","name":"Bennett"},{"id":"2604255","latitude":"34.69555560","longitude":"-106.31055560","name":"Benson Place"},{"id":"2604256","latitude":"33.15861110","longitude":"-105.85638890","name":"Bent"},{"id":"2604257","latitude":"32.07083330","longitude":"-106.62083330","name":"Berino"},{"id":"2604258","latitude":"34.67611110","longitude":"-106.31722220","name":"Bermadez Place"},{"id":"2604259","latitude":"35.39277780","longitude":"-105.31694440","name":"Bernal"},{"id":"2604260","latitude":"35.30000000","longitude":"-106.55055560","name":"Bernalillo"},{"id":"2604261","latitude":"34.41861110","longitude":"-106.83305560","name":"Bernardo"},{"id":"2604262","latitude":"34.22861110","longitude":"-103.47416670","name":"Bethel"},{"id":"2604263","latitude":"35.17416670","longitude":"-107.38805560","name":"Bibo"},{"id":"2604264","latitude":"36.98916670","longitude":"-106.18166670","name":"Big Horn"},{"id":"2604265","latitude":"32.65888890","longitude":"-107.99111110","name":"Big Mill"},{"id":"2604266","latitude":"33.88888890","longitude":"-106.37194440","name":"Bingham"},{"id":"2604267","latitude":"31.63083330","longitude":"-108.85138890","name":"Birchfield"},{"id":"2604268","latitude":"36.29833330","longitude":"-105.25805560","name":"Black Lake"},{"id":"2604269","latitude":"36.27388890","longitude":"-105.24305560","name":"Black Lake Resorts"},{"id":"2604270","latitude":"32.20166670","longitude":"-104.25250000","name":"Black River Village"},{"id":"2604271","latitude":"35.08833330","longitude":"-108.79055560","name":"Black Rock"},{"id":"2604272","latitude":"35.09944440","longitude":"-106.14277780","name":"Blackwell Place"},{"id":"2604273","latitude":"35.38861110","longitude":"-105.35694440","name":"Blanchard"},{"id":"2604274","latitude":"36.72416670","longitude":"-107.82472220","name":"Blanco"},{"id":"2604275","latitude":"35.75750000","longitude":"-106.46472220","name":"Bland"},{"id":"2604276","latitude":"33.15638890","longitude":"-105.78694440","name":"Blazers Mill"},{"id":"2604277","latitude":"33.05138890","longitude":"-107.96916670","name":"Bloodgood Place"},{"id":"2604278","latitude":"36.71111110","longitude":"-107.98388890","name":"Bloomfield"},{"id":"2604279","latitude":"35.25500000","longitude":"-107.98500000","name":"Bluewater"},{"id":"2604280","latitude":"33.62916670","longitude":"-103.18305560","name":"Bluit"},{"id":"2604281","latitude":"33.73666670","longitude":"-103.97083330","name":"Boaz"},{"id":"2604282","latitude":"34.55194440","longitude":"-106.67527780","name":"Bodega"},{"id":"2604283","latitude":"32.80694440","longitude":"-105.98555560","name":"Boles Acres"},{"id":"2604284","latitude":"33.45055560","longitude":"-105.70833330","name":"Bonito"},{"id":"2604285","latitude":"35.27722220","longitude":"-108.39222220","name":"Boon Place"},{"id":"2604286","latitude":"34.67527780","longitude":"-104.64722220","name":"Borica"},{"id":"2604287","latitude":"34.56000000","longitude":"-106.78861110","name":"Bosque"},{"id":"2604288","latitude":"34.85472220","longitude":"-106.70472220","name":"Bosque Farms"},{"id":"2604289","latitude":"33.97722220","longitude":"-106.85027780","name":"Bosquecito"},{"id":"2604290","latitude":"34.42416670","longitude":"-107.79055560","name":"Box Bar Place"},{"id":"2604291","latitude":"32.32250000","longitude":"-106.57305560","name":"Boyd"},{"id":"2604292","latitude":"31.33416670","longitude":"-108.84333330","name":"Bramlett"},{"id":"2604293","latitude":"36.75138890","longitude":"-106.56083330","name":"Brazos"},{"id":"2604294","latitude":"35.39833330","longitude":"-108.66638890","name":"Bread Springs"},{"id":"2604295","latitude":"35.11333330","longitude":"-106.17388890","name":"Briggs Place"},{"id":"2604296","latitude":"36.95611110","longitude":"-104.53388890","name":"Brilliant"},{"id":"2604297","latitude":"35.76750000","longitude":"-108.64277780","name":"Brimhall Nizhoni"},{"id":"2604298","latitude":"34.66972220","longitude":"-106.28944440","name":"Brizendine Place"},{"id":"2604299","latitude":"34.81944440","longitude":"-103.21305560","name":"Broadview"},{"id":"2604300","latitude":"32.12305560","longitude":"-108.48416670","name":"Brockman"},{"id":"2604301","latitude":"34.55888890","longitude":"-106.13583330","name":"Broncho"},{"id":"2604302","latitude":"35.53555560","longitude":"-103.41861110","name":"Brown Place"},{"id":"2604303","latitude":"32.80194440","longitude":"-103.50527780","name":"Buckeye"},{"id":"2604304","latitude":"33.03694440","longitude":"-108.70777780","name":"Buckhorn"},{"id":"2604305","latitude":"35.83194440","longitude":"-106.15611110","name":"Buckman"},{"id":"2604306","latitude":"35.07000000","longitude":"-107.52527780","name":"Budville"},{"id":"2604307","latitude":"35.07638890","longitude":"-106.53722220","name":"Buena Ventura"},{"id":"2604308","latitude":"35.91330000","longitude":"-105.24840000","name":"Buena Vista"},{"id":"2604309","latitude":"35.97944440","longitude":"-103.68666670","name":"Bueyeros"},{"id":"2604310","latitude":"35.93472220","longitude":"-108.65333330","name":"Buffalo Springs"},{"id":"2604311","latitude":"35.41333330","longitude":"-103.33138890","name":"Bunk Clay Place"},{"id":"2604312","latitude":"34.96194440","longitude":"-106.11000000","name":"C Davis Place"},{"id":"2604313","latitude":"32.97555560","longitude":"-107.30722220","name":"Caballo"},{"id":"2604314","latitude":"35.62638890","longitude":"-107.09722220","name":"Cabezon"},{"id":"2604315","latitude":"32.22527780","longitude":"-107.31694440","name":"Cambray"},{"id":"2604316","latitude":"34.28750000","longitude":"-103.22277780","name":"Cameo"},{"id":"2604317","latitude":"35.57527780","longitude":"-103.89333330","name":"Campana"},{"id":"2604318","latitude":"33.60805560","longitude":"-104.19638890","name":"Campbell"},{"id":"2604319","latitude":"35.06638890","longitude":"-106.50277780","name":"Canada Village"},{"id":"2604320","latitude":"35.59305560","longitude":"-105.86055560","name":"Canada de los Alamos"},{"id":"2604321","latitude":"34.67222220","longitude":"-106.35194440","name":"Candelaria Place"},{"id":"2604322","latitude":"36.47944440","longitude":"-106.43722220","name":"Canjilon"},{"id":"2604323","latitude":"35.94305560","longitude":"-105.36944440","name":"Canon"},{"id":"2604324","latitude":"35.13694440","longitude":"-106.37277780","name":"Canoncito"},{"id":"2604325","latitude":"36.18805560","longitude":"-106.43888890","name":"Canones"},{"id":"2604326","latitude":"36.15916670","longitude":"-105.98444440","name":"Canova"},{"id":"2604327","latitude":"34.42444440","longitude":"-103.74250000","name":"Cantara"},{"id":"2604328","latitude":"34.31444440","longitude":"-106.71472220","name":"Canyon Mill"},{"id":"2604329","latitude":"33.54527780","longitude":"-105.57166670","name":"Capitan"},{"id":"2604330","latitude":"36.67027780","longitude":"-104.77388890","name":"Capitan Hill"},{"id":"2604331","latitude":"33.39194440","longitude":"-103.71194440","name":"Caprock"},{"id":"2604332","latitude":"36.74111110","longitude":"-103.99305560","name":"Capulin"},{"id":"2604333","latitude":"36.91694440","longitude":"-104.37083330","name":"Carisbrook"},{"id":"2604334","latitude":"32.42055560","longitude":"-104.22833330","name":"Carlsbad"},{"id":"2604335","latitude":"32.28805560","longitude":"-107.57083330","name":"Carne"},{"id":"2604336","latitude":"34.62416670","longitude":"-105.38638890","name":"Carnero"},{"id":"2604337","latitude":"35.06388890","longitude":"-106.45666670","name":"Carnuel"},{"id":"2604338","latitude":"36.99861110","longitude":"-107.24444440","name":"Carracas"},{"id":"2604339","latitude":"33.28361110","longitude":"-105.70638890","name":"Carrizo"},{"id":"2604340","latitude":"33.64166670","longitude":"-105.87666670","name":"Carrizozo"},{"id":"2604341","latitude":"36.36444440","longitude":"-105.76472220","name":"Carson"},{"id":"2604342","latitude":"33.88333330","longitude":"-106.65888890","name":"Carthage"},{"id":"2604343","latitude":"35.04555560","longitude":"-107.47083330","name":"Casa Blanca"},{"id":"2604344","latitude":"34.57388890","longitude":"-106.74861110","name":"Casa Colorada"},{"id":"2604345","latitude":"35.26361110","longitude":"-107.46638890","name":"Casa Fria"},{"id":"2604346","latitude":"36.88833330","longitude":"-104.97833330","name":"Casa Grande"},{"id":"2604347","latitude":"35.11083330","longitude":"-106.38527780","name":"Casa Loma"},{"id":"2604348","latitude":"35.48333330","longitude":"-107.11555560","name":"Casa Salazar"},{"id":"2604349","latitude":"33.87916670","longitude":"-103.12611110","name":"Causey"},{"id":"2604350","latitude":"35.08472220","longitude":"-106.02611110","name":"Cavasos Place"},{"id":"2604351","latitude":"36.53833330","longitude":"-106.48583330","name":"Cebolla"},{"id":"2604352","latitude":"35.17444440","longitude":"-107.39555560","name":"Cebolletita"},{"id":"2604353","latitude":"35.10750000","longitude":"-106.37222220","name":"Cedar Crest"},{"id":"2604354","latitude":"35.17083330","longitude":"-106.18944440","name":"Cedar Grove"},{"id":"2604355","latitude":"36.93694440","longitude":"-107.88972220","name":"Cedar Hill"},{"id":"2604356","latitude":"34.37055560","longitude":"-105.70138890","name":"Cedarvale"},{"id":"2604357","latitude":"35.02222220","longitude":"-106.35305560","name":"Cedro"},{"id":"2604358","latitude":"33.27500000","longitude":"-104.77416670","name":"Center Mill"},{"id":"2604359","latitude":"35.79750000","longitude":"-103.08944440","name":"Centerville"},{"id":"2604360","latitude":"35.79666670","longitude":"-103.12638890","name":"Centerville Corner"},{"id":"2604361","latitude":"35.43777780","longitude":"-106.12194440","name":"Cerrillos"},{"id":"2604362","latitude":"36.75388890","longitude":"-105.61222220","name":"Cerro"},{"id":"2604363","latitude":"36.14416670","longitude":"-105.36722220","name":"Chacon"},{"id":"2604364","latitude":"36.90305560","longitude":"-106.57888890","name":"Chama"},{"id":"2604365","latitude":"32.04972220","longitude":"-106.67472220","name":"Chamberino"},{"id":"2604366","latitude":"36.16583330","longitude":"-105.73722220","name":"Chamisal"},{"id":"2604367","latitude":"36.07027780","longitude":"-106.09638890","name":"Chamita"},{"id":"2604368","latitude":"34.21750000","longitude":"-106.91305560","name":"Chamizal"},{"id":"2604369","latitude":"32.01140000","longitude":"-106.57170000","name":"Chaparral"},{"id":"2604370","latitude":"35.38916670","longitude":"-105.29305560","name":"Chapelle"},{"id":"2604371","latitude":"35.36583330","longitude":"-104.94472220","name":"Chaperito"},{"id":"2604372","latitude":"32.89083330","longitude":"-108.99222220","name":"Chapman Place"},{"id":"2604373","latitude":"32.03500000","longitude":"-106.41777780","name":"Chapparal"},{"id":"2604374","latitude":"32.19166670","longitude":"-107.18416670","name":"Chappel"},{"id":"2604375","latitude":"34.63083330","longitude":"-106.34833330","name":"Chato"},{"id":"2604376","latitude":"33.40083330","longitude":"-107.50527780","name":"Chaves Place"},{"id":"2604377","latitude":"35.09611110","longitude":"-106.50638890","name":"Chelwood Park"},{"id":"2604378","latitude":"35.24944440","longitude":"-108.90722220","name":"Chi Chil Tah"},{"id":"2604379","latitude":"35.34000000","longitude":"-106.52166670","name":"Chical"},{"id":"2604380","latitude":"36.48666670","longitude":"-104.19222220","name":"Chico"},{"id":"2604381","latitude":"35.32777780","longitude":"-105.71972220","name":"Childres Place"},{"id":"2604382","latitude":"36.10500000","longitude":"-106.14916670","name":"Chili"},{"id":"2604383","latitude":"34.88944440","longitude":"-106.23222220","name":"Chilili"},{"id":"2604384","latitude":"36.00388890","longitude":"-105.94638890","name":"Chimayo"},{"id":"2604385","latitude":"32.90944440","longitude":"-105.70472220","name":"Chippeway Park"},{"id":"2604386","latitude":"33.27222220","longitude":"-107.59694440","name":"Chise"},{"id":"2604387","latitude":"33.26194440","longitude":"-104.41833330","name":"Chisum"},{"id":"2604388","latitude":"33.33861110","longitude":"-107.67722220","name":"Chloride"},{"id":"2604389","latitude":"36.92083330","longitude":"-107.51361110","name":"Christopher Place"},{"id":"2604390","latitude":"34.27055560","longitude":"-106.36000000","name":"Chupadera"},{"id":"2604391","latitude":"35.82250000","longitude":"-105.91611110","name":"Chupadero"},{"id":"2604392","latitude":"35.53388890","longitude":"-108.59916670","name":"Church Rock"},{"id":"2604393","latitude":"35.59555560","longitude":"-106.12305560","name":"Cieneguilla"},{"id":"2604394","latitude":"36.51083330","longitude":"-104.91527780","name":"Cimarron"},{"id":"2604395","latitude":"35.95444440","longitude":"-104.81805560","name":"Ciruela"},{"id":"2604396","latitude":"36.03555560","longitude":"-106.23972220","name":"Clara Peak"},{"id":"2604397","latitude":"33.41111110","longitude":"-108.77916670","name":"Claremont"},{"id":"2604398","latitude":"34.59416670","longitude":"-103.17861110","name":"Claud"},{"id":"2604399","latitude":"34.14194440","longitude":"-105.99388890","name":"Claunch"},{"id":"2604400","latitude":"36.45166670","longitude":"-103.18361110","name":"Clayton"},{"id":"2604401","latitude":"35.99333330","longitude":"-105.37000000","name":"Cleveland"},{"id":"2604402","latitude":"32.96222220","longitude":"-108.61055560","name":"Cliff"},{"id":"2604403","latitude":"35.00944440","longitude":"-105.66861110","name":"Clines Corners"},{"id":"2604404","latitude":"32.95722220","longitude":"-105.74194440","name":"Cloudcroft"},{"id":"2604405","latitude":"31.41694440","longitude":"-108.92916670","name":"Cloverdale"},{"id":"2604406","latitude":"34.40472220","longitude":"-103.20472220","name":"Clovis"},{"id":"2604407","latitude":"33.56777780","longitude":"-105.59666670","name":"Coalora"},{"id":"2604408","latitude":"33.80083330","longitude":"-106.32666670","name":"Coane"},{"id":"2604409","latitude":"32.78055560","longitude":"-108.11138890","name":"Cobre"},{"id":"2604410","latitude":"35.60888890","longitude":"-106.34972220","name":"Cochiti"},{"id":"2604411","latitude":"35.64805560","longitude":"-106.33694440","name":"Cochiti Lake"},{"id":"2604412","latitude":"35.60750000","longitude":"-106.34666670","name":"Cochiti Pueblo"},{"id":"2604413","latitude":"32.82027780","longitude":"-104.74305560","name":"Cole Place"},{"id":"2604414","latitude":"36.59666670","longitude":"-104.73777780","name":"Colfax"},{"id":"2604415","latitude":"36.22055560","longitude":"-104.64888890","name":"Colmor"},{"id":"2604416","latitude":"35.10972220","longitude":"-104.84666670","name":"Colonias"},{"id":"2604417","latitude":"31.82750000","longitude":"-107.63944440","name":"Columbus"},{"id":"2604418","latitude":"35.40277780","longitude":"-104.18944440","name":"Conchas"},{"id":"2604419","latitude":"35.42500000","longitude":"-108.31472220","name":"Continental Divide"},{"id":"2604420","latitude":"34.38277780","longitude":"-106.81305560","name":"Contreras"},{"id":"2604421","latitude":"35.44694440","longitude":"-108.36277780","name":"Coolidge"},{"id":"2604422","latitude":"33.42277780","longitude":"-108.80722220","name":"Cooney"},{"id":"2604423","latitude":"33.93000000","longitude":"-105.78527780","name":"Cooper"},{"id":"2604424","latitude":"35.14611110","longitude":"-108.14944440","name":"Copperton"},{"id":"2604425","latitude":"33.48250000","longitude":"-106.02444440","name":"Cora Crew"},{"id":"2604426","latitude":"35.98222220","longitude":"-105.35888890","name":"Cordillera"},{"id":"2604427","latitude":"36.00722220","longitude":"-105.86000000","name":"Cordova"},{"id":"2604428","latitude":"31.35611110","longitude":"-108.21055560","name":"Corner Ranch"},{"id":"2604429","latitude":"33.64222220","longitude":"-103.63055560","name":"Corner Well"},{"id":"2604430","latitude":"34.25083330","longitude":"-105.59611110","name":"Corona"},{"id":"2604431","latitude":"35.23777780","longitude":"-106.60611110","name":"Corrales"},{"id":"2604432","latitude":"34.95500000","longitude":"-107.18416670","name":"Correo"},{"id":"2604433","latitude":"35.36611110","longitude":"-105.43805560","name":"Coruco"},{"id":"2604434","latitude":"36.97583330","longitude":"-105.53055560","name":"Costilla"},{"id":"2604435","latitude":"32.08833330","longitude":"-108.87861110","name":"Cotton City"},{"id":"2604436","latitude":"32.22472220","longitude":"-103.66277780","name":"Cotton Place"},{"id":"2604437","latitude":"36.87388890","longitude":"-108.39250000","name":"Cottonwood"},{"id":"2604438","latitude":"36.20916670","longitude":"-107.45722220","name":"Counselor"},{"id":"2604439","latitude":"35.81194440","longitude":"-105.65916670","name":"Cowles"},{"id":"2604440","latitude":"36.16750000","longitude":"-106.61583330","name":"Coyote"},{"id":"2604441","latitude":"35.77472220","longitude":"-108.62027780","name":"Coyote Canyon"},{"id":"2604442","latitude":"34.81500000","longitude":"-107.38388890","name":"Crane Place"},{"id":"2604443","latitude":"32.73805560","longitude":"-105.63888890","name":"Crisp"},{"id":"2604444","latitude":"33.34222220","longitude":"-107.03000000","name":"Crocker"},{"id":"2604445","latitude":"33.51222220","longitude":"-103.33916670","name":"Crossroads"},{"id":"2604446","latitude":"35.67805560","longitude":"-108.15055560","name":"Crownpoint"},{"id":"2604447","latitude":"36.72277780","longitude":"-106.34166670","name":"Crowther Cow Camp"},{"id":"2604448","latitude":"33.80722220","longitude":"-108.66472220","name":"Cruzville"},{"id":"2604449","latitude":"36.04583330","longitude":"-108.96555560","name":"Crystal"},{"id":"2604450","latitude":"36.02222220","longitude":"-106.95777780","name":"Cuba"},{"id":"2604451","latitude":"35.08583330","longitude":"-107.51750000","name":"Cubero"},{"id":"2604452","latitude":"33.23583330","longitude":"-107.36000000","name":"Cuchillo"},{"id":"2604453","latitude":"36.85833330","longitude":"-108.77583330","name":"Cudei"},{"id":"2604454","latitude":"35.03111110","longitude":"-104.40805560","name":"Cuervo"},{"id":"2604455","latitude":"35.33416670","longitude":"-107.01722220","name":"Cuervo Crossing"},{"id":"2604456","latitude":"34.68250000","longitude":"-105.76777780","name":"Culebra"},{"id":"2604457","latitude":"35.30000000","longitude":"-103.38166670","name":"Cummings Place"},{"id":"2604458","latitude":"35.95916670","longitude":"-105.89583330","name":"Cundiyo"},{"id":"2604459","latitude":"33.06027780","longitude":"-107.02194440","name":"Cutter"},{"id":"2604460","latitude":"35.86972220","longitude":"-106.00361110","name":"Cuyamungue"},{"id":"2604461","latitude":"34.61472220","longitude":"-106.36138890","name":"D Candelaria Place"},{"id":"2604462","latitude":"35.12138890","longitude":"-105.27638890","name":"Dahlia"},{"id":"2604463","latitude":"34.77194440","longitude":"-106.86000000","name":"Dalies"},{"id":"2604464","latitude":"34.96333330","longitude":"-106.22222220","name":"Danvik Place"},{"id":"2604465","latitude":"34.14500000","longitude":"-107.84305560","name":"Datil"},{"id":"2604466","latitude":"36.66416670","longitude":"-104.77416670","name":"Dawson"},{"id":"2604467","latitude":"32.73138890","longitude":"-104.38472220","name":"Dayton"},{"id":"2604468","latitude":"31.38222220","longitude":"-108.63000000","name":"Deer"},{"id":"2604469","latitude":"35.74416670","longitude":"-106.77416670","name":"Deer Creek Landing"},{"id":"2604470","latitude":"31.43444440","longitude":"-108.69055560","name":"Deer Creek Wells"},{"id":"2604471","latitude":"35.99611110","longitude":"-106.85861110","name":"Deer Lake"},{"id":"2604472","latitude":"33.95444440","longitude":"-104.28972220","name":"Deering Place"},{"id":"2604473","latitude":"35.49055560","longitude":"-108.89583330","name":"Defiance"},{"id":"2604474","latitude":"36.06166670","longitude":"-103.82666670","name":"Dehaven"},{"id":"2604475","latitude":"34.07527780","longitude":"-103.49194440","name":"Delphos"},{"id":"2604476","latitude":"32.26861110","longitude":"-107.75805560","name":"Deming"},{"id":"2604477","latitude":"35.12277780","longitude":"-106.31750000","name":"Dennis Chaves Estates"},{"id":"2604478","latitude":"35.25500000","longitude":"-106.04972220","name":"Dennison Place"},{"id":"2604479","latitude":"34.82805560","longitude":"-105.33416670","name":"Derramadero"},{"id":"2604480","latitude":"32.78805560","longitude":"-107.28166670","name":"Derry"},{"id":"2604481","latitude":"36.76111110","longitude":"-103.83361110","name":"Des Moines"},{"id":"2604482","latitude":"36.40540000","longitude":"-105.57520000","name":"Des Montes"},{"id":"2604483","latitude":"33.19722220","longitude":"-104.37250000","name":"Dexter"},{"id":"2604484","latitude":"33.32833330","longitude":"-104.83833330","name":"Diamante Mill"},{"id":"2604485","latitude":"35.17472220","longitude":"-108.12666670","name":"Diener"},{"id":"2604486","latitude":"35.19305560","longitude":"-105.06305560","name":"Dilia"},{"id":"2604487","latitude":"36.86555560","longitude":"-104.45583330","name":"Dillon"},{"id":"2604488","latitude":"36.19861110","longitude":"-105.88805560","name":"Dixon"},{"id":"2604489","latitude":"32.74388890","longitude":"-105.95500000","name":"Dog Canyon Estates"},{"id":"2604490","latitude":"35.51083330","longitude":"-106.31944440","name":"Domingo"},{"id":"2604491","latitude":"32.38944440","longitude":"-106.81333330","name":"Dona Ana"},{"id":"2604492","latitude":"33.93861110","longitude":"-103.33611110","name":"Dora"},{"id":"2604493","latitude":"35.25527780","longitude":"-107.23638890","name":"Dos Tristes"},{"id":"2604494","latitude":"31.64500000","longitude":"-108.75527780","name":"Double Adobes"},{"id":"2604495","latitude":"33.52611110","longitude":"-105.43972220","name":"Double Crossing"},{"id":"2604496","latitude":"35.06555560","longitude":"-104.52250000","name":"Double Mills"},{"id":"2604497","latitude":"35.26388890","longitude":"-105.65777780","name":"Douthit Place"},{"id":"2604498","latitude":"36.93361110","longitude":"-106.99833330","name":"Dulce"},{"id":"2604499","latitude":"34.62972220","longitude":"-105.70444440","name":"Dummoor"},{"id":"2604500","latitude":"32.81277780","longitude":"-105.20194440","name":"Dunken"},{"id":"2604501","latitude":"34.08472220","longitude":"-104.52805560","name":"Dunlap"},{"id":"2604502","latitude":"34.99333330","longitude":"-106.15416670","name":"Dunn Place"},{"id":"2604503","latitude":"34.46722220","longitude":"-105.39638890","name":"Duran"},{"id":"2604504","latitude":"36.26888890","longitude":"-106.05166670","name":"Duranes"},{"id":"2604505","latitude":"32.62833330","longitude":"-107.86638890","name":"Dwyer"},{"id":"2604506","latitude":"34.91305560","longitude":"-106.08944440","name":"E Davis Place"},{"id":"2604507","latitude":"36.55472220","longitude":"-105.26305560","name":"Eagle Nest"},{"id":"2604508","latitude":"31.72083330","longitude":"-108.82416670","name":"Eakins"},{"id":"2604509","latitude":"33.33555560","longitude":"-104.43694440","name":"East Grand Plains"},{"id":"2604510","latitude":"35.57361110","longitude":"-105.66333330","name":"East Pecos"},{"id":"2604511","latitude":"31.68055560","longitude":"-108.93611110","name":"Eaton Place"},{"id":"2604512","latitude":"32.68083330","longitude":"-108.58111110","name":"Edgal Place"},{"id":"2604513","latitude":"35.06138890","longitude":"-106.19083330","name":"Edgewood"},{"id":"2604514","latitude":"35.97888890","longitude":"-105.30750000","name":"El Alto"},{"id":"2604515","latitude":"35.38944440","longitude":"-105.45833330","name":"El Ancon"},{"id":"2604516","latitude":"35.27555560","longitude":"-105.31138890","name":"El Cerrito"},{"id":"2604517","latitude":"34.72694440","longitude":"-106.71027780","name":"El Cerro"},{"id":"2604518","latitude":"35.33277780","longitude":"-106.53944440","name":"El Chapparal"},{"id":"2604519","latitude":"36.20694440","longitude":"-106.32250000","name":"El Curuco"},{"id":"2604520","latitude":"35.51555560","longitude":"-107.51666670","name":"El Dado"},{"id":"2604521","latitude":"35.54166670","longitude":"-105.91666670","name":"El Dorado"},{"id":"2604522","latitude":"35.54861110","longitude":"-105.90833330","name":"El Dorado at Santa Fe"},{"id":"2604523","latitude":"36.07416670","longitude":"-106.11944440","name":"El Duende"},{"id":"2604524","latitude":"34.62222220","longitude":"-106.29916670","name":"El Gato"},{"id":"2604525","latitude":"36.00666670","longitude":"-106.08638890","name":"El Guacho"},{"id":"2604526","latitude":"35.33000000","longitude":"-106.53083330","name":"El Llanito"},{"id":"2604527","latitude":"36.01555560","longitude":"-106.04388890","name":"El Llano"},{"id":"2604528","latitude":"35.67472220","longitude":"-105.68972220","name":"El Macho"},{"id":"2604529","latitude":"36.33416670","longitude":"-106.49388890","name":"El Monte Rojo"},{"id":"2604530","latitude":"35.04444440","longitude":"-108.31972220","name":"El Morro"},{"id":"2604531","latitude":"32.00527780","longitude":"-106.67750000","name":"El Ojito"},{"id":"2604532","latitude":"36.43166670","longitude":"-105.57416670","name":"El Padro"},{"id":"2604533","latitude":"35.69666670","longitude":"-105.38222220","name":"El Porvenir"},{"id":"2604534","latitude":"36.44861110","longitude":"-105.57500000","name":"El Prado"},{"id":"2604535","latitude":"36.00830000","longitude":"-106.07080000","name":"El Rancho"},{"id":"2604536","latitude":"35.11750000","longitude":"-106.33750000","name":"El Refugio"},{"id":"2604537","latitude":"36.34333330","longitude":"-106.18805560","name":"El Rito"},{"id":"2604538","latitude":"35.10388890","longitude":"-106.33944440","name":"El Tablazon"},{"id":"2604539","latitude":"36.07972220","longitude":"-105.25055560","name":"El Turquillo"},{"id":"2604540","latitude":"36.59388890","longitude":"-106.72805560","name":"El Vado"},{"id":"2604541","latitude":"36.11027780","longitude":"-105.72611110","name":"El Valle"},{"id":"2604542","latitude":"35.96277780","longitude":"-106.02888890","name":"El Valle de Arroyo Seco"},{"id":"2604543","latitude":"35.52638890","longitude":"-105.93416670","name":"Eldorado at Santa Fe"},{"id":"2604544","latitude":"33.14861110","longitude":"-107.18416670","name":"Elephant Butte"},{"id":"2604545","latitude":"33.18694440","longitude":"-107.20694440","name":"Elephant Butte Estates"},{"id":"2604546","latitude":"33.94666670","longitude":"-103.65611110","name":"Elida"},{"id":"2604547","latitude":"36.61916670","longitude":"-105.28388890","name":"Elizabethtown"},{"id":"2604548","latitude":"32.94305560","longitude":"-105.33388890","name":"Elk"},{"id":"2604549","latitude":"33.69444440","longitude":"-104.05444440","name":"Elkins"},{"id":"2604550","latitude":"32.02250000","longitude":"-107.97277780","name":"Eller Place"},{"id":"2604551","latitude":"32.29361110","longitude":"-106.13666670","name":"Elwood"},{"id":"2604552","latitude":"36.20750000","longitude":"-105.96055560","name":"Embudo"},{"id":"2604553","latitude":"35.73944440","longitude":"-105.18888890","name":"Emplazado"},{"id":"2604554","latitude":"35.82583330","longitude":"-105.90388890","name":"En Medio"},{"id":"2604555","latitude":"35.11722220","longitude":"-107.46416670","name":"Encinal"},{"id":"2604556","latitude":"34.65111110","longitude":"-105.46111110","name":"Encino"},{"id":"2604557","latitude":"33.68555560","longitude":"-105.48277780","name":"Encinoso"},{"id":"2604558","latitude":"35.13777780","longitude":"-103.10722220","name":"Endee"},{"id":"2604559","latitude":"33.17694440","longitude":"-107.03083330","name":"Engle"},{"id":"2604560","latitude":"36.72722220","longitude":"-106.53277780","name":"Ensenada"},{"id":"2604561","latitude":"34.92500000","longitude":"-106.28944440","name":"Escabosa"},{"id":"2604562","latitude":"34.10138890","longitude":"-106.89583330","name":"Escondida"},{"id":"2604563","latitude":"35.95277780","longitude":"-105.89027780","name":"Escondillo"},{"id":"2604564","latitude":"35.99111110","longitude":"-106.08000000","name":"Espanola"},{"id":"2604565","latitude":"32.92972220","longitude":"-104.38722220","name":"Espuela"},{"id":"2604566","latitude":"36.11194440","longitude":"-106.05805560","name":"Estaca"},{"id":"2604567","latitude":"34.75833330","longitude":"-106.05527780","name":"Estancia"},{"id":"2604568","latitude":"34.99388890","longitude":"-105.91777780","name":"Estancia Ranchettes"},{"id":"2604569","latitude":"32.88527780","longitude":"-108.92055560","name":"Estes Place"},{"id":"2604570","latitude":"32.43722220","longitude":"-103.15861110","name":"Eunice"},{"id":"2604571","latitude":"34.41583330","longitude":"-104.49361110","name":"Evanola"},{"id":"2604572","latitude":"35.23000000","longitude":"-106.48694440","name":"Evergreen Hills Subdivision"},{"id":"2604573","latitude":"32.30388890","longitude":"-106.84611110","name":"Fairacres"},{"id":"2604574","latitude":"33.35305560","longitude":"-104.48500000","name":"Fairbanks"},{"id":"2604575","latitude":"36.00972220","longitude":"-106.06388890","name":"Fairview"},{"id":"2604576","latitude":"36.35277780","longitude":"-104.03861110","name":"Farley"},{"id":"2604577","latitude":"36.72805560","longitude":"-108.21805560","name":"Farmington"},{"id":"2604578","latitude":"34.65333330","longitude":"-108.67722220","name":"Fence Lake"},{"id":"2604579","latitude":"34.62861110","longitude":"-103.56500000","name":"Field"},{"id":"2604580","latitude":"32.84527780","longitude":"-108.07750000","name":"Fierro"},{"id":"2604581","latitude":"35.06611110","longitude":"-106.66611110","name":"Five Points"},{"id":"2604582","latitude":"36.69194440","longitude":"-107.75277780","name":"Fivemile Crossing"},{"id":"2604583","latitude":"36.79444440","longitude":"-108.07972220","name":"Flora Vista"},{"id":"2604584","latitude":"34.09111110","longitude":"-106.89777780","name":"Florida"},{"id":"2604585","latitude":"34.21416670","longitude":"-103.58000000","name":"Floyd"},{"id":"2604586","latitude":"36.84500000","longitude":"-103.91722220","name":"Folsom"},{"id":"2604587","latitude":"35.11638890","longitude":"-106.37194440","name":"Forest Park"},{"id":"2604588","latitude":"34.79472220","longitude":"-103.60083330","name":"Forrest"},{"id":"2604589","latitude":"32.79611110","longitude":"-108.14972220","name":"Fort Bayard"},{"id":"2604590","latitude":"32.48361110","longitude":"-106.91250000","name":"Fort Selden"},{"id":"2604591","latitude":"33.49583330","longitude":"-105.52250000","name":"Fort Stanton"},{"id":"2604592","latitude":"34.47166670","longitude":"-104.24500000","name":"Fort Sumner"},{"id":"2604593","latitude":"35.46777780","longitude":"-108.54055560","name":"Fort Wingate"},{"id":"2604594","latitude":"32.39027780","longitude":"-104.35972220","name":"Four Forks"},{"id":"2604595","latitude":"32.26500000","longitude":"-106.78555560","name":"Four Points"},{"id":"2604596","latitude":"32.37305560","longitude":"-104.71666670","name":"Four Wells"},{"id":"2604597","latitude":"33.01166670","longitude":"-107.62222220","name":"Francisco Rascon Place"},{"id":"2604598","latitude":"33.40638890","longitude":"-107.80305560","name":"Franks Place"},{"id":"2604599","latitude":"36.47416670","longitude":"-104.55777780","name":"French"},{"id":"2604600","latitude":"35.77888890","longitude":"-106.27055560","name":"Frijoles"},{"id":"2604601","latitude":"36.16111110","longitude":"-106.37000000","name":"Frijoles Spring"},{"id":"2604602","latitude":"32.68861110","longitude":"-104.39472220","name":"Frontier Post"},{"id":"2604603","latitude":"36.73916670","longitude":"-108.39500000","name":"Fruitland"},{"id":"2604604","latitude":"35.47555560","longitude":"-105.29111110","name":"Gabaldon"},{"id":"2604605","latitude":"32.22944440","longitude":"-108.08555560","name":"Gage"},{"id":"2604606","latitude":"35.39555560","longitude":"-105.94583330","name":"Galisteo"},{"id":"2604607","latitude":"34.40277780","longitude":"-103.29638890","name":"Gallaher"},{"id":"2604608","latitude":"35.43660000","longitude":"-103.26620000","name":"Gallegos"},{"id":"2604609","latitude":"35.67916670","longitude":"-105.35277780","name":"Gallinas"},{"id":"2604610","latitude":"35.52805560","longitude":"-108.74194440","name":"Gallup"},{"id":"2604611","latitude":"35.57222220","longitude":"-108.76472220","name":"Gamerco"},{"id":"2604612","latitude":"35.31583330","longitude":"-105.41333330","name":"Garanbuio"},{"id":"2604613","latitude":"31.33388890","longitude":"-108.86250000","name":"Garcia"},{"id":"2604614","latitude":"36.97611110","longitude":"-107.60361110","name":"Garcia Place"},{"id":"2604615","latitude":"36.88527780","longitude":"-104.48194440","name":"Gardiner"},{"id":"2604616","latitude":"32.75694440","longitude":"-107.26388890","name":"Garfield"},{"id":"2604617","latitude":"33.85055560","longitude":"-103.21277780","name":"Garrison"},{"id":"2604618","latitude":"32.32416670","longitude":"-108.81777780","name":"Gary"},{"id":"2604619","latitude":"35.88666670","longitude":"-105.44555560","name":"Gascon"},{"id":"2604620","latitude":"35.82250000","longitude":"-105.64416670","name":"Geronimo"},{"id":"2604621","latitude":"34.26777780","longitude":"-106.72944440","name":"Gibbs Place"},{"id":"2604622","latitude":"31.63666670","longitude":"-108.93861110","name":"Gibson"},{"id":"2604623","latitude":"31.76416670","longitude":"-108.79416670","name":"Gibson Place"},{"id":"2604624","latitude":"32.96583330","longitude":"-108.57611110","name":"Gila"},{"id":"2604625","latitude":"33.19583330","longitude":"-108.20638890","name":"Gila Hot Springs"},{"id":"2604626","latitude":"35.71611110","longitude":"-106.75944440","name":"Gilman"},{"id":"2604627","latitude":"35.44305560","longitude":"-105.61611110","name":"Gise"},{"id":"2604628","latitude":"33.25722220","longitude":"-103.17944440","name":"Gladiola"},{"id":"2604629","latitude":"36.30472220","longitude":"-103.97250000","name":"Gladstone"},{"id":"2604630","latitude":"33.40916670","longitude":"-105.44833330","name":"Glencoe"},{"id":"2604631","latitude":"35.17888890","longitude":"-103.04166670","name":"Glenrio"},{"id":"2604632","latitude":"33.31666670","longitude":"-108.88250000","name":"Glenwood"},{"id":"2604633","latitude":"35.58305560","longitude":"-105.76944440","name":"Glorieta"},{"id":"2604634","latitude":"34.80083330","longitude":"-106.29500000","name":"Glover Place"},{"id":"2604635","latitude":"35.26694440","longitude":"-106.21333330","name":"Golden"},{"id":"2604636","latitude":"35.88944440","longitude":"-105.18611110","name":"Golondrinas"},{"id":"2604637","latitude":"35.42833330","longitude":"-108.32027780","name":"Gonzales"},{"id":"2604638","latitude":"35.24583330","longitude":"-105.46000000","name":"Gonzales Ranch"},{"id":"2604639","latitude":"34.82138890","longitude":"-103.31694440","name":"Grady"},{"id":"2604640","latitude":"33.43055560","longitude":"-107.74555560","name":"Grafton"},{"id":"2604641","latitude":"32.74277780","longitude":"-107.03166670","name":"Grama"},{"id":"2604642","latitude":"34.26361110","longitude":"-106.10138890","name":"Gran Quivira"},{"id":"2604643","latitude":"36.67055560","longitude":"-103.77388890","name":"Grande"},{"id":"2604644","latitude":"35.14722220","longitude":"-107.85083330","name":"Grants"},{"id":"2604645","latitude":"35.79888890","longitude":"-105.65305560","name":"Grass Mountain Summer Home Area"},{"id":"2604646","latitude":"34.68666670","longitude":"-108.35638890","name":"Grassie Place"},{"id":"2604647","latitude":"33.16527780","longitude":"-104.34861110","name":"Greenfield"},{"id":"2604648","latitude":"34.09472220","longitude":"-108.14222220","name":"Greens Gap"},{"id":"2604649","latitude":"36.59277780","longitude":"-103.61583330","name":"Grenville"},{"id":"2604650","latitude":"33.96305560","longitude":"-108.87527780","name":"Gribble Place"},{"id":"2604651","latitude":"34.41055560","longitude":"-103.39805560","name":"Grier"},{"id":"2604652","latitude":"35.32083330","longitude":"-108.42694440","name":"Grubisich Place"},{"id":"2604653","latitude":"35.98277780","longitude":"-106.08361110","name":"Guachupangue"},{"id":"2604654","latitude":"34.54611110","longitude":"-104.42750000","name":"Guadalupe"},{"id":"2604655","latitude":"36.13750000","longitude":"-105.23805560","name":"Guadalupita"},{"id":"2604656","latitude":"32.17416670","longitude":"-108.26361110","name":"Guess Place"},{"id":"2604657","latitude":"36.08777780","longitude":"-106.07361110","name":"Guique"},{"id":"2604658","latitude":"34.06000000","longitude":"-107.92361110","name":"Gutierrezville"},{"id":"2604659","latitude":"36.81444440","longitude":"-103.43194440","name":"Guy"},{"id":"2604660","latitude":"31.91805560","longitude":"-108.31972220","name":"Hachita"},{"id":"2604661","latitude":"32.00194440","longitude":"-106.57694440","name":"Hacienda Acres"},{"id":"2604662","latitude":"33.11500000","longitude":"-104.32638890","name":"Hagerman"},{"id":"2604663","latitude":"32.41611110","longitude":"-104.22083330","name":"Hagerman Heights"},{"id":"2604664","latitude":"35.13055560","longitude":"-106.63416670","name":"Hahn"},{"id":"2604665","latitude":"32.55166670","longitude":"-103.73500000","name":"Halfway"},{"id":"2604666","latitude":"32.81333330","longitude":"-108.09055560","name":"Hanover"},{"id":"2604667","latitude":"32.77833330","longitude":"-108.11472220","name":"Hanover Junction"},{"id":"2604668","latitude":"33.54722220","longitude":"-106.98166670","name":"Hard Luck Crossing"},{"id":"2604669","latitude":"33.17333330","longitude":"-109.03833330","name":"Harden Cienega"},{"id":"2604670","latitude":"35.14611110","longitude":"-103.81583330","name":"Hargis"},{"id":"2604671","latitude":"32.23638890","longitude":"-104.19694440","name":"Harkey Crossing"},{"id":"2604672","latitude":"35.04805560","longitude":"-107.50194440","name":"Harrisburg"},{"id":"2604673","latitude":"32.24055560","longitude":"-104.04805560","name":"Harroun Crossing"},{"id":"2604674","latitude":"34.70666670","longitude":"-104.02305560","name":"Hassell"},{"id":"2604675","latitude":"32.66527780","longitude":"-107.15250000","name":"Hatch"},{"id":"2604676","latitude":"35.96833330","longitude":"-103.27111110","name":"Hayden"},{"id":"2604677","latitude":"36.73861110","longitude":"-104.46527780","name":"Hebron"},{"id":"2604678","latitude":"35.33777780","longitude":"-103.49833330","name":"Hendricks Place"},{"id":"2604679","latitude":"31.85083330","longitude":"-107.95138890","name":"Hermanas"},{"id":"2604680","latitude":"33.15750000","longitude":"-107.72944440","name":"Hermosa"},{"id":"2604681","latitude":"36.06277780","longitude":"-106.11888890","name":"Hernandez"},{"id":"2604682","latitude":"35.19222220","longitude":"-107.11416670","name":"Herrera"},{"id":"2604683","latitude":"32.51277780","longitude":"-107.07833330","name":"Hersey Place"},{"id":"2604684","latitude":"34.56527780","longitude":"-106.34472220","name":"Hewitt Place"},{"id":"2604685","latitude":"32.81583330","longitude":"-108.92805560","name":"Hext Place"},{"id":"2604686","latitude":"33.17944440","longitude":"-104.52444440","name":"Higgins Place"},{"id":"2604687","latitude":"31.41777780","longitude":"-108.55750000","name":"High Lonesome Wells"},{"id":"2604688","latitude":"32.95083330","longitude":"-105.83500000","name":"High Rolls"},{"id":"2604689","latitude":"33.36611110","longitude":"-104.84777780","name":"Highway Mill"},{"id":"2604690","latitude":"32.42722220","longitude":"-106.85305560","name":"Hill"},{"id":"2604691","latitude":"33.08555560","longitude":"-103.31583330","name":"Hillburn City"},{"id":"2604692","latitude":"32.92083330","longitude":"-107.56638890","name":"Hillsboro"},{"id":"2604693","latitude":"33.64055560","longitude":"-109.01861110","name":"Hinkle Park"},{"id":"2604694","latitude":"32.70250000","longitude":"-103.13555560","name":"Hobbs"},{"id":"2604695","latitude":"32.60250000","longitude":"-107.28472220","name":"Hockett"},{"id":"2604696","latitude":"35.11333330","longitude":"-106.53722220","name":"Hoffmantown"},{"id":"2604697","latitude":"34.68916670","longitude":"-108.25166670","name":"Hogg Place"},{"id":"2604698","latitude":"34.77750000","longitude":"-103.09027780","name":"Hollene"},{"id":"2604699","latitude":"33.32333330","longitude":"-105.63444440","name":"Hollywood"},{"id":"2604700","latitude":"36.03833330","longitude":"-105.38305560","name":"Holman"},{"id":"2604701","latitude":"35.76000000","longitude":"-105.69194440","name":"Holy Ghost"},{"id":"2604702","latitude":"33.75416670","longitude":"-103.70944440","name":"Home Place Well"},{"id":"2604703","latitude":"33.38750000","longitude":"-105.27027780","name":"Hondo"},{"id":"2604704","latitude":"35.37611110","longitude":"-104.21722220","name":"Hooverville"},{"id":"2604705","latitude":"32.81027780","longitude":"-104.73222220","name":"Hope"},{"id":"2604706","latitude":"35.14194440","longitude":"-106.20861110","name":"Horton Place"},{"id":"2604707","latitude":"35.73527780","longitude":"-107.74583330","name":"Hospah"},{"id":"2604708","latitude":"35.65388890","longitude":"-105.29111110","name":"Hot Springs"},{"id":"2604709","latitude":"33.20722220","longitude":"-107.21000000","name":"Hot Springs Landing"},{"id":"2604710","latitude":"34.64666670","longitude":"-103.90388890","name":"House"},{"id":"2604711","latitude":"35.26416670","longitude":"-103.53250000","name":"Hudson"},{"id":"2604712","latitude":"36.52694440","longitude":"-108.03083330","name":"Huerfano"},{"id":"2604713","latitude":"34.67805560","longitude":"-107.78027780","name":"Hughes Place"},{"id":"2604714","latitude":"32.79500000","longitude":"-103.21861110","name":"Humble City"},{"id":"2604715","latitude":"32.86250000","longitude":"-104.73833330","name":"Hunter Place"},{"id":"2604716","latitude":"32.69916670","longitude":"-108.13138890","name":"Hurley"},{"id":"2604717","latitude":"34.71388890","longitude":"-106.37000000","name":"Hyde Place"},{"id":"2604718","latitude":"35.21444440","longitude":"-106.11861110","name":"Hyer"},{"id":"2604719","latitude":"36.54944440","longitude":"-105.30472220","name":"Idlewild"},{"id":"2604720","latitude":"35.42111110","longitude":"-105.55833330","name":"Ilfeld"},{"id":"2604721","latitude":"32.70944440","longitude":"-104.21250000","name":"Illinois Camp"},{"id":"2604722","latitude":"36.89277780","longitude":"-107.92666670","name":"Inca"},{"id":"2604723","latitude":"33.96666670","longitude":"-103.14333330","name":"Inez"},{"id":"2604724","latitude":"34.90722220","longitude":"-106.68861110","name":"Isleta"},{"id":"2604725","latitude":"34.90694440","longitude":"-106.68027780","name":"Isleta Pueblo"},{"id":"2604726","latitude":"34.90777780","longitude":"-106.69250000","name":"Isleta Village Proper"},{"id":"2604727","latitude":"35.52222220","longitude":"-108.47694440","name":"Iyanbito"},{"id":"2604728","latitude":"35.28888890","longitude":"-105.62694440","name":"Jack Canon Place"},{"id":"2604729","latitude":"35.89055560","longitude":"-106.04166670","name":"Jacona"},{"id":"2604730","latitude":"35.88611110","longitude":"-106.05944440","name":"Jaconita"},{"id":"2604731","latitude":"32.11305560","longitude":"-103.19305560","name":"Jal"},{"id":"2604732","latitude":"34.61305560","longitude":"-106.76305560","name":"Jarales"},{"id":"2604733","latitude":"35.03861110","longitude":"-106.13222220","name":"Jarett Place"},{"id":"2604734","latitude":"36.04666670","longitude":"-106.68444440","name":"Jarosa"},{"id":"2604735","latitude":"34.19555560","longitude":"-107.77388890","name":"Jeffers Place"},{"id":"2604736","latitude":"35.61388890","longitude":"-106.72527780","name":"Jemez Pueblo"},{"id":"2604737","latitude":"35.76861110","longitude":"-106.69166670","name":"Jemez Springs"},{"id":"2604738","latitude":"33.41694440","longitude":"-107.55027780","name":"Jewkes Place"},{"id":"2604739","latitude":"33.86888890","longitude":"-105.66250000","name":"Jicarilla"},{"id":"2604740","latitude":"31.77055560","longitude":"-108.80250000","name":"Jim Robinson"},{"id":"2604741","latitude":"31.66611110","longitude":"-108.83166670","name":"Joe Yarbrough"},{"id":"2604742","latitude":"34.48722220","longitude":"-105.04388890","name":"Joffre"},{"id":"2604743","latitude":"34.38416670","longitude":"-107.47388890","name":"John Padilla Settlement"},{"id":"2604744","latitude":"35.01277780","longitude":"-106.08833330","name":"Johns Place"},{"id":"2604745","latitude":"32.47055560","longitude":"-103.12527780","name":"Jones City"},{"id":"2604746","latitude":"34.79444440","longitude":"-103.84777780","name":"Jordan"},{"id":"2604747","latitude":"33.12305560","longitude":"-107.03333330","name":"Jornada"},{"id":"2604748","latitude":"35.02694440","longitude":"-106.29777780","name":"Juan Tomas"},{"id":"2604749","latitude":"34.65472220","longitude":"-108.24250000","name":"Julian Place"},{"id":"2604750","latitude":"32.98166670","longitude":"-105.99138890","name":"Kearney"},{"id":"2604751","latitude":"34.08305560","longitude":"-107.20472220","name":"Kelly"},{"id":"2604752","latitude":"33.84222220","longitude":"-103.77138890","name":"Kenna"},{"id":"2604753","latitude":"35.40416670","longitude":"-105.98555560","name":"Kennedy"},{"id":"2604754","latitude":"32.10638890","longitude":"-107.01583330","name":"Kenzin"},{"id":"2604755","latitude":"36.95444440","longitude":"-104.47583330","name":"Keota"},{"id":"2604756","latitude":"34.00111110","longitude":"-103.59222220","name":"Kermit"},{"id":"2604757","latitude":"32.51472220","longitude":"-107.04444440","name":"Kimball Place"},{"id":"2604758","latitude":"36.18361110","longitude":"-107.84083330","name":"Kimbeto"},{"id":"2604759","latitude":"33.49083330","longitude":"-106.01888890","name":"Kimmons"},{"id":"2604760","latitude":"34.78083330","longitude":"-106.31305560","name":"King Place"},{"id":"2604761","latitude":"32.91694440","longitude":"-107.70555560","name":"Kingston"},{"id":"2604762","latitude":"35.01027780","longitude":"-106.66027780","name":"Kinney"},{"id":"2604763","latitude":"33.87111110","longitude":"-106.74944440","name":"Kinney Wells"},{"id":"2604764","latitude":"36.65388890","longitude":"-104.10722220","name":"Kiowa"},{"id":"2604765","latitude":"36.57916670","longitude":"-105.59638890","name":"Kiowa Village"},{"id":"2604766","latitude":"36.73416670","longitude":"-108.35916670","name":"Kirtland"},{"id":"2604767","latitude":"35.05527780","longitude":"-106.63027780","name":"Kirtland Addition"},{"id":"2604768","latitude":"33.44916670","longitude":"-107.85722220","name":"Kline Place"},{"id":"2604769","latitude":"32.84027780","longitude":"-103.12722220","name":"Knowles"},{"id":"2604770","latitude":"32.55888890","longitude":"-104.57916670","name":"Knowles Place"},{"id":"2604771","latitude":"36.74083330","longitude":"-104.61777780","name":"Koehler"},{"id":"2604772","latitude":"34.43388890","longitude":"-103.84361110","name":"Krider"},{"id":"2604773","latitude":"35.73527780","longitude":"-105.03777780","name":"Kroenigs"},{"id":"2604774","latitude":"35.55611110","longitude":"-106.24027780","name":"La Bajada"},{"id":"2604775","latitude":"36.21555560","longitude":"-105.90416670","name":"La Bolsa"},{"id":"2604776","latitude":"36.20166670","longitude":"-106.32111110","name":"La Careda"},{"id":"2604777","latitude":"36.09500000","longitude":"-106.13750000","name":"La Chuachia"},{"id":"2604778","latitude":"36.21361110","longitude":"-105.92305560","name":"La Cienaga"},{"id":"2604779","latitude":"35.56277780","longitude":"-106.13027780","name":"La Cienega"},{"id":"2604780","latitude":"34.67833330","longitude":"-106.73444440","name":"La Constancia"},{"id":"2604781","latitude":"35.07833330","longitude":"-106.50638890","name":"La Cuesta"},{"id":"2604782","latitude":"36.16416670","longitude":"-105.80333330","name":"La Cuestecita"},{"id":"2604783","latitude":"35.59111110","longitude":"-105.73250000","name":"La Cueva"},{"id":"2604784","latitude":"35.31472220","longitude":"-105.40611110","name":"La Fragua"},{"id":"2604785","latitude":"35.30944440","longitude":"-107.19027780","name":"La Gotera"},{"id":"2604786","latitude":"32.44277780","longitude":"-104.22055560","name":"La Huerta"},{"id":"2604787","latitude":"36.08777780","longitude":"-106.97416670","name":"La Jara"},{"id":"2604788","latitude":"34.34611110","longitude":"-106.84500000","name":"La Joya"},{"id":"2604789","latitude":"36.21138890","longitude":"-105.91638890","name":"La Junta"},{"id":"2604790","latitude":"34.82666670","longitude":"-106.66611110","name":"La Ladera"},{"id":"2604791","latitude":"34.44805560","longitude":"-104.13361110","name":"La Lande"},{"id":"2604792","latitude":"35.42222220","longitude":"-105.05000000","name":"La Liendre"},{"id":"2604793","latitude":"35.19420000","longitude":"-105.08640000","name":"La Loma"},{"id":"2604794","latitude":"32.97777780","longitude":"-105.94138890","name":"La Luz"},{"id":"2604795","latitude":"35.22277780","longitude":"-106.37000000","name":"La Madera"},{"id":"2604796","latitude":"35.50944440","longitude":"-105.26333330","name":"La Manga"},{"id":"2604797","latitude":"32.12194440","longitude":"-106.70722220","name":"La Mesa"},{"id":"2604798","latitude":"35.94833330","longitude":"-106.07000000","name":"La Mesilla"},{"id":"2604799","latitude":"33.43305560","longitude":"-107.42055560","name":"La Petra"},{"id":"2604800","latitude":"36.03527780","longitude":"-106.95805560","name":"La Placita"},{"id":"2604801","latitude":"36.92861110","longitude":"-108.18972220","name":"La Plata"},{"id":"2604802","latitude":"35.98916670","longitude":"-105.99583330","name":"La Puebla"},{"id":"2604803","latitude":"36.70000000","longitude":"-106.60027780","name":"La Puente"},{"id":"2604804","latitude":"31.95055560","longitude":"-106.66111110","name":"La Union"},{"id":"2604805","latitude":"31.94083330","longitude":"-106.66888890","name":"La Union Vieja"},{"id":"2604806","latitude":"36.10333330","longitude":"-106.04750000","name":"La Villita"},{"id":"2604807","latitude":"36.38694440","longitude":"-106.04083330","name":"LaMadera"},{"id":"2604808","latitude":"35.82722220","longitude":"-106.97083330","name":"LaVentana"},{"id":"2604809","latitude":"33.94583330","longitude":"-106.86805560","name":"Laborcita"},{"id":"2604810","latitude":"35.08138890","longitude":"-106.13916670","name":"Lacy Place"},{"id":"2604811","latitude":"35.03666670","longitude":"-107.38222220","name":"Laguna"},{"id":"2604812","latitude":"35.52916670","longitude":"-105.33750000","name":"Lagunas"},{"id":"2604813","latitude":"35.36722220","longitude":"-105.24416670","name":"Lagunita"},{"id":"2604814","latitude":"35.99250000","longitude":"-106.98638890","name":"Lagunitas"},{"id":"2604815","latitude":"32.99805560","longitude":"-104.36611110","name":"Lake Arthur"},{"id":"2604816","latitude":"34.62277780","longitude":"-104.37611110","name":"Lake Sumner"},{"id":"2604817","latitude":"36.09166670","longitude":"-108.15666670","name":"Lake Valley"},{"id":"2604818","latitude":"33.19333330","longitude":"-104.35666670","name":"Lake Van"},{"id":"2604819","latitude":"36.50861110","longitude":"-105.30305560","name":"Lakeview Pines"},{"id":"2604820","latitude":"36.64972220","longitude":"-105.61777780","name":"Lama"},{"id":"2604821","latitude":"35.48138890","longitude":"-105.87916670","name":"Lamy"},{"id":"2604822","latitude":"31.97000000","longitude":"-106.81583330","name":"Lanark"},{"id":"2604823","latitude":"36.90000000","longitude":"-108.18972220","name":"Laplata PO"},{"id":"2604824","latitude":"34.44694440","longitude":"-104.71111110","name":"Largo"},{"id":"2604825","latitude":"35.37444440","longitude":"-106.48500000","name":"Las Colonias"},{"id":"2604826","latitude":"32.31222220","longitude":"-106.77777780","name":"Las Cruces"},{"id":"2604827","latitude":"35.74527780","longitude":"-105.35916670","name":"Las Dispensas"},{"id":"2604828","latitude":"35.76166670","longitude":"-106.03000000","name":"Las Dos"},{"id":"2604829","latitude":"35.30277780","longitude":"-106.40583330","name":"Las Huertas"},{"id":"2604830","latitude":"36.16250000","longitude":"-105.56944440","name":"Las Mochas"},{"id":"2604831","latitude":"34.47666670","longitude":"-106.77000000","name":"Las Nutrias"},{"id":"2604832","latitude":"33.06250000","longitude":"-107.29777780","name":"Las Palomas"},{"id":"2604833","latitude":"36.32305560","longitude":"-106.16194440","name":"Las Placitas"},{"id":"2604834","latitude":"36.55555560","longitude":"-106.02861110","name":"Las Tablas"},{"id":"2604835","latitude":"35.76527780","longitude":"-105.28250000","name":"Las Tusas"},{"id":"2604836","latitude":"35.59388890","longitude":"-105.22333330","name":"Las Vegas"},{"id":"2604837","latitude":"36.98000000","longitude":"-106.09416670","name":"Lava"},{"id":"2604838","latitude":"32.52222220","longitude":"-103.53277780","name":"Lea"},{"id":"2604839","latitude":"32.45388890","longitude":"-106.88250000","name":"Leasburg"},{"id":"2604840","latitude":"35.92361110","longitude":"-105.36083330","name":"Ledoux"},{"id":"2604841","latitude":"35.14861110","longitude":"-106.64638890","name":"Lee Acres"},{"id":"2604842","latitude":"34.45750000","longitude":"-108.03583330","name":"Lehew"},{"id":"2604843","latitude":"34.15972220","longitude":"-106.90972220","name":"Lemitar"},{"id":"2604844","latitude":"35.57111110","longitude":"-107.59944440","name":"Leon"},{"id":"2604845","latitude":"34.67166670","longitude":"-105.13805560","name":"Leoncito"},{"id":"2604846","latitude":"35.16194440","longitude":"-103.57805560","name":"Lesbia"},{"id":"2604847","latitude":"36.08805560","longitude":"-104.68611110","name":"Levy"},{"id":"2604848","latitude":"34.15555560","longitude":"-106.89638890","name":"Limitar"},{"id":"2604849","latitude":"33.49194440","longitude":"-105.38333330","name":"Lincoln"},{"id":"2604850","latitude":"36.30444440","longitude":"-107.04444440","name":"Lindrith"},{"id":"2604851","latitude":"33.78833330","longitude":"-103.11416670","name":"Lingo"},{"id":"2604852","latitude":"32.27777780","longitude":"-108.54694440","name":"Lisbon"},{"id":"2604853","latitude":"32.83527780","longitude":"-108.27388890","name":"Little Walnut Village"},{"id":"2604854","latitude":"36.44638890","longitude":"-108.72416670","name":"Little Water"},{"id":"2604855","latitude":"31.82166670","longitude":"-106.62833330","name":"Lizard"},{"id":"2604856","latitude":"36.14000000","longitude":"-105.68111110","name":"Llano"},{"id":"2604857","latitude":"35.18972220","longitude":"-105.10916670","name":"Llano Del Medio"},{"id":"2604858","latitude":"36.14055560","longitude":"-105.65861110","name":"Llano Largo"},{"id":"2604859","latitude":"36.34888890","longitude":"-105.61222220","name":"Llano Quemado"},{"id":"2604860","latitude":"35.18777780","longitude":"-105.12583330","name":"Llano Viejo"},{"id":"2604861","latitude":"36.37277780","longitude":"-106.86611110","name":"Llaves"},{"id":"2604862","latitude":"36.95416670","longitude":"-106.54083330","name":"Lobato"},{"id":"2604863","latitude":"32.81888890","longitude":"-103.97722220","name":"Loco Hills"},{"id":"2604864","latitude":"35.36527780","longitude":"-103.41027780","name":"Logan"},{"id":"2604865","latitude":"35.84666670","longitude":"-105.07527780","name":"Loma Parda"},{"id":"2604866","latitude":"34.15000000","longitude":"-105.12333330","name":"Lon"},{"id":"2604867","latitude":"33.69250000","longitude":"-103.84000000","name":"Lone Wolf"},{"id":"2604868","latitude":"32.22527780","longitude":"-104.11861110","name":"Lookout Crossing"},{"id":"2604869","latitude":"32.35027780","longitude":"-108.70805560","name":"Lordsburg"},{"id":"2604870","latitude":"35.88805560","longitude":"-106.30638890","name":"Los Alamos"},{"id":"2604871","latitude":"35.12333330","longitude":"-106.66333330","name":"Los Candelarias"},{"id":"2604872","latitude":"35.43888890","longitude":"-106.12277780","name":"Los Cerrilos"},{"id":"2604873","latitude":"34.72694440","longitude":"-106.73777780","name":"Los Chaves"},{"id":"2604874","latitude":"34.72666670","longitude":"-106.75305560","name":"Los Chavez"},{"id":"2604875","latitude":"36.07361110","longitude":"-105.22916670","name":"Los Cisneros"},{"id":"2604876","latitude":"36.11277780","longitude":"-105.21333330","name":"Los Cocas"},{"id":"2604877","latitude":"36.38722220","longitude":"-105.63694440","name":"Los Cordovas"},{"id":"2604878","latitude":"35.10861110","longitude":"-106.67694440","name":"Los Duranes"},{"id":"2604879","latitude":"35.13944440","longitude":"-106.65027780","name":"Los Griegos"},{"id":"2604880","latitude":"36.16277780","longitude":"-105.11805560","name":"Los Huerros"},{"id":"2604881","latitude":"36.19944440","longitude":"-105.11388890","name":"Los LeFebres"},{"id":"2604882","latitude":"34.82333330","longitude":"-106.73166670","name":"Los Lentes"},{"id":"2604883","latitude":"36.10972220","longitude":"-106.04638890","name":"Los Luceros"},{"id":"2604884","latitude":"34.80611110","longitude":"-106.73277780","name":"Los Lunas"},{"id":"2604885","latitude":"35.41361110","longitude":"-105.94250000","name":"Los Marias"},{"id":"2604886","latitude":"36.04416670","longitude":"-105.22222220","name":"Los Medinas"},{"id":"2604887","latitude":"35.41944440","longitude":"-105.20722220","name":"Los Montoyas"},{"id":"2604888","latitude":"34.68527780","longitude":"-104.46055560","name":"Los Ojitos"},{"id":"2604889","latitude":"36.72916670","longitude":"-106.56944440","name":"Los Ojos"},{"id":"2604890","latitude":"35.59350000","longitude":"-105.56930000","name":"Los Pachecos"},{"id":"2604891","latitude":"34.96916670","longitude":"-106.69527780","name":"Los Padillas"},{"id":"2604892","latitude":"35.11583330","longitude":"-106.31611110","name":"Los Pinos"},{"id":"2604893","latitude":"35.16194440","longitude":"-106.64222220","name":"Los Ranchos de Albuquerque"},{"id":"2604894","latitude":"34.99527780","longitude":"-104.54222220","name":"Los Tanos"},{"id":"2604895","latitude":"34.64666670","longitude":"-106.76027780","name":"Los Trujillos"},{"id":"2604896","latitude":"35.64944440","longitude":"-105.26305560","name":"Los Vigiles"},{"id":"2604897","latitude":"35.28722220","longitude":"-105.39138890","name":"Lovato"},{"id":"2604898","latitude":"33.76805560","longitude":"-106.04083330","name":"Lovelace"},{"id":"2604899","latitude":"31.64361110","longitude":"-108.93333330","name":"Lovett"},{"id":"2604900","latitude":"32.28611110","longitude":"-104.09527780","name":"Loving"},{"id":"2604901","latitude":"33.18666670","longitude":"-104.51000000","name":"Loving Place"},{"id":"2604902","latitude":"32.94388890","longitude":"-103.34805560","name":"Lovington"},{"id":"2604903","latitude":"36.19861110","longitude":"-106.45000000","name":"Lower Canones"},{"id":"2604904","latitude":"35.54166670","longitude":"-105.58305560","name":"Lower Colonias"},{"id":"2604905","latitude":"35.63805560","longitude":"-105.67861110","name":"Lower La Posada"},{"id":"2604906","latitude":"31.65638890","longitude":"-108.94222220","name":"Lower Lovett Place"},{"id":"2604907","latitude":"35.25666670","longitude":"-108.58888890","name":"Lower Nutria"},{"id":"2604908","latitude":"35.32638890","longitude":"-105.42944440","name":"Lower Pueblo"},{"id":"2604909","latitude":"33.66277780","longitude":"-108.78666670","name":"Lower San Francisco Plaza"},{"id":"2604910","latitude":"36.01638890","longitude":"-105.22777780","name":"Lucero"},{"id":"2604911","latitude":"36.90194440","longitude":"-107.58944440","name":"Lucero Place"},{"id":"2604912","latitude":"34.65194440","longitude":"-105.83638890","name":"Lucy"},{"id":"2604913","latitude":"33.98888890","longitude":"-106.88472220","name":"Luis Lopez"},{"id":"2604914","latitude":"36.93000000","longitude":"-106.93638890","name":"Lumberton"},{"id":"2604915","latitude":"33.81888890","longitude":"-108.95388890","name":"Luna"},{"id":"2604916","latitude":"36.23333330","longitude":"-107.56166670","name":"Lybrook"},{"id":"2604917","latitude":"36.14611110","longitude":"-106.00500000","name":"Lyden"},{"id":"2604918","latitude":"31.62722220","longitude":"-108.91166670","name":"Mace"},{"id":"2604919","latitude":"36.98472220","longitude":"-107.53527780","name":"Mackey Place"},{"id":"2604920","latitude":"35.40666670","longitude":"-106.15194440","name":"Madrid"},{"id":"2604921","latitude":"34.59388890","longitude":"-106.73250000","name":"Madrone"},{"id":"2604922","latitude":"34.66305560","longitude":"-106.28694440","name":"Maez Place"},{"id":"2604923","latitude":"34.11666670","longitude":"-107.24333330","name":"Magdalena"},{"id":"2604924","latitude":"32.22388890","longitude":"-104.07194440","name":"Malaga"},{"id":"2604925","latitude":"32.85611110","longitude":"-103.76222220","name":"Maljamar"},{"id":"2604926","latitude":"31.79833330","longitude":"-107.25250000","name":"Malpais"},{"id":"2604927","latitude":"34.15694440","longitude":"-108.31861110","name":"Mangas"},{"id":"2604928","latitude":"32.84250000","longitude":"-108.51111110","name":"Mangas Springs"},{"id":"2604929","latitude":"35.80055560","longitude":"-105.27805560","name":"Manuelitas"},{"id":"2604930","latitude":"35.42194440","longitude":"-108.99333330","name":"Manuelito"},{"id":"2604931","latitude":"34.14361110","longitude":"-108.77611110","name":"Manuelito Place"},{"id":"2604932","latitude":"34.64666670","longitude":"-106.34444440","name":"Manzano"},{"id":"2604933","latitude":"32.82861110","longitude":"-105.76722220","name":"Marcia"},{"id":"2604934","latitude":"35.57805560","longitude":"-108.32138890","name":"Mariano Lake"},{"id":"2604935","latitude":"35.01722220","longitude":"-107.30000000","name":"Marmon"},{"id":"2604936","latitude":"35.31444440","longitude":"-107.30194440","name":"Marquez"},{"id":"2604937","latitude":"34.53638890","longitude":"-106.33000000","name":"Martin Place"},{"id":"2604938","latitude":"34.99916670","longitude":"-106.19055560","name":"Martinez"},{"id":"2604939","latitude":"35.08916670","longitude":"-106.64138890","name":"Martinez Town"},{"id":"2604940","latitude":"31.82194440","longitude":"-106.69527780","name":"Mastodon"},{"id":"2604941","latitude":"32.84916670","longitude":"-108.83527780","name":"Matthew Place"},{"id":"2604942","latitude":"32.75333330","longitude":"-105.63000000","name":"Maxon"},{"id":"2604943","latitude":"36.54000000","longitude":"-104.54277780","name":"Maxwell"},{"id":"2604944","latitude":"32.88944440","longitude":"-105.47750000","name":"Mayhill"},{"id":"2604945","latitude":"32.36027780","longitude":"-103.15222220","name":"Maypens"},{"id":"2604946","latitude":"34.69222220","longitude":"-103.77583330","name":"McAlister"},{"id":"2604947","latitude":"35.06277780","longitude":"-107.66888890","name":"McCartys"},{"id":"2604948","latitude":"34.42388890","longitude":"-107.81416670","name":"McCord Place"},{"id":"2604949","latitude":"36.81055560","longitude":"-105.14472220","name":"McCrystal Place"},{"id":"2604950","latitude":"35.52777780","longitude":"-108.59027780","name":"McCune"},{"id":"2604951","latitude":"36.46833330","longitude":"-104.84611110","name":"McDaniel Cimarron Place"},{"id":"2604952","latitude":"33.77222220","longitude":"-104.45361110","name":"McDermott Wells"},{"id":"2604953","latitude":"33.14055560","longitude":"-103.31694440","name":"McDonald"},{"id":"2604954","latitude":"31.47194440","longitude":"-108.32527780","name":"McFarlands"},{"id":"2604955","latitude":"35.37527780","longitude":"-108.51500000","name":"McGaffey"},{"id":"2604956","latitude":"32.18027780","longitude":"-108.93166670","name":"McGhee Wells"},{"id":"2604957","latitude":"36.83083330","longitude":"-105.84500000","name":"McGreggor Place"},{"id":"2604958","latitude":"34.86472220","longitude":"-106.05111110","name":"McIntosh"},{"id":"2604959","latitude":"32.82333330","longitude":"-108.88972220","name":"McKelvey Place"},{"id":"2604960","latitude":"34.63833330","longitude":"-106.38138890","name":"McKinley Place"},{"id":"2604961","latitude":"36.69166670","longitude":"-103.06222220","name":"McNees Crossing"},{"id":"2604962","latitude":"34.19361110","longitude":"-106.90555560","name":"McNierney"},{"id":"2604963","latitude":"34.80138890","longitude":"-106.54305560","name":"Meadow Lake"},{"id":"2604964","latitude":"36.17555560","longitude":"-106.18277780","name":"Medanales"},{"id":"2604965","latitude":"32.12277780","longitude":"-103.37222220","name":"Medlin Place"},{"id":"2604966","latitude":"33.54277780","longitude":"-104.39750000","name":"Melena"},{"id":"2604967","latitude":"34.43027780","longitude":"-103.63194440","name":"Melrose"},{"id":"2604968","latitude":"35.51416670","longitude":"-108.84500000","name":"Mentmore"},{"id":"2604969","latitude":"35.34555560","longitude":"-108.48416670","name":"Merrill Place"},{"id":"2604970","latitude":"33.98416670","longitude":"-104.67722220","name":"Mesa"},{"id":"2604971","latitude":"35.08972220","longitude":"-106.54250000","name":"Mesa Village"},{"id":"2604972","latitude":"33.15750000","longitude":"-105.77361110","name":"Mescalero"},{"id":"2604973","latitude":"32.27000000","longitude":"-106.80027780","name":"Mesilla"},{"id":"2604974","latitude":"32.27583330","longitude":"-106.76611110","name":"Mesilla Park"},{"id":"2604975","latitude":"35.01833330","longitude":"-107.31222220","name":"Mesita"},{"id":"2604976","latitude":"32.16444440","longitude":"-106.69611110","name":"Mesquite"},{"id":"2604977","latitude":"35.79277780","longitude":"-108.82638890","name":"Mexican Springs"},{"id":"2604978","latitude":"36.35000000","longitude":"-104.79250000","name":"Miami"},{"id":"2604979","latitude":"31.66972220","longitude":"-108.83361110","name":"Middle Wells"},{"id":"2604980","latitude":"33.29472220","longitude":"-104.45000000","name":"Midway"},{"id":"2604981","latitude":"34.96500000","longitude":"-106.29083330","name":"Miera"},{"id":"2604982","latitude":"34.93833330","longitude":"-105.23861110","name":"Milagro"},{"id":"2604983","latitude":"35.16972220","longitude":"-107.89027780","name":"Milan"},{"id":"2604984","latitude":"33.94027780","longitude":"-107.24750000","name":"Mill Place"},{"id":"2604985","latitude":"36.08527780","longitude":"-104.25472220","name":"Mills"},{"id":"2604986","latitude":"33.64277780","longitude":"-103.33916670","name":"Milnesand"},{"id":"2604987","latitude":"32.85611110","longitude":"-107.97916670","name":"Mimbres"},{"id":"2604988","latitude":"35.60972220","longitude":"-105.40083330","name":"Mineral Hill"},{"id":"2604989","latitude":"31.93500000","longitude":"-108.37583330","name":"Minero"},{"id":"2604990","latitude":"32.33000000","longitude":"-107.66000000","name":"Mirage"},{"id":"2604991","latitude":"32.24666670","longitude":"-108.61333330","name":"Mitchell Place"},{"id":"2604992","latitude":"33.39666670","longitude":"-108.79361110","name":"Mogollon"},{"id":"2604993","latitude":"36.69694440","longitude":"-105.49222220","name":"Moly"},{"id":"2604994","latitude":"32.26166670","longitude":"-108.91388890","name":"Mondel"},{"id":"2604995","latitude":"36.90194440","longitude":"-106.85472220","name":"Monero"},{"id":"2604996","latitude":"35.95527780","longitude":"-105.39444440","name":"Monte Aplanado"},{"id":"2604997","latitude":"36.19000000","longitude":"-105.85444440","name":"Montecito"},{"id":"2604998","latitude":"35.65222220","longitude":"-105.27583330","name":"Montezuma"},{"id":"2604999","latitude":"33.39694440","longitude":"-107.45027780","name":"Monticello"},{"id":"2605000","latitude":"35.37222220","longitude":"-104.77777780","name":"Montosa"},{"id":"2605001","latitude":"35.09972220","longitude":"-104.06333330","name":"Montoya"},{"id":"2605002","latitude":"32.62388890","longitude":"-103.26388890","name":"Monument"},{"id":"2605003","latitude":"32.89138890","longitude":"-108.98694440","name":"Moore Place"},{"id":"2605004","latitude":"34.63055560","longitude":"-106.27083330","name":"Moorehead Place"},{"id":"2605005","latitude":"35.17250000","longitude":"-107.36833330","name":"Moquino"},{"id":"2605006","latitude":"35.97416670","longitude":"-105.32944440","name":"Mora"},{"id":"2605007","latitude":"34.99000000","longitude":"-106.04861110","name":"Moriarty"},{"id":"2605008","latitude":"33.91944440","longitude":"-107.58944440","name":"Morine Place"},{"id":"2605009","latitude":"36.71222220","longitude":"-103.05972220","name":"Moses"},{"id":"2605010","latitude":"35.08250000","longitude":"-106.16194440","name":"Mosley Place"},{"id":"2605011","latitude":"35.77694440","longitude":"-103.95611110","name":"Mosquero"},{"id":"2605012","latitude":"33.05388890","longitude":"-104.35305560","name":"Mossman"},{"id":"2605013","latitude":"36.51944440","longitude":"-103.48861110","name":"Mount Dora"},{"id":"2605014","latitude":"32.95055560","longitude":"-105.82416670","name":"Mountain Park"},{"id":"2605015","latitude":"33.34000000","longitude":"-104.52277780","name":"Mountain View"},{"id":"2605016","latitude":"34.52027780","longitude":"-106.24055560","name":"Mountainair"},{"id":"2605017","latitude":"34.99500000","longitude":"-106.66388890","name":"Mountainview"},{"id":"2605018","latitude":"31.79944440","longitude":"-108.92166670","name":"Mouser Place"},{"id":"2605019","latitude":"33.12194440","longitude":"-108.95555560","name":"Mule Creek"},{"id":"2605020","latitude":"36.92111110","longitude":"-107.52555560","name":"Mullen Place"},{"id":"2605021","latitude":"33.04166670","longitude":"-107.78944440","name":"Murphy Place"},{"id":"2605022","latitude":"35.44000000","longitude":"-105.21333330","name":"Myers"},{"id":"2605023","latitude":"32.26000000","longitude":"-107.45666670","name":"Myndus"},{"id":"2605024","latitude":"32.62388890","longitude":"-103.12694440","name":"Nadine"},{"id":"2605025","latitude":"36.26666670","longitude":"-107.74138890","name":"Nageezi"},{"id":"2605026","latitude":"35.79277780","longitude":"-108.82638890","name":"Nakaibito"},{"id":"2605027","latitude":"35.89333330","longitude":"-105.98194440","name":"Nambe"},{"id":"2605028","latitude":"35.88750000","longitude":"-105.96444440","name":"Nambe Pueblo"},{"id":"2605029","latitude":"35.60750000","longitude":"-103.09916670","name":"Nara Visa"},{"id":"2605030","latitude":"36.16166670","longitude":"-104.98250000","name":"Naranjos"},{"id":"2605031","latitude":"36.06500000","longitude":"-108.68138890","name":"Naschitti"},{"id":"2605032","latitude":"35.90000000","longitude":"-109.03333330","name":"Navajo"},{"id":"2605033","latitude":"36.75194440","longitude":"-107.60166670","name":"Navajo City"},{"id":"2605034","latitude":"36.80027780","longitude":"-107.61194440","name":"Navajo Dam"},{"id":"2605035","latitude":"35.54972220","longitude":"-108.59805560","name":"Navajo Wingate Village"},{"id":"2605036","latitude":"35.32361110","longitude":"-108.45472220","name":"Navarre Place"},{"id":"2605037","latitude":"34.66388890","longitude":"-105.53666670","name":"Negra"},{"id":"2605038","latitude":"34.77666670","longitude":"-106.33416670","name":"Nelson Place"},{"id":"2605039","latitude":"36.73611110","longitude":"-108.41750000","name":"Nenahnezad"},{"id":"2605040","latitude":"33.92500000","longitude":"-108.18750000","name":"New Horse Springs"},{"id":"2605041","latitude":"35.04083330","longitude":"-107.42138890","name":"New Laguna"},{"id":"2605042","latitude":"35.46388890","longitude":"-104.49388890","name":"New Trementina"},{"id":"2605043","latitude":"35.05861110","longitude":"-107.52666670","name":"New York"},{"id":"2605044","latitude":"36.28472220","longitude":"-108.70527780","name":"Newcomb"},{"id":"2605045","latitude":"35.06833330","longitude":"-104.26416670","name":"Newkirk"},{"id":"2605046","latitude":"32.00333330","longitude":"-106.32250000","name":"Newman"},{"id":"2605047","latitude":"36.72055560","longitude":"-105.96861110","name":"No Agua"},{"id":"2605048","latitude":"33.55805560","longitude":"-105.70722220","name":"Nogal"},{"id":"2605049","latitude":"31.80472220","longitude":"-106.86277780","name":"Noria"},{"id":"2605050","latitude":"35.06333330","longitude":"-107.56527780","name":"North Acomita Village"},{"id":"2605051","latitude":"35.90666670","longitude":"-105.32583330","name":"North Carmen"},{"id":"2605052","latitude":"35.39194440","longitude":"-108.15750000","name":"North Chaves"},{"id":"2605053","latitude":"35.48861110","longitude":"-108.37277780","name":"North Guam"},{"id":"2605054","latitude":"32.72277780","longitude":"-108.13194440","name":"North Hurley"},{"id":"2605055","latitude":"34.85722220","longitude":"-105.58055560","name":"North Lucy"},{"id":"2605056","latitude":"35.46916670","longitude":"-105.55305560","name":"North San Ysidro"},{"id":"2605057","latitude":"35.17333330","longitude":"-106.62277780","name":"North Valley"},{"id":"2605058","latitude":"34.99833330","longitude":"-103.52472220","name":"Norton"},{"id":"2605059","latitude":"32.57277780","longitude":"-107.44888890","name":"Nutt"},{"id":"2605060","latitude":"35.86638890","longitude":"-106.79500000","name":"O'Neil Landing"},{"id":"2605061","latitude":"32.63083330","longitude":"-108.34416670","name":"Oak Grove"},{"id":"2605062","latitude":"32.92444440","longitude":"-107.31666670","name":"Oasis"},{"id":"2605063","latitude":"35.53500000","longitude":"-103.20083330","name":"Obar"},{"id":"2605064","latitude":"36.17555560","longitude":"-105.04750000","name":"Ocate"},{"id":"2605065","latitude":"32.19166670","longitude":"-103.43972220","name":"Ochoa"},{"id":"2605066","latitude":"32.49916670","longitude":"-103.26083330","name":"Oil Center"},{"id":"2605067","latitude":"35.49861110","longitude":"-105.24500000","name":"Ojita"},{"id":"2605068","latitude":"36.42972220","longitude":"-107.08722220","name":"Ojito"},{"id":"2605069","latitude":"35.51666670","longitude":"-105.31694440","name":"Ojitos Frios"},{"id":"2605070","latitude":"36.69333330","longitude":"-108.36861110","name":"Ojo Amarillo"},{"id":"2605071","latitude":"36.30305560","longitude":"-106.04611110","name":"Ojo Caliente"},{"id":"2605072","latitude":"35.95555560","longitude":"-107.34722220","name":"Ojo Encino"},{"id":"2605073","latitude":"36.05777780","longitude":"-105.11777780","name":"Ojo Feliz"},{"id":"2605074","latitude":"36.12250000","longitude":"-105.78277780","name":"Ojo Sarco"},{"id":"2605075","latitude":"33.84444440","longitude":"-108.89194440","name":"Old Campbell Place"},{"id":"2605076","latitude":"33.87666670","longitude":"-106.72694440","name":"Old Carthage"},{"id":"2605077","latitude":"34.90638890","longitude":"-106.19666670","name":"Old Chilili"},{"id":"2605078","latitude":"31.91388890","longitude":"-108.43222220","name":"Old Hachita"},{"id":"2605079","latitude":"32.79888890","longitude":"-104.50694440","name":"Old Horner Place"},{"id":"2605080","latitude":"33.92444440","longitude":"-108.22722220","name":"Old Horse Springs"},{"id":"2605081","latitude":"31.69472220","longitude":"-108.89722220","name":"Old Isaacs Place"},{"id":"2605082","latitude":"32.93333330","longitude":"-105.17111110","name":"Old Longbotbam Place"},{"id":"2605083","latitude":"36.68388890","longitude":"-103.07722220","name":"Old Moses"},{"id":"2605084","latitude":"35.09500000","longitude":"-106.67027780","name":"Old Town"},{"id":"2605085","latitude":"33.43138890","longitude":"-108.73777780","name":"Old Waterman Place"},{"id":"2605086","latitude":"32.48055560","longitude":"-105.89944440","name":"Old Wright Place"},{"id":"2605087","latitude":"33.95083330","longitude":"-104.03750000","name":"Olive"},{"id":"2605088","latitude":"34.32305560","longitude":"-108.37388890","name":"Omega"},{"id":"2605089","latitude":"32.83694440","longitude":"-105.97111110","name":"Omlee"},{"id":"2605090","latitude":"35.69666670","longitude":"-105.09388890","name":"Onava"},{"id":"2605091","latitude":"35.89027780","longitude":"-104.80305560","name":"Optimo"},{"id":"2605092","latitude":"31.86083330","longitude":"-106.63555560","name":"Orange"},{"id":"2605093","latitude":"34.69277780","longitude":"-107.47638890","name":"Orchard Place"},{"id":"2605094","latitude":"32.42555560","longitude":"-106.59611110","name":"Organ"},{"id":"2605095","latitude":"32.37111110","longitude":"-106.08388890","name":"Orogrande"},{"id":"2605096","latitude":"33.48361110","longitude":"-106.05388890","name":"Oscura"},{"id":"2605097","latitude":"32.35111110","longitude":"-104.16805560","name":"Otis"},{"id":"2605098","latitude":"35.87583330","longitude":"-106.14194440","name":"Otowi"},{"id":"2605099","latitude":"35.07305560","longitude":"-106.00833330","name":"Otto"},{"id":"2605100","latitude":"35.23194440","longitude":"-106.11777780","name":"P Simmons Place"},{"id":"2605101","latitude":"35.96305560","longitude":"-105.38305560","name":"Pacheco Village"},{"id":"2605102","latitude":"35.32111110","longitude":"-108.44000000","name":"Page"},{"id":"2605103","latitude":"35.13861110","longitude":"-107.37833330","name":"Paguate"},{"id":"2605104","latitude":"35.47194440","longitude":"-105.64444440","name":"Pajarita"},{"id":"2605105","latitude":"35.90527780","longitude":"-106.12666670","name":"Pajarito"},{"id":"2605106","latitude":"34.97861110","longitude":"-105.46527780","name":"Palma"},{"id":"2605107","latitude":"35.12833330","longitude":"-103.91722220","name":"Palomas"},{"id":"2605108","latitude":"34.86527780","longitude":"-106.77638890","name":"Paquita"},{"id":"2605109","latitude":"35.20055560","longitude":"-106.70055560","name":"Paradise Hills"},{"id":"2605110","latitude":"35.05527780","longitude":"-107.47500000","name":"Paraje"},{"id":"2605111","latitude":"35.26194440","longitude":"-104.92805560","name":"Park Springs"},{"id":"2605112","latitude":"34.78277780","longitude":"-104.94416670","name":"Pastura"},{"id":"2605113","latitude":"35.03916670","longitude":"-108.06611110","name":"Paxton Springs"},{"id":"2605114","latitude":"34.56666670","longitude":"-107.39444440","name":"Payne Place"},{"id":"2605115","latitude":"35.57416670","longitude":"-105.67444440","name":"Pecos"},{"id":"2605116","latitude":"34.63555560","longitude":"-105.64277780","name":"Pedernal"},{"id":"2605117","latitude":"35.57083330","longitude":"-106.33750000","name":"Pena Blanca"},{"id":"2605118","latitude":"36.16944440","longitude":"-105.68583330","name":"Penasco"},{"id":"2605119","latitude":"35.86722220","longitude":"-105.34833330","name":"Penasco Blanco"},{"id":"2605120","latitude":"35.81055560","longitude":"-105.40416670","name":"Pendaries Village"},{"id":"2605121","latitude":"35.96861110","longitude":"-107.22027780","name":"Penistaja"},{"id":"2605122","latitude":"36.30527780","longitude":"-103.63277780","name":"Pennington"},{"id":"2605123","latitude":"33.83611110","longitude":"-103.33500000","name":"Pep"},{"id":"2605124","latitude":"34.83694440","longitude":"-106.69000000","name":"Peralta"},{"id":"2605125","latitude":"35.50444440","longitude":"-108.51833330","name":"Perea"},{"id":"2605126","latitude":"32.30305560","longitude":"-107.80638890","name":"Peruhill"},{"id":"2605127","latitude":"35.10583330","longitude":"-108.57972220","name":"Pescado"},{"id":"2605128","latitude":"36.50833330","longitude":"-106.01000000","name":"Petaca"},{"id":"2605129","latitude":"33.14500000","longitude":"-103.43055560","name":"Peveler Place"},{"id":"2605130","latitude":"35.03944440","longitude":"-107.51111110","name":"Philadelphia"},{"id":"2605131","latitude":"33.35166670","longitude":"-105.14444440","name":"Picacho"},{"id":"2605132","latitude":"36.20083330","longitude":"-105.70944440","name":"Picuris Pueblo"},{"id":"2605133","latitude":"34.29833330","longitude":"-108.13416670","name":"Pie Town"},{"id":"2605134","latitude":"35.15583330","longitude":"-107.24027780","name":"Piedra Lumbre"},{"id":"2605135","latitude":"35.58444440","longitude":"-107.74333330","name":"Piedra de la Aguila"},{"id":"2605136","latitude":"31.45611110","longitude":"-108.33972220","name":"Pierce"},{"id":"2605137","latitude":"32.18916670","longitude":"-103.97750000","name":"Pierce Canyon Crossing"},{"id":"2605138","latitude":"36.26972220","longitude":"-105.78750000","name":"Pilar"},{"id":"2605139","latitude":"33.62305560","longitude":"-105.24444440","name":"Pine Lodge"},{"id":"2605140","latitude":"34.96555560","longitude":"-106.23305560","name":"Pine Springs"},{"id":"2605141","latitude":"35.60388890","longitude":"-108.44638890","name":"Pinedale"},{"id":"2605142","latitude":"35.33277780","longitude":"-108.66972220","name":"Pinehaven"},{"id":"2605143","latitude":"34.99916670","longitude":"-108.41055560","name":"Pinehill"},{"id":"2605144","latitude":"35.78027780","longitude":"-106.43638890","name":"Pines"},{"id":"2605145","latitude":"34.57027780","longitude":"-107.44500000","name":"Pino Place"},{"id":"2605146","latitude":"32.61805560","longitude":"-105.39388890","name":"Pinon"},{"id":"2605147","latitude":"32.86333330","longitude":"-108.22083330","name":"Pinos Altos"},{"id":"2605148","latitude":"34.88222220","longitude":"-105.07166670","name":"Pintada"},{"id":"2605149","latitude":"35.30694440","longitude":"-106.42416670","name":"Placitas"},{"id":"2605150","latitude":"31.91666670","longitude":"-108.53305560","name":"Playas"},{"id":"2605151","latitude":"36.70388890","longitude":"-106.60777780","name":"Plaza Blanca"},{"id":"2605152","latitude":"34.52027780","longitude":"-103.07333330","name":"Pleasant Hill"},{"id":"2605153","latitude":"33.27222220","longitude":"-108.87222220","name":"Pleasanton"},{"id":"2605154","latitude":"32.74694440","longitude":"-106.19527780","name":"Point of Sands"},{"id":"2605155","latitude":"35.89277780","longitude":"-106.02250000","name":"Pojoaque"},{"id":"2605156","latitude":"35.36027780","longitude":"-108.49111110","name":"Polich Place"},{"id":"2605157","latitude":"33.57527780","longitude":"-105.95722220","name":"Polly"},{"id":"2605158","latitude":"34.20472220","longitude":"-106.92111110","name":"Polvadera"},{"id":"2605159","latitude":"35.66000000","longitude":"-106.66694440","name":"Ponderosa"},{"id":"2605160","latitude":"33.34444440","longitude":"-105.68305560","name":"Ponderosa Heights"},{"id":"2605161","latitude":"34.97694440","longitude":"-106.32361110","name":"Ponderosa Pine"},{"id":"2605162","latitude":"34.40527780","longitude":"-103.30138890","name":"Portair"},{"id":"2605163","latitude":"34.18611110","longitude":"-103.33388890","name":"Portales"},{"id":"2605164","latitude":"35.21555560","longitude":"-103.31277780","name":"Porter"},{"id":"2605165","latitude":"36.27500000","longitude":"-105.57222220","name":"Pot Creek"},{"id":"2605166","latitude":"33.75527780","longitude":"-108.90777780","name":"Potato Patch"},{"id":"2605167","latitude":"31.97472220","longitude":"-108.49444440","name":"Pothook"},{"id":"2605168","latitude":"35.98972220","longitude":"-105.93305560","name":"Potrero"},{"id":"2605169","latitude":"31.80166670","longitude":"-106.99222220","name":"Potrillo"},{"id":"2605170","latitude":"33.09666670","longitude":"-103.19694440","name":"Prairieview"},{"id":"2605171","latitude":"35.36277780","longitude":"-108.04333330","name":"Prewitt"},{"id":"2605172","latitude":"35.08333330","longitude":"-106.37722220","name":"Primera Agua"},{"id":"2605173","latitude":"34.47888890","longitude":"-105.88138890","name":"Progresso"},{"id":"2605174","latitude":"32.12416670","longitude":"-107.06250000","name":"Pronto"},{"id":"2605175","latitude":"36.07472220","longitude":"-106.07666670","name":"Pueblito"},{"id":"2605176","latitude":"34.62305560","longitude":"-106.77722220","name":"Pueblitos"},{"id":"2605177","latitude":"35.97722220","longitude":"-107.67277780","name":"Pueblo Pintado"},{"id":"2605178","latitude":"35.25500000","longitude":"-106.57250000","name":"Pueblo of Sandia Village"},{"id":"2605179","latitude":"35.27527780","longitude":"-106.29638890","name":"Puertecito"},{"id":"2605180","latitude":"34.83194440","longitude":"-104.62083330","name":"Puerto De Luna"},{"id":"2605181","latitude":"35.91722220","longitude":"-105.30138890","name":"Puertocito"},{"id":"2605182","latitude":"34.60000000","longitude":"-106.28333330","name":"Punta de Agua"},{"id":"2605183","latitude":"35.97166670","longitude":"-106.22972220","name":"Puye"},{"id":"2605184","latitude":"35.99194440","longitude":"-106.01305560","name":"Quarteles"},{"id":"2605185","latitude":"34.93388890","longitude":"-103.76000000","name":"Quay"},{"id":"2605186","latitude":"32.19083330","longitude":"-104.74527780","name":"Queen"},{"id":"2605187","latitude":"34.34388890","longitude":"-108.49500000","name":"Quemado"},{"id":"2605188","latitude":"36.70388890","longitude":"-105.59444440","name":"Questa"},{"id":"2605189","latitude":"32.50111110","longitude":"-106.92750000","name":"Radium Springs"},{"id":"2605190","latitude":"34.82250000","longitude":"-103.74166670","name":"Ragland"},{"id":"2605191","latitude":"35.28027780","longitude":"-103.06583330","name":"Rain Place"},{"id":"2605192","latitude":"35.97861110","longitude":"-105.20861110","name":"Rainsville"},{"id":"2605193","latitude":"35.13305560","longitude":"-108.49111110","name":"Ramah"},{"id":"2605194","latitude":"34.23277780","longitude":"-104.89944440","name":"Ramon"},{"id":"2605195","latitude":"33.80222220","longitude":"-105.72277780","name":"Ramsdale Place"},{"id":"2605196","latitude":"36.40416670","longitude":"-105.59722220","name":"Ranchito"},{"id":"2605197","latitude":"35.30860000","longitude":"-106.54710000","name":"Ranchitos"},{"id":"2605198","latitude":"35.79972220","longitude":"-105.92138890","name":"Rancho Encantado"},{"id":"2605199","latitude":"33.68555560","longitude":"-108.86138890","name":"Rancho Grande Estates"},{"id":"2605200","latitude":"35.98555560","longitude":"-106.00861110","name":"Rancho Valle"},{"id":"2605201","latitude":"36.35861110","longitude":"-105.60888890","name":"Ranchos de Taos"},{"id":"2605202","latitude":"34.49250000","longitude":"-103.31833330","name":"Ranchvale"},{"id":"2605203","latitude":"33.01250000","longitude":"-108.42277780","name":"Rastus Place"},{"id":"2605204","latitude":"36.90333330","longitude":"-104.43861110","name":"Raton"},{"id":"2605205","latitude":"36.75527780","longitude":"-108.80138890","name":"Rattlesnake"},{"id":"2605206","latitude":"36.36861110","longitude":"-104.92638890","name":"Rayado"},{"id":"2605207","latitude":"36.05277780","longitude":"-106.33833330","name":"Recheulos"},{"id":"2605208","latitude":"32.07388890","longitude":"-104.03972220","name":"Red Bluff"},{"id":"2605209","latitude":"34.21861110","longitude":"-108.87166670","name":"Red Hill"},{"id":"2605210","latitude":"34.29527780","longitude":"-106.74944440","name":"Red Mill"},{"id":"2605211","latitude":"36.70805560","longitude":"-105.40555560","name":"Red River"},{"id":"2605212","latitude":"35.45416670","longitude":"-108.75527780","name":"Red Rock"},{"id":"2605213","latitude":"32.68611110","longitude":"-108.73750000","name":"Redrock"},{"id":"2605214","latitude":"32.93916670","longitude":"-108.19694440","name":"Redstone"},{"id":"2605215","latitude":"36.18416670","longitude":"-106.95611110","name":"Regina"},{"id":"2605216","latitude":"35.52888890","longitude":"-108.65416670","name":"Rehoboth"},{"id":"2605217","latitude":"35.30250000","longitude":"-105.66277780","name":"Rencona"},{"id":"2605218","latitude":"33.71305560","longitude":"-108.75722220","name":"Reserve"},{"id":"2605219","latitude":"33.79500000","longitude":"-105.63944440","name":"Reventon"},{"id":"2605220","latitude":"35.37361110","longitude":"-105.44805560","name":"Ribera"},{"id":"2605221","latitude":"33.82166670","longitude":"-103.26527780","name":"Richland"},{"id":"2605222","latitude":"34.38055560","longitude":"-107.22916670","name":"Riley"},{"id":"2605223","latitude":"34.81111110","longitude":"-106.33583330","name":"Riley Place"},{"id":"2605224","latitude":"32.67277780","longitude":"-107.06416670","name":"Rincon"},{"id":"2605225","latitude":"36.21833330","longitude":"-105.87277780","name":"Rinconada"},{"id":"2605226","latitude":"36.77222220","longitude":"-105.12055560","name":"Ring Place"},{"id":"2605227","latitude":"36.00250000","longitude":"-105.90416670","name":"Rio Chiquito"},{"id":"2605228","latitude":"35.82500000","longitude":"-105.90305560","name":"Rio En Medio"},{"id":"2605229","latitude":"34.65583330","longitude":"-106.71194440","name":"Rio Grande Estates"},{"id":"2605230","latitude":"36.19555560","longitude":"-105.72500000","name":"Rio Lucio"},{"id":"2605231","latitude":"36.18527780","longitude":"-105.63805560","name":"Rio Pueblo"},{"id":"2605232","latitude":"36.21083330","longitude":"-106.58388890","name":"Rio Puerco"},{"id":"2605233","latitude":"35.23333330","longitude":"-106.66388890","name":"Rio Rancho"},{"id":"2605234","latitude":"35.23861110","longitude":"-106.66666670","name":"Rio Rancho Estates"},{"id":"2605235","latitude":"35.33805560","longitude":"-106.53527780","name":"Rivajana"},{"id":"2605236","latitude":"33.29333330","longitude":"-104.75472220","name":"River Mill"},{"id":"2605237","latitude":"35.99222220","longitude":"-106.06638890","name":"Riverside"},{"id":"2605238","latitude":"33.47750000","longitude":"-106.15111110","name":"Roberson Place"},{"id":"2605239","latitude":"33.69944440","longitude":"-103.92166670","name":"Robertson Wells"},{"id":"2605240","latitude":"33.73638890","longitude":"-105.83250000","name":"Robsart"},{"id":"2605241","latitude":"35.83222220","longitude":"-105.42027780","name":"Rociada"},{"id":"2605242","latitude":"31.72305560","longitude":"-108.86944440","name":"Rock Cabin"},{"id":"2605243","latitude":"33.22361110","longitude":"-107.20888890","name":"Rock Canyon"},{"id":"2605244","latitude":"35.60944440","longitude":"-108.82861110","name":"Rock Springs"},{"id":"2605245","latitude":"36.17666670","longitude":"-105.62027780","name":"Rock Wall"},{"id":"2605246","latitude":"36.15194440","longitude":"-105.67222220","name":"Rodarte"},{"id":"2605247","latitude":"31.83527780","longitude":"-109.03055560","name":"Rodeo"},{"id":"2605248","latitude":"32.65666670","longitude":"-107.13527780","name":"Rodey"},{"id":"2605249","latitude":"33.98166670","longitude":"-103.23000000","name":"Rogers"},{"id":"2605250","latitude":"35.53611110","longitude":"-105.22388890","name":"Romero"},{"id":"2605251","latitude":"34.87000000","longitude":"-107.39916670","name":"Romero Place"},{"id":"2605252","latitude":"35.52277780","longitude":"-105.24416670","name":"Romeroville"},{"id":"2605253","latitude":"35.48027780","longitude":"-106.22694440","name":"Rosario"},{"id":"2605254","latitude":"35.84111110","longitude":"-103.44500000","name":"Rosebud"},{"id":"2605255","latitude":"35.81277780","longitude":"-103.42416670","name":"Rosebud Farms"},{"id":"2605256","latitude":"32.07194440","longitude":"-103.72583330","name":"Ross Place"},{"id":"2605257","latitude":"33.39416670","longitude":"-104.52250000","name":"Roswell"},{"id":"2605258","latitude":"33.44666670","longitude":"-107.61888890","name":"Rouse Place"},{"id":"2605259","latitude":"35.49166670","longitude":"-105.67472220","name":"Rowe"},{"id":"2605260","latitude":"35.94388890","longitude":"-104.19555560","name":"Roy"},