[{"id":"2753637","latitude":"-9.28333330","longitude":"28.43333330","name":"Amoni"},{"id":"2753693","latitude":"-11.05000000","longitude":"28.83333330","name":"Bahati"},{"id":"2753837","latitude":"-11.66666670","longitude":"30.06666670","name":"Bwalya Mponda"},{"id":"2753838","latitude":"-11.66666670","longitude":"30.06666670","name":"Bwalya Mponde"},{"id":"2753839","latitude":"-11.65000000","longitude":"29.71666670","name":"Bwamba"},{"id":"2753841","latitude":"-11.65000000","longitude":"29.71666670","name":"Bwambwa"},{"id":"2753868","latitude":"-11.21666670","longitude":"29.41666670","name":"Chaba"},{"id":"2753873","latitude":"-9.53333330","longitude":"28.73333330","name":"Chabilikila"},{"id":"2753878","latitude":"-10.78333330","longitude":"28.96666670","name":"Chabwe"},{"id":"2753948","latitude":"-11.36666670","longitude":"29.55000000","name":"Chalwe Katima"},{"id":"2753951","latitude":"-11.18333330","longitude":"29.41666670","name":"Chama"},{"id":"2754038","latitude":"-11.30000000","longitude":"30.06666670","name":"Chansa"},{"id":"2754075","latitude":"-9.53333330","longitude":"28.73333330","name":"Charilachila"},{"id":"2754104","latitude":"-9.78333330","longitude":"29.66666670","name":"Chawa"},{"id":"2754108","latitude":"-9.70000000","longitude":"29.60000000","name":"Chawe"},{"id":"2754133","latitude":"-11.88333330","longitude":"29.55000000","name":"Chelwe"},{"id":"2754138","latitude":"-11.96666670","longitude":"28.75000000","name":"Chembe"},{"id":"2754147","latitude":"-10.93333330","longitude":"28.88333330","name":"Chengo"},{"id":"2754159","latitude":"-9.70000000","longitude":"29.60000000","name":"Chewe"},{"id":"2754183","latitude":"-10.80000000","longitude":"29.18333330","name":"Chibaye"},{"id":"2754210","latitude":"-10.71666670","longitude":"28.66666670","name":"Chibondo"},{"id":"2754213","latitude":"-9.86666670","longitude":"29.55000000","name":"Chibote"},{"id":"2754260","latitude":"-11.16666670","longitude":"28.86666670","name":"Chief Chimese"},{"id":"2754277","latitude":"-8.65000000","longitude":"29.16666670","name":"Chiengi"},{"id":"2754279","latitude":"-8.65000000","longitude":"29.16666670","name":"Chienji"},{"id":"2754312","latitude":"-11.66666670","longitude":"29.10000000","name":"Chifwalo"},{"id":"2754389","latitude":"-10.06666670","longitude":"29.26666670","name":"Chikitunda"},{"id":"2754429","latitude":"-10.05000000","longitude":"29.76666670","name":"Chikontwe"},{"id":"2754430","latitude":"-10.05000000","longitude":"29.76666670","name":"Chikontwi"},{"id":"2754487","latitude":"-11.56666670","longitude":"29.80000000","name":"Chikuwela"},{"id":"2754488","latitude":"-11.56666670","longitude":"29.80000000","name":"Chikuwelo"},{"id":"2754719","latitude":"-11.16666670","longitude":"28.86666670","name":"Chimese"},{"id":"2754754","latitude":"-9.55000000","longitude":"29.43333330","name":"Chimpembe"},{"id":"2754828","latitude":"-8.55000000","longitude":"29.10000000","name":"Chinango"},{"id":"2754863","latitude":"-8.55000000","longitude":"29.10000000","name":"Chinengo"},{"id":"2754953","latitude":"-9.23333330","longitude":"28.46666670","name":"Chinsamba"},{"id":"2755047","latitude":"-8.43333330","longitude":"29.36666670","name":"Chipanta"},{"id":"2755077","latitude":"-9.70000000","longitude":"29.68333330","name":"Chipembe"},{"id":"2755099","latitude":"-10.73333330","longitude":"29.08333330","name":"Chipili"},{"id":"2755130","latitude":"-10.96666670","longitude":"28.88333330","name":"Chipota"},{"id":"2755140","latitude":"-9.30000000","longitude":"28.46666670","name":"Chipulwe"},{"id":"2755145","latitude":"-11.60000000","longitude":"29.73333330","name":"Chipundu"},{"id":"2755149","latitude":"-11.46666670","longitude":"28.81666670","name":"Chipungu"},{"id":"2755155","latitude":"-10.96666670","longitude":"28.88333330","name":"Chiputa"},{"id":"2755216","latitude":"-11.05000000","longitude":"28.90000000","name":"Chisanga"},{"id":"2755238","latitude":"-11.08333330","longitude":"28.90000000","name":"Chisembe"},{"id":"2755250","latitude":"-11.65000000","longitude":"29.71666670","name":"Chisense"},{"id":"2755299","latitude":"-9.23333330","longitude":"28.40000000","name":"Chisukulu"},{"id":"2755310","latitude":"-10.76666670","longitude":"28.85000000","name":"Chisunka"},{"id":"2755311","latitude":"-10.70000000","longitude":"28.93333330","name":"Chisunka Luongo"},{"id":"2755355","latitude":"-11.15000000","longitude":"29.58333330","name":"Chitembo"},{"id":"2755389","latitude":"-9.95000000","longitude":"28.71666670","name":"Chitolwe"},{"id":"2755500","latitude":"-9.68333330","longitude":"29.78333330","name":"Chiwelwa"},{"id":"2755852","latitude":"-11.20000000","longitude":"28.88333330","name":"Fort Rosebery"},{"id":"2755975","latitude":"-9.70000000","longitude":"29.68333330","name":"Humpempe"},{"id":"2756297","latitude":"-10.98333330","longitude":"28.88333330","name":"Kabala Shinkwa"},{"id":"2756312","latitude":"-11.31666670","longitude":"29.53333330","name":"Kabanga"},{"id":"2756328","latitude":"-9.25000000","longitude":"28.48333330","name":"Kabeke"},{"id":"2756335","latitude":"-11.45000000","longitude":"29.66666670","name":"Kabendemushi"},{"id":"2756336","latitude":"-11.45000000","longitude":"29.66666670","name":"Kaben Jemushi"},{"id":"2756347","latitude":"-10.61666670","longitude":"28.68333330","name":"Kabila"},{"id":"2756362","latitude":"-8.91666670","longitude":"29.05000000","name":"Kabobwa"},{"id":"2756370","latitude":"-11.75000000","longitude":"29.46666670","name":"Kabonga"},{"id":"2756398","latitude":"-11.21666670","longitude":"28.81666670","name":"Kabunda"},{"id":"2756401","latitude":"-11.45000000","longitude":"29.66666670","name":"Kabundemushi"},{"id":"2756418","latitude":"-8.70000000","longitude":"29.15000000","name":"Kabwe"},{"id":"2756419","latitude":"-10.81666670","longitude":"28.83333330","name":"Kabwesha"},{"id":"2756420","latitude":"-10.81666670","longitude":"28.83333330","name":"Kabweshya"},{"id":"2756493","latitude":"-10.71666670","longitude":"29.03333330","name":"Kafimbwa"},{"id":"2756511","latitude":"-8.98333330","longitude":"29.03333330","name":"Kafulwe"},{"id":"2756528","latitude":"-10.58333330","longitude":"28.98333330","name":"Kafwimbe"},{"id":"2756530","latitude":"-10.58333330","longitude":"28.98333330","name":"Kafwimbi"},{"id":"2756605","latitude":"-8.58333330","longitude":"29.08333330","name":"Kakoma"},{"id":"2756660","latitude":"-11.05000000","longitude":"29.15000000","name":"Kalaba"},{"id":"2756702","latitude":"-11.25000000","longitude":"29.10000000","name":"Kalasa"},{"id":"2756703","latitude":"-11.26666670","longitude":"28.85000000","name":"Kalasa Lukangaba"},{"id":"2756704","latitude":"-11.80000000","longitude":"29.55000000","name":"Kalasa Mukoso"},{"id":"2756713","latitude":"-10.98333330","longitude":"28.88333330","name":"Kalebula"},{"id":"2756786","latitude":"-8.51666670","longitude":"28.98333330","name":"Kalima"},{"id":"2756787","latitude":"-11.45000000","longitude":"30.05000000","name":"Kalimakonde"},{"id":"2756790","latitude":"-11.45000000","longitude":"30.05000000","name":"Kalimankonde"},{"id":"2756831","latitude":"-8.91666670","longitude":"29.05000000","name":"Kalobwa"},{"id":"2756832","latitude":"-12.40000000","longitude":"29.33333330","name":"Kaloka"},{"id":"2756835","latitude":"-12.40000000","longitude":"29.38333330","name":"Kaloko"},{"id":"2756886","latitude":"-11.63333330","longitude":"29.71666670","name":"Kalumberi"},{"id":"2756888","latitude":"-11.63333330","longitude":"29.71666670","name":"Kalumbili"},{"id":"2756899","latitude":"-10.30000000","longitude":"29.38333330","name":"Kalundu"},{"id":"2756913","latitude":"-9.03333330","longitude":"29.03333330","name":"Kalungwisi"},{"id":"2757033","latitude":"-9.40000000","longitude":"28.75000000","name":"Kambwali"},{"id":"2757066","latitude":"-10.88333330","longitude":"28.93333330","name":"Kamina"},{"id":"2757067","latitude":"-11.68333330","longitude":"29.71666670","name":"Kaminda"},{"id":"2757070","latitude":"-11.61666670","longitude":"29.75000000","name":"Kaminsa"},{"id":"2757120","latitude":"-11.41666670","longitude":"29.10000000","name":"Kampilimba"},{"id":"2757121","latitude":"-11.41666670","longitude":"29.10000000","name":"Kampilimbu"},{"id":"2757364","latitude":"-11.78333330","longitude":"29.78333330","name":"Kansenga"},{"id":"2757366","latitude":"-12.43333330","longitude":"29.45000000","name":"Kanshela"},{"id":"2757422","latitude":"-9.61666670","longitude":"28.76666670","name":"Kanyembo"},{"id":"2757462","latitude":"-12.40000000","longitude":"29.40000000","name":"Kapalala"},{"id":"2757499","latitude":"-11.68333330","longitude":"28.81666670","name":"Kapapwe"},{"id":"2757508","latitude":"-8.53333330","longitude":"29.13333330","name":"Kapata"},{"id":"2757519","latitude":"-11.88333330","longitude":"29.55000000","name":"Kapela"},{"id":"2757543","latitude":"-11.31666670","longitude":"29.43333330","name":"Kapenya"},{"id":"2757555","latitude":"-10.00000000","longitude":"29.66666670","name":"Kapesa"},{"id":"2757603","latitude":"-11.41666670","longitude":"29.10000000","name":"Kapirimba"},{"id":"2757619","latitude":"-11.43333330","longitude":"29.26666670","name":"Kapolwa"},{"id":"2757643","latitude":"-8.53333330","longitude":"29.00000000","name":"Kapoya"},{"id":"2757651","latitude":"-12.16666670","longitude":"29.45000000","name":"Kapu"},{"id":"2757666","latitude":"-11.01666670","longitude":"28.90000000","name":"Kapumpa"},{"id":"2757683","latitude":"-8.53333330","longitude":"29.31666670","name":"Kaputa"},{"id":"2757691","latitude":"-10.15000000","longitude":"29.61666670","name":"Kapwenge"},{"id":"2757693","latitude":"-11.68333330","longitude":"28.81666670","name":"Kapwepwe"},{"id":"2757713","latitude":"-10.73333330","longitude":"29.71666670","name":"Kasaba"},{"id":"2757757","latitude":"-11.96666670","longitude":"29.50000000","name":"Kasanka"},{"id":"2757779","latitude":"-8.56666670","longitude":"29.06666670","name":"Kasembe"},{"id":"2757789","latitude":"-11.78333330","longitude":"29.78333330","name":"Kasenga"},{"id":"2757822","latitude":"-10.45000000","longitude":"28.66666670","name":"Kashiba"},{"id":"2757824","latitude":"-9.30000000","longitude":"28.73333330","name":"Kashikishi"},{"id":"2757853","latitude":"-9.30000000","longitude":"28.73333330","name":"Kasikisi"},{"id":"2757866","latitude":"-9.30000000","longitude":"28.73333330","name":"Kasnikishi"},{"id":"2757876","latitude":"-11.36666670","longitude":"29.55000000","name":"Kasoma Bangweulu"},{"id":"2757877","latitude":"-11.41666670","longitude":"30.11666670","name":"Kasoma"},{"id":"2757878","latitude":"-11.91666670","longitude":"28.93333330","name":"Kasoma Lwela"},{"id":"2757881","latitude":"-9.28333330","longitude":"28.45000000","name":"Kasompe"},{"id":"2757898","latitude":"-10.93333330","longitude":"28.55000000","name":"Kasonkomona"},{"id":"2757915","latitude":"-10.76666670","longitude":"29.58333330","name":"Kasuba"},{"id":"2757944","latitude":"-11.88333330","longitude":"29.78333330","name":"Kataba"},{"id":"2757993","latitude":"-10.98333330","longitude":"28.88333330","name":"Katebula"},{"id":"2758022","latitude":"-10.98333330","longitude":"28.88333330","name":"Katewula"},{"id":"2758060","latitude":"-11.20000000","longitude":"28.68333330","name":"Katonga"},{"id":"2758074","latitude":"-9.95000000","longitude":"29.55000000","name":"Katota"},{"id":"2758108","latitude":"-10.81666670","longitude":"28.60000000","name":"Katuta Kampemba"},{"id":"2758109","latitude":"-10.81666670","longitude":"28.60000000","name":"Katuta Kapemba"},{"id":"2758112","latitude":"-10.81666670","longitude":"28.60000000","name":"Katuta"},{"id":"2758126","latitude":"-8.60000000","longitude":"29.16666670","name":"Katwimbi"},{"id":"2758186","latitude":"-10.11666670","longitude":"28.63333330","name":"Kawama"},{"id":"2758191","latitude":"-9.78333330","longitude":"29.08333330","name":"Kawambwa"},{"id":"2758192","latitude":"-9.78333330","longitude":"29.08333330","name":"Kawamowa"},{"id":"2758214","latitude":"-9.63333330","longitude":"29.53333330","name":"Kawema"},{"id":"2758217","latitude":"-9.63333330","longitude":"29.53333330","name":"Kawena"},{"id":"2758219","latitude":"-11.45000000","longitude":"29.66666670","name":"Kawenda"},{"id":"2758222","latitude":"-8.46666670","longitude":"29.28333330","name":"Kawendwa"},{"id":"2758246","latitude":"-11.75000000","longitude":"29.46666670","name":"Kawonga"},{"id":"2758327","latitude":"-8.56666670","longitude":"29.06666670","name":"Kazembe"},{"id":"2758406","latitude":"-9.30000000","longitude":"28.46666670","name":"Kipulwa"},{"id":"2758407","latitude":"-9.30000000","longitude":"28.46666670","name":"Kipulwe"},{"id":"2758408","latitude":"-9.23333330","longitude":"28.46666670","name":"Kisamba"},{"id":"2758410","latitude":"-11.65000000","longitude":"29.71666670","name":"Kisensa"},{"id":"2758414","latitude":"-9.23333330","longitude":"28.40000000","name":"Kisukulu"},{"id":"2758514","latitude":"-11.40000000","longitude":"29.53333330","name":"Kulelwa"},{"id":"2758544","latitude":"-11.55000000","longitude":"28.75000000","name":"Kundamfuma"},{"id":"2758545","latitude":"-11.55000000","longitude":"28.75000000","name":"Kundamfumu"},{"id":"2758559","latitude":"-8.63333330","longitude":"29.16666670","name":"Kungwi"},{"id":"2758646","latitude":"-9.90000000","longitude":"29.60000000","name":"Langashe"},{"id":"2758647","latitude":"-9.90000000","longitude":"29.60000000","name":"Langashya"},{"id":"2759114","latitude":"-9.78333330","longitude":"29.78333330","name":"Luali"},{"id":"2759137","latitude":"-9.76666670","longitude":"28.88333330","name":"Luapula"},{"id":"2759147","latitude":"-10.88333330","longitude":"28.81666670","name":"Lubebe"},{"id":"2759166","latitude":"-11.20000000","longitude":"28.95000000","name":"Lubuka"},{"id":"2759167","latitude":"-11.20000000","longitude":"28.95000000","name":"Lubuko"},{"id":"2759168","latitude":"-9.96666670","longitude":"29.61666670","name":"Lubuli"},{"id":"2759169","latitude":"-10.31666670","longitude":"28.66666670","name":"Lubunda"},{"id":"2759175","latitude":"-11.11666670","longitude":"29.61666670","name":"Lubwe"},{"id":"2759192","latitude":"-9.90000000","longitude":"28.78333330","name":"Lufubu"},{"id":"2759246","latitude":"-10.16666670","longitude":"28.63333330","name":"Lukwesa"},{"id":"2759331","latitude":"-8.58333330","longitude":"29.16666670","name":"Lupeya"},{"id":"2759402","latitude":"-10.88333330","longitude":"28.81666670","name":"Luwewe"},{"id":"2759407","latitude":"-11.20000000","longitude":"28.95000000","name":"Luwuko"},{"id":"2759408","latitude":"-9.96666670","longitude":"29.61666670","name":"Luwuli"},{"id":"2759414","latitude":"-9.78333330","longitude":"29.78333330","name":"Lwali"},{"id":"2759426","latitude":"-11.71666670","longitude":"29.13333330","name":"Lwela"},{"id":"2759478","latitude":"-11.26666670","longitude":"29.03333330","name":"Mabumba"},{"id":"2759590","latitude":"-9.23333330","longitude":"28.43333330","name":"Makamba"},{"id":"2759732","latitude":"-10.93333330","longitude":"28.80000000","name":"Malapula"},{"id":"2759844","latitude":"-10.51666670","longitude":"28.65000000","name":"Malundu"},{"id":"2759866","latitude":"-10.53333330","longitude":"28.61666670","name":"Mambilima Falls"},{"id":"2759902","latitude":"-10.51666670","longitude":"28.63333330","name":"Mandefu"},{"id":"2759967","latitude":"-11.20000000","longitude":"28.88333330","name":"Mansa"},{"id":"2759997","latitude":"-11.38333330","longitude":"28.76666670","name":"Mao"},{"id":"2760013","latitude":"-11.36666670","longitude":"29.55000000","name":"Mapili"},{"id":"2760023","latitude":"-11.68333330","longitude":"29.11666670","name":"Mapula"},{"id":"2760070","latitude":"-11.00000000","longitude":"29.68333330","name":"Masanta"},{"id":"2760147","latitude":"-11.13333330","longitude":"28.50000000","name":"Matama"},{"id":"2760153","latitude":"-11.03333330","longitude":"28.80000000","name":"Matanda"},{"id":"2760195","latitude":"-11.25000000","longitude":"30.08333330","name":"Matipa"},{"id":"2760203","latitude":"-10.08333330","longitude":"29.88333330","name":"Matobwe"},{"id":"2760243","latitude":"-11.26666670","longitude":"29.03333330","name":"Maumba"},{"id":"2760356","latitude":"-9.73333330","longitude":"28.80000000","name":"Mbereshi"},{"id":"2760365","latitude":"-11.20000000","longitude":"28.88333330","name":"Mbila"},{"id":"2760366","latitude":"-10.90000000","longitude":"28.86666670","name":"Mbilya"},{"id":"2760385","latitude":"-11.80000000","longitude":"29.88333330","name":"Mbo"},{"id":"2760405","latitude":"-11.80000000","longitude":"29.88333330","name":"Mboyolubambe"},{"id":"2760406","latitude":"-11.80000000","longitude":"29.88333330","name":"Mboyoluwambe"},{"id":"2760420","latitude":"-11.06666670","longitude":"29.86666670","name":"Mbulu"},{"id":"2760435","latitude":"-11.06666670","longitude":"29.86666670","name":"Mburu"},{"id":"2760501","latitude":"-12.25000000","longitude":"29.48333330","name":"Mesheto"},{"id":"2760504","latitude":"-12.40000000","longitude":"29.46666670","name":"Meyambo"},{"id":"2760527","latitude":"-11.30000000","longitude":"29.40000000","name":"Mibenge"},{"id":"2760528","latitude":"-11.30000000","longitude":"29.40000000","name":"Mibenji"},{"id":"2760537","latitude":"-11.55000000","longitude":"29.80000000","name":"Milambo"},{"id":"2760545","latitude":"-11.26666670","longitude":"28.80000000","name":"Miloke"},{"id":"2760546","latitude":"-11.58333330","longitude":"29.78333330","name":"Miloki"},{"id":"2760601","latitude":"-11.30000000","longitude":"29.40000000","name":"Mivenji"},{"id":"2760603","latitude":"-12.40000000","longitude":"29.46666670","name":"Miyambo"},{"id":"2760708","latitude":"-11.41666670","longitude":"29.53333330","name":"Moba"},{"id":"2760734","latitude":"-12.35000000","longitude":"29.46666670","name":"Molenga"},{"id":"2760735","latitude":"-12.35000000","longitude":"29.46666670","name":"Molengo"},{"id":"2760764","latitude":"-11.18333330","longitude":"29.10000000","name":"Monga"},{"id":"2760836","latitude":"-11.46666670","longitude":"29.81666670","name":"Mpanta"},{"id":"2760943","latitude":"-11.81666670","longitude":"29.90000000","name":"Mpwanchi"},{"id":"2760958","latitude":"-11.10000000","longitude":"28.86666670","name":"Msekwa"},{"id":"2761059","latitude":"-10.26666670","longitude":"28.76666670","name":"Mubende"},{"id":"2761178","latitude":"-11.70000000","longitude":"29.96666670","name":"Mukabe"},{"id":"2761231","latitude":"-11.70000000","longitude":"29.96666670","name":"Mukave"},{"id":"2761275","latitude":"-10.81666670","longitude":"29.03333330","name":"Mukoloba"},{"id":"2761282","latitude":"-10.81666670","longitude":"28.96666670","name":"Mukondola"},{"id":"2761394","latitude":"-9.06666670","longitude":"28.95000000","name":"Mukwakwa"},{"id":"2761412","latitude":"-9.25000000","longitude":"28.41666670","name":"Mukwena"},{"id":"2761426","latitude":"-11.68333330","longitude":"29.68333330","name":"Mulakwa"},{"id":"2761504","latitude":"-12.35000000","longitude":"29.46666670","name":"Mulengo"},{"id":"2761551","latitude":"-10.60000000","longitude":"28.96666670","name":"Mulipula"},{"id":"2761567","latitude":"-11.26666670","longitude":"28.80000000","name":"Muloki"},{"id":"2761591","latitude":"-11.18333330","longitude":"29.83333330","name":"Mulongwe"},{"id":"2761610","latitude":"-11.13333330","longitude":"28.80000000","name":"Mulubula"},{"id":"2761625","latitude":"-8.58333330","longitude":"29.16666670","name":"Mulumba"},{"id":"2761638","latitude":"-10.51666670","longitude":"28.65000000","name":"Mulundu"},{"id":"2761656","latitude":"-11.13333330","longitude":"28.80000000","name":"Muluwula"},{"id":"2761667","latitude":"-9.68333330","longitude":"29.70000000","name":"Mumana"},{"id":"2761668","latitude":"-11.43333330","longitude":"30.35000000","name":"Mumbabwalya"},{"id":"2761677","latitude":"-11.43333330","longitude":"30.35000000","name":"Mumbawalia"},{"id":"2761689","latitude":"-10.28333330","longitude":"29.36666670","name":"Mumbwe"},{"id":"2761697","latitude":"-11.55000000","longitude":"29.80000000","name":"Mumpu"},{"id":"2761774","latitude":"-11.63333330","longitude":"29.48333330","name":"Mungulube"},{"id":"2761781","latitude":"-11.63333330","longitude":"29.48333330","name":"Munguruwe"},{"id":"2761797","latitude":"-9.80000000","longitude":"29.05000000","name":"Munkanta"},{"id":"2761827","latitude":"-9.06666670","longitude":"29.03333330","name":"Mununga"},{"id":"2761887","latitude":"-9.65000000","longitude":"29.46666670","name":"Mupoposhi"},{"id":"2761946","latitude":"-11.10000000","longitude":"28.86666670","name":"Musekwa"},{"id":"2762020","latitude":"-9.81666670","longitude":"29.38333330","name":"Mushota"},{"id":"2762064","latitude":"-10.03333330","longitude":"29.15000000","name":"Musuku"},{"id":"2762170","latitude":"-10.60000000","longitude":"28.96666670","name":"Mutipula"},{"id":"2762241","latitude":"-10.68333330","longitude":"28.91666670","name":"Mutwewankoko"},{"id":"2762357","latitude":"-8.56666670","longitude":"29.08333330","name":"Mwabu"},{"id":"2762416","latitude":"-11.33333330","longitude":"29.53333330","name":"Mwamfuli"},{"id":"2762498","latitude":"-9.98333330","longitude":"29.71666670","name":"Mwanamweshi"},{"id":"2762515","latitude":"-10.88333330","longitude":"29.65000000","name":"Mwanasakombe"},{"id":"2762573","latitude":"-10.88333330","longitude":"29.65000000","name":"Mwansakombe"},{"id":"2762576","latitude":"-11.46666670","longitude":"29.60000000","name":"Mwansa"},{"id":"2762590","latitude":"-11.50000000","longitude":"30.31666670","name":"Mwape Chiputi"},{"id":"2762609","latitude":"-8.55000000","longitude":"29.11666670","name":"Mwatipa"},{"id":"2762648","latitude":"-10.93333330","longitude":"29.63333330","name":"Mwena"},{"id":"2762656","latitude":"-10.46666670","longitude":"29.16666670","name":"Mwenda"},{"id":"2762696","latitude":"-10.38333330","longitude":"28.68333330","name":"Mwense"},{"id":"2762709","latitude":"-10.91666670","longitude":"29.58333330","name":"Mwewa"},{"id":"2762710","latitude":"-10.91666670","longitude":"29.58333330","name":"Mwewe"},{"id":"2763172","latitude":"-8.63333330","longitude":"29.16666670","name":"Natendi"},{"id":"2763199","latitude":"-9.35000000","longitude":"28.73333330","name":"Nchelenge"},{"id":"2763256","latitude":"-11.25000000","longitude":"29.51666670","name":"Ndoba"},{"id":"2763587","latitude":"-10.36666670","longitude":"28.68333330","name":"Nsakaluba"},{"id":"2763588","latitude":"-11.20000000","longitude":"28.88333330","name":"Nsakanya"},{"id":"2763591","latitude":"-11.55000000","longitude":"30.31666670","name":"Nsamba"},{"id":"2763597","latitude":"-11.10000000","longitude":"28.86666670","name":"Nsekwa"},{"id":"2763600","latitude":"-11.66666670","longitude":"29.71666670","name":"Nsemuchila"},{"id":"2763608","latitude":"-9.26666670","longitude":"28.40000000","name":"Nshimba"},{"id":"2763624","latitude":"-11.43333330","longitude":"29.26666670","name":"Nsonga"},{"id":"2763691","latitude":"-9.25000000","longitude":"28.80000000","name":"Ntoto"},{"id":"2764037","latitude":"-11.66666670","longitude":"30.06666670","name":"Piana Walya"},{"id":"2764076","latitude":"-8.66666670","longitude":"29.16666670","name":"Ponde"},{"id":"2764112","latitude":"-8.68333330","longitude":"29.15000000","name":"Puta"},{"id":"2764114","latitude":"-8.51666670","longitude":"28.98333330","name":"Pweto"},{"id":"2764115","latitude":"-11.68333330","longitude":"29.96666670","name":"Pyana Walya"},{"id":"2764138","latitude":"-11.20000000","longitude":"28.88333330","name":"Roseberry"},{"id":"2764155","latitude":"-11.31666670","longitude":"29.41666670","name":"Sabau"},{"id":"2764219","latitude":"-11.11666670","longitude":"29.61666670","name":"Saint Joseph's"},{"id":"2764245","latitude":"-11.86666670","longitude":"29.53333330","name":"Sakamba"},{"id":"2764251","latitude":"-11.20000000","longitude":"28.88333330","name":"Sakania"},{"id":"2764421","latitude":"-11.35000000","longitude":"29.55000000","name":"Samfya"},{"id":"2764489","latitude":"-11.40000000","longitude":"29.51666670","name":"Samu"},{"id":"2764676","latitude":"-11.66666670","longitude":"29.71666670","name":"Semigena"},{"id":"2764715","latitude":"-10.76666670","longitude":"29.13333330","name":"Sewunda"},{"id":"2764835","latitude":"-9.58333330","longitude":"28.73333330","name":"Shanyemba"},{"id":"2764848","latitude":"-8.11666670","longitude":"29.16666670","name":"Shaveri"},{"id":"2764874","latitude":"-10.76666670","longitude":"29.13333330","name":"Shibunda"},{"id":"2764881","latitude":"-10.06666670","longitude":"29.26666670","name":"Shichitundu"},{"id":"2764936","latitude":"-9.26666670","longitude":"28.40000000","name":"Shimba"},{"id":"2764946","latitude":"-9.88333330","longitude":"29.90000000","name":"Shimilungu"},{"id":"2765017","latitude":"-12.21666670","longitude":"29.50000000","name":"Shitima"},{"id":"2765022","latitude":"-11.35000000","longitude":"28.43333330","name":"Shiwale"},{"id":"2765979","latitude":"-12.21666670","longitude":"29.51666670","name":"Sokontwe"},{"id":"2766121","latitude":"-11.75000000","longitude":"29.63333330","name":"Tambala"},{"id":"2766298","latitude":"-11.70000000","longitude":"29.68333330","name":"Twingi"},{"id":"2766319","latitude":"-11.73333330","longitude":"29.10000000","name":"Ushi"},{"id":"2766492","latitude":"-12.06666670","longitude":"29.80000000","name":"Yongola"}]