[{"id":"261639","latitude":"-27.03333300","longitude":"-50.93333300","name":"10 de Novembro"},{"id":"261640","latitude":"-28.58333300","longitude":"-49.16666700","name":"13 de Maio"},{"id":"261691","latitude":"-27.61666700","longitude":"-50.98333300","name":"Abdon Batista"},{"id":"261693","latitude":"-26.60000000","longitude":"-52.35000000","name":"Abelardo Luz"},{"id":"261694","latitude":"-27.35000000","longitude":"-51.68333300","name":"Abelar do Luz"},{"id":"261846","latitude":"-26.73333300","longitude":"-51.03333300","name":"Adolfo"},{"id":"261849","latitude":"-26.73333300","longitude":"-51.03333300","name":"Adolfo C\u00f3nder"},{"id":"261851","latitude":"-26.73333300","longitude":"-51.03333300","name":"Adolfo Konder"},{"id":"261852","latitude":"-26.73333300","longitude":"-51.03333300","name":"Adolpho Conder"},{"id":"261853","latitude":"-27.20000000","longitude":"-49.80000000","name":"Adolpho Condor"},{"id":"261944","latitude":"-27.11666700","longitude":"-48.91666700","name":"\u00c1gua Clara"},{"id":"261965","latitude":"-27.00000000","longitude":"-51.55000000","name":"\u00c1gua Doce"},{"id":"262028","latitude":"-27.95000000","longitude":"-49.58333300","name":"\u00c1guas Brancas"},{"id":"262030","latitude":"-27.11666700","longitude":"-48.91666700","name":"\u00c1guas Claras"},{"id":"262033","latitude":"-27.08333300","longitude":"-52.98333300","name":"\u00c1guas de Chapec\u00f3"},{"id":"262070","latitude":"-27.00000000","longitude":"-52.95000000","name":"Aguinhas"},{"id":"262073","latitude":"-27.30000000","longitude":"-49.15000000","name":"Aguti"},{"id":"262090","latitude":"-28.10000000","longitude":"-49.30000000","name":"Aiur\u00e9"},{"id":"262156","latitude":"-27.25000000","longitude":"-49.65000000","name":"Albertina"},{"id":"262321","latitude":"-28.25000000","longitude":"-50.45000000","name":"Aleixo"},{"id":"262362","latitude":"-27.70000000","longitude":"-49.33333300","name":"Alfredo Wagner"},{"id":"262384","latitude":"-27.20000000","longitude":"-48.91666700","name":"Alian\u00e7a"},{"id":"262388","latitude":"-28.70000000","longitude":"-49.30000000","name":"Aliatar"},{"id":"262404","latitude":"-27.20000000","longitude":"-48.91666700","name":"Allian\u00e7a"},{"id":"262489","latitude":"-27.43333300","longitude":"-51.86666700","name":"Alto Bela Vista"},{"id":"262565","latitude":"-27.11666700","longitude":"-49.50000000","name":"Altona"},{"id":"262576","latitude":"-27.53333300","longitude":"-49.70000000","name":"Alto Perimb\u00f3"},{"id":"262582","latitude":"-28.01666700","longitude":"-49.06666700","name":"Alto Rio Bravo"},{"id":"262715","latitude":"-28.03333300","longitude":"-48.70000000","name":"Ambr\u00f3sio"},{"id":"262745","latitude":"-27.78333300","longitude":"-50.48333300","name":"Amola Faca"},{"id":"262825","latitude":"-26.55000000","longitude":"-53.28333300","name":"Anchieta"},{"id":"262885","latitude":"-27.58333300","longitude":"-48.98333300","name":"Angelina"},{"id":"262969","latitude":"-27.61666700","longitude":"-51.08333300","name":"Anita Garibaldi"},{"id":"262970","latitude":"-27.90000000","longitude":"-49.13333300","name":"Anit\u00e1polis"},{"id":"262971","latitude":"-27.58333300","longitude":"-48.98333300","name":"Anjelina"},{"id":"262982","latitude":"-27.90000000","longitude":"-49.13333300","name":"Annitapolis"},{"id":"262995","latitude":"-26.95000000","longitude":"-51.23333300","name":"Anta Gorda"},{"id":"263000","latitude":"-26.60000000","longitude":"-52.30000000","name":"Antas"},{"id":"263038","latitude":"-27.46666700","longitude":"-48.85000000","name":"Ant\u00f4nio Carlos"},{"id":"263065","latitude":"-27.90000000","longitude":"-50.75000000","name":"Ant\u00f4nio In\u00e1cio"},{"id":"263154","latitude":"-27.03333300","longitude":"-49.41666700","name":"Api\u00fana"},{"id":"263191","latitude":"-27.03333300","longitude":"-49.41666700","name":"Aquidab\u00e3"},{"id":"263194","latitude":"-27.03333300","longitude":"-49.41666700","name":"Aquidaban"},{"id":"263199","latitude":"-26.33333300","longitude":"-51.08333300","name":"Aquiles Stengel"},{"id":"263208","latitude":"-27.16666700","longitude":"-52.11666700","name":"Arabut\u00e3"},{"id":"263246","latitude":"-28.11666700","longitude":"-48.70000000","name":"Ara\u00e7atuba"},{"id":"263342","latitude":"-26.38333300","longitude":"-48.71666700","name":"Araquari"},{"id":"263353","latitude":"-28.93333300","longitude":"-49.48333300","name":"Ararangu\u00e1"},{"id":"263404","latitude":"-28.30000000","longitude":"-48.86666700","name":"Aratinga\u00faba"},{"id":"263436","latitude":"-27.28333300","longitude":"-51.43333300","name":"Arcoverde"},{"id":"263573","latitude":"-27.35000000","longitude":"-48.56666700","name":"Arma\u00e7\u00e3o"},{"id":"263579","latitude":"-28.26666700","longitude":"-49.01666700","name":"Armaz\u00e9m"},{"id":"263608","latitude":"-26.90000000","longitude":"-48.93333300","name":"Arraia"},{"id":"263614","latitude":"-26.90000000","longitude":"-48.93333300","name":"Arraial"},{"id":"263638","latitude":"-28.70000000","longitude":"-49.08333300","name":"Arroio Corrente"},{"id":"263641","latitude":"-28.98333300","longitude":"-49.43333300","name":"Arroio do Silva"},{"id":"263668","latitude":"-26.73333300","longitude":"-49.26666700","name":"Arrozeira"},{"id":"263706","latitude":"-28.40000000","longitude":"-50.11666700","name":"Arvoredo"},{"id":"263713","latitude":"-26.96666700","longitude":"-49.36666700","name":"Ascuria"},{"id":"263714","latitude":"-26.96666700","longitude":"-49.36666700","name":"Ascurra"},{"id":"263753","latitude":"-27.11666700","longitude":"-49.50000000","name":"Atafona"},{"id":"263838","latitude":"-27.35000000","longitude":"-51.58333300","name":"Ava\u00ed"},{"id":"263851","latitude":"-26.21861100","longitude":"-49.60527800","name":"Avencal"},{"id":"263852","latitude":"-26.21861100","longitude":"-49.60527800","name":"Avencal de Baixo"},{"id":"263853","latitude":"-26.25000000","longitude":"-49.70000000","name":"Avencal do Meio"},{"id":"263873","latitude":"-28.50000000","longitude":"-49.21666700","name":"Azambuja"},{"id":"263979","latitude":"-26.81666700","longitude":"-52.03333300","name":"Bahia"},{"id":"263989","latitude":"-26.81666700","longitude":"-52.03333300","name":"Ba\u00eda"},{"id":"264340","latitude":"-26.98333300","longitude":"-48.63333300","name":"Balne\u00e1rio"},{"id":"264341","latitude":"-26.98333300","longitude":"-48.63333300","name":"Balne\u00e1rio de Cambori\u00fa"},{"id":"264342","latitude":"-28.83333300","longitude":"-49.25000000","name":"Balne\u00e1rio de Rinc\u00e3o"},{"id":"264343","latitude":"-28.83333300","longitude":"-49.25000000","name":"Balne\u00e1rio do Rinc\u00e3o"},{"id":"264375","latitude":"-26.45000000","longitude":"-49.00000000","name":"Bananal"},{"id":"264430","latitude":"-26.80000000","longitude":"-53.63333300","name":"Bandeirante"},{"id":"264436","latitude":"-26.80000000","longitude":"-53.63333300","name":"Bandeirantes"},{"id":"264563","latitude":"-28.50000000","longitude":"-48.75000000","name":"Barra"},{"id":"264569","latitude":"-27.26666700","longitude":"-51.91666700","name":"Barra Bonita"},{"id":"264602","latitude":"-27.03333300","longitude":"-48.90000000","name":"Barrac\u00e3o"},{"id":"264626","latitude":"-27.53333300","longitude":"-49.11666700","name":"Barra Clara"},{"id":"264662","latitude":"-27.20000000","longitude":"-49.80000000","name":"Barra das Pombas"},{"id":"264695","latitude":"-26.45000000","longitude":"-48.61666700","name":"Barra do Araquari"},{"id":"264712","latitude":"-28.30000000","longitude":"-49.38333300","name":"Barra do Cafund\u00f3"},{"id":"264761","latitude":"-28.91666700","longitude":"-49.55000000","name":"Barra do Jundi\u00e1"},{"id":"264784","latitude":"-27.33333300","longitude":"-51.75000000","name":"Barra do Pinheiro"},{"id":"264806","latitude":"-26.51666700","longitude":"-49.13333300","name":"Barra do Rio do Cerro"},{"id":"264837","latitude":"-27.25000000","longitude":"-49.70000000","name":"Barra do Trombudo"},{"id":"264842","latitude":"-27.38333300","longitude":"-51.93333300","name":"Barra do Veado"},{"id":"264870","latitude":"-28.41666700","longitude":"-48.80000000","name":"Barranceira"},{"id":"264878","latitude":"-26.10000000","longitude":"-48.78333300","name":"Barranco"},{"id":"264907","latitude":"-26.65000000","longitude":"-48.71666700","name":"Barra Velha"},{"id":"264978","latitude":"-26.30000000","longitude":"-50.53333300","name":"Barreiro"},{"id":"265006","latitude":"-26.30000000","longitude":"-50.53333300","name":"Barreiros"},{"id":"265086","latitude":"-28.41666700","longitude":"-49.41666700","name":"Barro Branco"},{"id":"265144","latitude":"-28.90000000","longitude":"-49.46666700","name":"Barro Vermelho"},{"id":"265194","latitude":"-26.96666700","longitude":"-48.91666700","name":"Bateia"},{"id":"265195","latitude":"-26.96666700","longitude":"-48.91666700","name":"Bat\u00e9ia do Barrac\u00e3o"},{"id":"265197","latitude":"-26.09027800","longitude":"-49.25750000","name":"Bateias de Baixo"},{"id":"265322","latitude":"-26.17694400","longitude":"-49.97638900","name":"Bela Vista"},{"id":"265330","latitude":"-26.17694400","longitude":"-49.97638900","name":"Bela Vista do Sul"},{"id":"265331","latitude":"-26.26666700","longitude":"-50.50000000","name":"Bela Vista do T\u00f4ldo"},{"id":"265332","latitude":"-26.85000000","longitude":"-49.00000000","name":"Belchior Baixo"},{"id":"265334","latitude":"-26.85000000","longitude":"-49.00000000","name":"Belchior"},{"id":"265393","latitude":"-26.17694400","longitude":"-49.97638900","name":"Bella Vista"},{"id":"265453","latitude":"-28.51666700","longitude":"-49.38333300","name":"Belvedere"},{"id":"265468","latitude":"-26.80000000","longitude":"-49.41666700","name":"Benedicto Novo"},{"id":"265476","latitude":"-26.80000000","longitude":"-49.41666700","name":"Benedito Novo"},{"id":"265513","latitude":"-28.66666700","longitude":"-49.56666700","name":"Bento Alto"},{"id":"265579","latitude":"-26.95000000","longitude":"-53.21666700","name":"Beverine"},{"id":"265580","latitude":"-26.95000000","longitude":"-53.21666700","name":"Beverini"},{"id":"265581","latitude":"-26.95000000","longitude":"-53.21666700","name":"Beverni"},{"id":"265613","latitude":"-28.45000000","longitude":"-48.78333300","name":"Bifurca\u00e7\u00e3o"},{"id":"265614","latitude":"-27.50000000","longitude":"-48.66666700","name":"Bigua\u00e7u"},{"id":"265615","latitude":"-27.50000000","longitude":"-48.66666700","name":"Biguass\u00fa"},{"id":"265652","latitude":"-27.30000000","longitude":"-49.36666700","name":"Blinha"},{"id":"265653","latitude":"-26.93333300","longitude":"-49.05000000","name":"Blumenau"},{"id":"265790","latitude":"-26.28333300","longitude":"-48.83333300","name":"Boa Vista"},{"id":"265889","latitude":"-27.75000000","longitude":"-49.95000000","name":"Boc\u00e2ina"},{"id":"265892","latitude":"-27.75000000","longitude":"-49.95000000","name":"Bocaina do Sul"},{"id":"265921","latitude":"-28.63333300","longitude":"-49.31666700","name":"Bocianowski"},{"id":"265922","latitude":"-28.63333300","longitude":"-49.31666700","name":"Bocianwski"},{"id":"265959","latitude":"-27.41666700","longitude":"-49.21666700","name":"Boiteuxburgo"},{"id":"265982","latitude":"-27.14222200","longitude":"-48.50944400","name":"Bombas"},{"id":"265983","latitude":"-27.15111100","longitude":"-48.50777800","name":"Bombinhas"},{"id":"266051","latitude":"-28.33333300","longitude":"-49.63333300","name":"Bom Jardim"},{"id":"266056","latitude":"-28.33333300","longitude":"-49.63333300","name":"Bom Jardim da Serra"},{"id":"266078","latitude":"-26.75000000","longitude":"-52.35000000","name":"Bom Jesus"},{"id":"266160","latitude":"-27.11666700","longitude":"-51.46666700","name":"Bom Retiro"},{"id":"266191","latitude":"-26.70000000","longitude":"-49.71666700","name":"Bom Sucesso"},{"id":"266208","latitude":"-26.21666700","longitude":"-50.63333300","name":"Bonetes"},{"id":"266256","latitude":"-28.43333300","longitude":"-49.40000000","name":"Bonito"},{"id":"266325","latitude":"-28.08333300","longitude":"-50.43333300","name":"Borel"},{"id":"266366","latitude":"-27.21666700","longitude":"-49.08333300","name":"Botuver\u00e1"},{"id":"266375","latitude":"-28.28333300","longitude":"-49.18333300","name":"Bra\u00e7o do Norte"},{"id":"266376","latitude":"-27.35000000","longitude":"-49.90000000","name":"Bra\u00e7o do Trombudo"},{"id":"266629","latitude":"-27.10000000","longitude":"-48.93333300","name":"Brusque"},{"id":"266664","latitude":"-26.06666700","longitude":"-50.23333300","name":"Bugre"},{"id":"266665","latitude":"-26.06666700","longitude":"-50.23333300","name":"Bugres"},{"id":"266674","latitude":"-26.38333300","longitude":"-48.61666700","name":"Bupeva"},{"id":"266780","latitude":"-27.11666700","longitude":"-50.83333300","name":"Buti\u00e1"},{"id":"266890","latitude":"-26.95000000","longitude":"-48.63333300","name":"Cabe\u00e7udas"},{"id":"266951","latitude":"-26.78333300","longitude":"-51.00000000","name":"Ca\u00e7ador"},{"id":"266980","latitude":"-27.16666700","longitude":"-52.86666700","name":"Cachamb\u00fa"},{"id":"267020","latitude":"-27.43333300","longitude":"-48.45000000","name":"Cachoeira"},{"id":"267041","latitude":"-27.43333300","longitude":"-48.45000000","name":"Cachoeira do Bom Jesus"},{"id":"267191","latitude":"-27.25000000","longitude":"-51.73333300","name":"Cadori"},{"id":"267268","latitude":"-27.71666700","longitude":"-48.58333300","name":"Caiacanga"},{"id":"267318","latitude":"-27.41666700","longitude":"-48.58333300","name":"Caieira"},{"id":"267531","latitude":"-26.60000000","longitude":"-51.08333300","name":"Calmom"},{"id":"267533","latitude":"-26.60000000","longitude":"-51.08333300","name":"Calmon"},{"id":"267558","latitude":"-28.61666700","longitude":"-48.86666700","name":"Camacho"},{"id":"267611","latitude":"-28.33333300","longitude":"-49.63333300","name":"Cambajuva"},{"id":"267625","latitude":"-27.68333300","longitude":"-48.76666700","name":"Cambirela"},{"id":"267638","latitude":"-26.98333300","longitude":"-48.63333300","name":"Cambori\u00fa"},{"id":"267693","latitude":"-27.66666700","longitude":"-48.48333300","name":"Campeche"},{"id":"267757","latitude":"-28.93333300","longitude":"-49.48333300","name":"Campinas"},{"id":"267794","latitude":"-26.19361100","longitude":"-49.26611100","name":"Campo Alegre"},{"id":"267801","latitude":"-26.75000000","longitude":"-50.40000000","name":"Campo Alto"},{"id":"267808","latitude":"-27.90000000","longitude":"-50.75000000","name":"Campo Bello"},{"id":"267812","latitude":"-27.90000000","longitude":"-50.75000000","name":"Campo Belo"},{"id":"267813","latitude":"-27.90000000","longitude":"-50.75000000","name":"Campo Belo do Sul"},{"id":"267852","latitude":"-26.40000000","longitude":"-50.83333300","name":"Campo dos Pintos"},{"id":"267854","latitude":"-26.38333300","longitude":"-53.05000000","name":"Campo Er\u00ea"},{"id":"267856","latitude":"-26.38333300","longitude":"-53.05000000","name":"Campo Faxinal"},{"id":"267957","latitude":"-27.40000000","longitude":"-51.20000000","name":"Campos Novos"},{"id":"268080","latitude":"-27.43333300","longitude":"-48.50000000","name":"Canasvieiras"},{"id":"268138","latitude":"-27.28333300","longitude":"-48.78333300","name":"Canelinha"},{"id":"268198","latitude":"-27.43333300","longitude":"-48.50000000","name":"Cannasvieiras"},{"id":"268214","latitude":"-27.56666700","longitude":"-50.40000000","name":"Canoas"},{"id":"268218","latitude":"-26.16666700","longitude":"-50.40000000","name":"Canoinhas"},{"id":"268312","latitude":"-27.19638900","longitude":"-48.49944400","name":"Canto Grande"},{"id":"268351","latitude":"-27.93333300","longitude":"-50.50000000","name":"Cap\u00e3o Alto"},{"id":"268491","latitude":"-27.33333300","longitude":"-51.60000000","name":"Capinzal"},{"id":"268523","latitude":"-28.13333300","longitude":"-49.31666700","name":"Capivara Alta"},{"id":"268531","latitude":"-28.13333300","longitude":"-49.31666700","name":"Capivaras"},{"id":"268536","latitude":"-28.26666700","longitude":"-49.01666700","name":"Cap\u00ecvari"},{"id":"268544","latitude":"-28.26666700","longitude":"-49.01666700","name":"Capivary"},{"id":"268616","latitude":"-26.78333300","longitude":"-50.83333300","name":"Caraguat\u00e1"},{"id":"268656","latitude":"-28.88333300","longitude":"-49.48333300","name":"Caraiuva"},{"id":"268709","latitude":"-28.33333300","longitude":"-50.48333300","name":"Car\u00e0sinho"},{"id":"268730","latitude":"-28.33333300","longitude":"-50.48333300","name":"Car\u00e0zinho"},{"id":"268753","latitude":"-26.35000000","longitude":"-48.85000000","name":"Cares"},{"id":"268802","latitude":"-26.73333300","longitude":"-52.63333300","name":"Carlos Dahne"},{"id":"268803","latitude":"-26.73333300","longitude":"-52.63333300","name":"Carlos Dane"},{"id":"268900","latitude":"-28.53333300","longitude":"-48.81666700","name":"Carni\u00e7a"},{"id":"268972","latitude":"-27.66666700","longitude":"-50.58333300","name":"Caru"},{"id":"269020","latitude":"-27.20000000","longitude":"-53.33333300","name":"Cascalho"},{"id":"269149","latitude":"-27.06666700","longitude":"-51.68333300","name":"Catanduvas"},{"id":"269229","latitude":"-27.66666700","longitude":"-49.40000000","name":"Catu\u00edra"},{"id":"269260","latitude":"-26.35000000","longitude":"-50.88333300","name":"Ca\u00fana"},{"id":"269292","latitude":"-28.96666700","longitude":"-49.50000000","name":"Caver\u00e0zinho"},{"id":"269297","latitude":"-27.16666700","longitude":"-52.86666700","name":"Caxambu"},{"id":"269354","latitude":"-28.71666700","longitude":"-49.58333300","name":"Cedro M\u00e9dio"},{"id":"269361","latitude":"-27.61666700","longitude":"-51.40000000","name":"Celso Ramos"},{"id":"269443","latitude":"-26.11666700","longitude":"-50.48333300","name":"Cerrito"},{"id":"269456","latitude":"-27.80000000","longitude":"-50.88333300","name":"C\u00earro Negro"},{"id":"269458","latitude":"-26.45000000","longitude":"-51.16666700","name":"C\u00earro Pelado"},{"id":"269499","latitude":"-27.18333300","longitude":"-52.76666700","name":"Chalana"},{"id":"269556","latitude":"-27.08333300","longitude":"-52.98333300","name":"Chapec\u00f3"},{"id":"269770","latitude":"-27.20000000","longitude":"-48.91666700","name":"Clara\u00edba"},{"id":"269831","latitude":"-27.33333300","longitude":"-49.61666700","name":"Cobras"},{"id":"269845","latitude":"-28.61666700","longitude":"-49.35000000","name":"Cocal"},{"id":"270135","latitude":"-26.13333300","longitude":"-50.06666700","name":"Col\u00f4nia Nova"},{"id":"270147","latitude":"-26.78333300","longitude":"-51.08333300","name":"Col\u00f4nia Polidoro"},{"id":"270162","latitude":"-28.46666700","longitude":"-48.86666700","name":"Col\u00f4nia S\u00e3o Br\u00e1s"},{"id":"270176","latitude":"-26.31666700","longitude":"-50.33333300","name":"Col\u00f4nia Vieira"},{"id":"270177","latitude":"-26.31666700","longitude":"-50.33333300","name":"Colonia Vieiras"},{"id":"270245","latitude":"-26.25000000","longitude":"-53.33333300","name":"Concei\u00e7\u00e3o"},{"id":"270329","latitude":"-27.23333300","longitude":"-52.01666700","name":"Conc\u00f3rdia"},{"id":"270435","latitude":"-28.95000000","longitude":"-49.38333300","name":"Conventos"},{"id":"270469","latitude":"-26.48333300","longitude":"-48.75000000","name":"Coqueiros"},{"id":"270476","latitude":"-26.95000000","longitude":"-51.76666700","name":"Cora\u00e7\u00e3o"},{"id":"270479","latitude":"-27.28333300","longitude":"-51.10000000","name":"Cora\u00e7\u00e3o de Jesus"},{"id":"270555","latitude":"-26.93333300","longitude":"-52.78333300","name":"Coronel Freitas"},{"id":"270563","latitude":"-26.50000000","longitude":"-52.65000000","name":"Coronel Martins"},{"id":"270566","latitude":"-26.81666700","longitude":"-52.01666700","name":"Coronel Passos Maia"},{"id":"270577","latitude":"-27.58333300","longitude":"-50.40000000","name":"Correa Pinto"},{"id":"270637","latitude":"-27.58333300","longitude":"-50.40000000","name":"Correia Pinto"},{"id":"270647","latitude":"-27.08333300","longitude":"-50.63333300","name":"Correntes"},{"id":"270673","latitude":"-28.26666700","longitude":"-49.11666700","name":"Coruj\u00e1s"},{"id":"270684","latitude":"-26.43333300","longitude":"-49.23333300","name":"Corup\u00e1"},{"id":"270686","latitude":"-26.45000000","longitude":"-48.76666700","name":"Corveta"},{"id":"270705","latitude":"-28.76666700","longitude":"-49.16666700","name":"Costa da Praia"},{"id":"270800","latitude":"-28.66666700","longitude":"-49.38333300","name":"Creci\u00fana"},{"id":"270805","latitude":"-28.66666700","longitude":"-49.38333300","name":"Cresci\u00fama"},{"id":"270809","latitude":"-28.66666700","longitude":"-49.38333300","name":"Crici\u00fama"},{"id":"270931","latitude":"-27.16666700","longitude":"-51.50000000","name":"Cruzeiro"},{"id":"270945","latitude":"-27.16666700","longitude":"-51.50000000","name":"Cruzeiro do Sul"},{"id":"270971","latitude":"-26.21666700","longitude":"-48.83333300","name":"Cubat\u00e3o"},{"id":"270974","latitude":"-28.56666700","longitude":"-49.10000000","name":"Cub\u00edculo"},{"id":"271038","latitude":"-26.90000000","longitude":"-53.15000000","name":"Cunha"},{"id":"271045","latitude":"-26.90000000","longitude":"-53.15000000","name":"Cunha Por\u00e3"},{"id":"271108","latitude":"-27.30000000","longitude":"-50.60000000","name":"Curitibanos"},{"id":"271112","latitude":"-27.30000000","longitude":"-50.60000000","name":"Curitybanos"},{"id":"271304","latitude":"-26.36666700","longitude":"-48.95000000","name":"Dedo Grosso"},{"id":"271362","latitude":"-26.83333300","longitude":"-53.58333300","name":"Descanso"},{"id":"271398","latitude":"-27.58333300","longitude":"-48.56666700","name":"Destero"},{"id":"271404","latitude":"-27.58333300","longitude":"-48.56666700","name":"Desterro"},{"id":"271417","latitude":"-27.03333300","longitude":"-50.93333300","name":"Dez de Novembro"},{"id":"271451","latitude":"-26.25000000","longitude":"-53.63333300","name":"Dion\u00edsio Cerqueira"},{"id":"271501","latitude":"-27.70000000","longitude":"-50.55000000","name":"Dogelo"},{"id":"271521","latitude":"-27.28333300","longitude":"-51.86666700","name":"Dois Irm\u00e3os"},{"id":"271604","latitude":"-27.70000000","longitude":"-50.55000000","name":"Dorgelo"},{"id":"271621","latitude":"-27.08333300","longitude":"-53.68333300","name":"Dourado"},{"id":"271639","latitude":"-26.71666700","longitude":"-49.48333300","name":"Doutor Pedrinho"},{"id":"271689","latitude":"-26.25000000","longitude":"-53.63333300","name":"Dyonisio Cerqueira"},{"id":"271802","latitude":"-26.90000000","longitude":"-49.18333300","name":"Encano"},{"id":"271822","latitude":"-26.21666700","longitude":"-50.46666700","name":"Encruzilhada"},{"id":"271834","latitude":"-27.08333300","longitude":"-52.13333300","name":"Engano"},{"id":"271912","latitude":"-27.77916700","longitude":"-48.63388900","name":"Enseada de Brito"},{"id":"271914","latitude":"-27.77916700","longitude":"-48.63388900","name":"Enseada do Brito"},{"id":"271998","latitude":"-27.21666700","longitude":"-51.56666700","name":"Erval d'Oeste"},{"id":"272004","latitude":"-26.88333300","longitude":"-53.43333300","name":"Erval"},{"id":"272008","latitude":"-27.28333300","longitude":"-51.43333300","name":"Erval Velho"},{"id":"272012","latitude":"-26.17694400","longitude":"-49.97638900","name":"Erveira"},{"id":"272021","latitude":"-26.83333300","longitude":"-48.73333300","name":"Escalvado"},{"id":"272041","latitude":"-28.08333300","longitude":"-50.48333300","name":"Escurinho"},{"id":"272105","latitude":"-26.25000000","longitude":"-48.80000000","name":"Espinheiros"},{"id":"272110","latitude":"-27.28333300","longitude":"-51.10000000","name":"Espinilho"},{"id":"272140","latitude":"-28.70000000","longitude":"-49.18333300","name":"Esplanada"},{"id":"272166","latitude":"-26.28333300","longitude":"-49.33333300","name":"Esta\u00e7\u00e3o Rio Vermelho"},{"id":"272232","latitude":"-27.58333300","longitude":"-48.71666700","name":"Est\u00eav\u00e3o"},{"id":"272234","latitude":"-27.43333300","longitude":"-51.85000000","name":"Esteves J\u00fanior"},{"id":"272256","latitude":"-26.35000000","longitude":"-50.05000000","name":"Estiva"},{"id":"272413","latitude":"-27.03333300","longitude":"-51.71666700","name":"Fachinal do Sao Joao"},{"id":"272414","latitude":"-26.88333300","longitude":"-52.23333300","name":"Fachinal dos Guedes"},{"id":"272465","latitude":"-26.16666700","longitude":"-50.55000000","name":"Fartura"},{"id":"272509","latitude":"-26.83333300","longitude":"-50.90000000","name":"Faxinal de S\u00e3o Pedro"},{"id":"272514","latitude":"-26.88333300","longitude":"-52.23333300","name":"Faxinal dos Guedes"},{"id":"273190","latitude":"-28.18333300","longitude":"-50.63333300","name":"Fazenda Pae Jo\u00e3o"},{"id":"273643","latitude":"-26.20000000","longitude":"-50.70000000","name":"Felipe Schmidt"},{"id":"273731","latitude":"-28.46666700","longitude":"-49.36666700","name":"Figueira"},{"id":"273834","latitude":"-26.33333300","longitude":"-53.40000000","name":"Flores"},{"id":"273879","latitude":"-27.58333300","longitude":"-48.56666700","name":"Florian\u00f3polis"},{"id":"273976","latitude":"-27.51666700","longitude":"-48.78333300","name":"Forquilha"},{"id":"273978","latitude":"-27.51666700","longitude":"-48.78333300","name":"Forquilhas"},{"id":"273979","latitude":"-28.75000000","longitude":"-49.46666700","name":"Forquilhinha"},{"id":"273980","latitude":"-28.75000000","longitude":"-49.46666700","name":"Forquilinho"},{"id":"274077","latitude":"-26.15944400","longitude":"-49.38361100","name":"Fragosos"},{"id":"274157","latitude":"-27.48333300","longitude":"-51.40000000","name":"Freguesia da Lagoa"},{"id":"274161","latitude":"-27.48333300","longitude":"-51.40000000","name":"Freguezia da Lagoa"},{"id":"274180","latitude":"-27.18333300","longitude":"-50.83333300","name":"Frei Rog\u00e9rio"},{"id":"274196","latitude":"-26.23333300","longitude":"-48.71666700","name":"Frias"},{"id":"274280","latitude":"-28.15000000","longitude":"-49.01666700","name":"Gabiroba"},{"id":"274336","latitude":"-26.46666700","longitude":"-52.65000000","name":"Galv\u00e3o"},{"id":"274388","latitude":"-27.31666700","longitude":"-48.58333300","name":"Ganchos"},{"id":"274406","latitude":"-28.88333300","longitude":"-49.48333300","name":"Garajuva"},{"id":"274426","latitude":"-27.48333300","longitude":"-48.98333300","name":"Garcia"},{"id":"274444","latitude":"-26.53333300","longitude":"-49.21666700","name":"Garibaldi"},{"id":"274453","latitude":"-28.06666700","longitude":"-48.66666700","name":"Garopaba"},{"id":"274454","latitude":"-28.06666700","longitude":"-48.66666700","name":"Garopada"},{"id":"274469","latitude":"-26.01666700","longitude":"-48.85000000","name":"Garuva"},{"id":"274470","latitude":"-26.96666700","longitude":"-49.06666700","name":"Gaspar Alto"},{"id":"274472","latitude":"-26.93333300","longitude":"-48.96666700","name":"Gaspar"},{"id":"274519","latitude":"-26.86666700","longitude":"-51.05000000","name":"General Daltro Filho"},{"id":"274520","latitude":"-26.50000000","longitude":"-51.08333300","name":"General Dutra"},{"id":"274588","latitude":"-27.05000000","longitude":"-49.61666700","name":"Get\u00falio Vargas"},{"id":"274668","latitude":"-27.63333300","longitude":"-50.85000000","name":"Goiabeira"},{"id":"274695","latitude":"-27.28333300","longitude":"-52.68333300","name":"Goio En"},{"id":"274697","latitude":"-27.28333300","longitude":"-52.68333300","name":"Goio-Er\u00e8"},{"id":"274710","latitude":"-27.63333300","longitude":"-50.85000000","name":"Golabeira"},{"id":"274765","latitude":"-27.28333300","longitude":"-52.68333300","name":"Goy En"},{"id":"274766","latitude":"-27.28333300","longitude":"-52.68333300","name":"Goyo-En"},{"id":"274793","latitude":"-26.96666700","longitude":"-51.08333300","name":"Gramado"},{"id":"274805","latitude":"-26.68333300","longitude":"-52.16666700","name":"Gramas"},{"id":"274831","latitude":"-28.16666700","longitude":"-49.21666700","name":"Gr\u00e3o Par\u00e1"},{"id":"274843","latitude":"-28.33333300","longitude":"-49.03333300","name":"Gravat\u00e1"},{"id":"274847","latitude":"-28.33333300","longitude":"-49.03333300","name":"Gravatal"},{"id":"274877","latitude":"-26.33333300","longitude":"-49.13333300","name":"Grota Funda"},{"id":"274969","latitude":"-26.51666700","longitude":"-48.90000000","name":"Guamiranga"},{"id":"275002","latitude":"-27.45000000","longitude":"-48.63333300","name":"Guaporanga"},{"id":"275015","latitude":"-26.58333300","longitude":"-53.58333300","name":"Guaraciaba"},{"id":"275035","latitude":"-26.45000000","longitude":"-49.00000000","name":"Guaramirim"},{"id":"275089","latitude":"-27.90250000","longitude":"-48.59111100","name":"Guarda do Emba\u00fa"},{"id":"275093","latitude":"-28.45000000","longitude":"-49.08333300","name":"Guarda"},{"id":"275095","latitude":"-27.15000000","longitude":"-50.70000000","name":"Guarda Mor"},{"id":"275141","latitude":"-26.43333300","longitude":"-53.56666700","name":"Guaruj\u00e1"},{"id":"275151","latitude":"-28.38333300","longitude":"-49.50000000","name":"Guat\u00e1"},{"id":"275152","latitude":"-27.11666700","longitude":"-52.75000000","name":"Guatambu"},{"id":"275241","latitude":"-26.98333300","longitude":"-49.75000000","name":"Gustavo Richard"},{"id":"275249","latitude":"-27.06666700","longitude":"-49.51666700","name":"Hammonia"},{"id":"275251","latitude":"-27.06666700","longitude":"-49.51666700","name":"Ham\u00f4nia"},{"id":"275252","latitude":"-26.43333300","longitude":"-49.23333300","name":"Hansa"},{"id":"275261","latitude":"-26.71666700","longitude":"-49.55000000","name":"Heimat"},{"id":"275272","latitude":"-28.23333300","longitude":"-48.66666700","name":"Henrique Lage"},{"id":"275273","latitude":"-28.23333300","longitude":"-48.66666700","name":"Henrique Laje"},{"id":"275277","latitude":"-28.75000000","longitude":"-49.36666700","name":"Herc\u00edlio Luz"},{"id":"275278","latitude":"-26.80000000","longitude":"-51.50000000","name":"Hercili\u00f3polis"},{"id":"275290","latitude":"-26.80000000","longitude":"-51.50000000","name":"Hersili\u00f3polis"},{"id":"275296","latitude":"-27.21666700","longitude":"-51.56666700","name":"Herval"},{"id":"275298","latitude":"-27.28333300","longitude":"-51.43333300","name":"Herval Velho"},{"id":"275420","latitude":"-27.16666700","longitude":"-51.23333300","name":"Ibi\u00e3"},{"id":"275423","latitude":"-27.16666700","longitude":"-51.23333300","name":"Ibiam"},{"id":"275439","latitude":"-27.11666700","longitude":"-51.40000000","name":"Ibicar\u00e9"},{"id":"275472","latitude":"-27.06666700","longitude":"-49.51666700","name":"Ibirama"},{"id":"275547","latitude":"-28.70000000","longitude":"-49.30000000","name":"I\u00e7ara"},{"id":"275693","latitude":"-27.55000000","longitude":"-49.48333300","name":"Ilha Grande"},{"id":"275707","latitude":"-28.90000000","longitude":"-49.33333300","name":"Ilhas"},{"id":"275718","latitude":"-26.90000000","longitude":"-48.86666700","name":"Ilhota"},{"id":"275727","latitude":"-28.35000000","longitude":"-48.81666700","name":"Imaruhy"},{"id":"275728","latitude":"-28.35000000","longitude":"-48.81666700","name":"Imaru\u00ed"},{"id":"275751","latitude":"-28.23333300","longitude":"-48.66666700","name":"Imbituba"},{"id":"275805","latitude":"-28.40000000","longitude":"-49.00000000","name":"Indaial de Baixo"},{"id":"275806","latitude":"-28.35000000","longitude":"-48.93333300","name":"Indaial de Cima"},{"id":"275807","latitude":"-26.91666700","longitude":"-49.23333300","name":"Indaial"},{"id":"275810","latitude":"-26.91666700","longitude":"-49.23333300","name":"Indaval"},{"id":"275840","latitude":"-27.78333300","longitude":"-50.20000000","name":"\u00cdndios"},{"id":"275875","latitude":"-27.45000000","longitude":"-48.36666700","name":"Ingl\u00eases do Rio Vermelho"},{"id":"275876","latitude":"-27.45000000","longitude":"-48.36666700","name":"Ingl\u00eases"},{"id":"275943","latitude":"-27.01666700","longitude":"-51.25000000","name":"Iomer\u00ea"},{"id":"275981","latitude":"-26.21666700","longitude":"-48.58333300","name":"Iperaba"},{"id":"275982","latitude":"-26.21666700","longitude":"-48.58333300","name":"Iperoba"},{"id":"275995","latitude":"-27.43333300","longitude":"-51.81666700","name":"Ipira"},{"id":"276020","latitude":"-26.95000000","longitude":"-51.10000000","name":"Ipom\u00e9ia"},{"id":"276022","latitude":"-26.98333300","longitude":"-53.58333300","name":"Ipor\u00e3"},{"id":"276026","latitude":"-26.56666700","longitude":"-52.45000000","name":"Ipua\u00e7u"},{"id":"276058","latitude":"-27.08333300","longitude":"-52.13333300","name":"Ipumirim"},{"id":"276060","latitude":"-26.98333300","longitude":"-53.58333300","name":"Ipur\u00e1"},{"id":"276063","latitude":"-27.43333300","longitude":"-51.81666700","name":"Ipyra"},{"id":"276069","latitude":"-26.45000000","longitude":"-50.01666700","name":"Iracema"},{"id":"276071","latitude":"-26.83333300","longitude":"-53.25000000","name":"Iraceminha"},{"id":"276092","latitude":"-27.01666700","longitude":"-51.90000000","name":"Irani"},{"id":"276109","latitude":"-26.45000000","longitude":"-50.01666700","name":"Iraput\u00e3"},{"id":"276258","latitude":"-26.46666700","longitude":"-49.86666700","name":"Itai\u00f3"},{"id":"276259","latitude":"-26.33333300","longitude":"-49.93333300","name":"Itai\u00f3polis"},{"id":"276274","latitude":"-27.26666700","longitude":"-52.31666700","name":"It\u00e1"},{"id":"276281","latitude":"-26.88333300","longitude":"-48.65000000","name":"Itajahi"},{"id":"276282","latitude":"-27.21666700","longitude":"-49.65000000","name":"Itajahy do Sul"},{"id":"276283","latitude":"-26.88333300","longitude":"-48.65000000","name":"Itajahy"},{"id":"276285","latitude":"-26.88333300","longitude":"-48.65000000","name":"Itaja\u00ed"},{"id":"276294","latitude":"-26.68333300","longitude":"-48.70000000","name":"Itajub\u00e1"},{"id":"276377","latitude":"-28.95000000","longitude":"-49.58333300","name":"Itapaoa"},{"id":"276403","latitude":"-27.09916700","longitude":"-48.61500000","name":"Itapema"},{"id":"276411","latitude":"-26.58333300","longitude":"-48.73333300","name":"Itaperi\u00fa"},{"id":"276454","latitude":"-27.13333300","longitude":"-53.71666700","name":"Itapiranga"},{"id":"276483","latitude":"-26.55000000","longitude":"-48.71666700","name":"Itapocu"},{"id":"276513","latitude":"-27.11666700","longitude":"-51.40000000","name":"Itapu\u00ed"},{"id":"276522","latitude":"-27.30000000","longitude":"-49.45000000","name":"Itaqu\u00e1"},{"id":"276552","latitude":"-27.73333300","longitude":"-50.55000000","name":"Itarar\u00e9"},{"id":"276606","latitude":"-26.33333300","longitude":"-49.93333300","name":"Itayopolis"},{"id":"276626","latitude":"-27.21666700","longitude":"-51.53333300","name":"Itoror\u00f3"},{"id":"276627","latitude":"-26.80000000","longitude":"-49.10000000","name":"Itoupava"},{"id":"276628","latitude":"-26.75000000","longitude":"-49.08333300","name":"Itoupava Rega"},{"id":"276629","latitude":"-26.75000000","longitude":"-49.08333300","name":"Itoupava R\u00e9gia"},{"id":"276645","latitude":"-26.80000000","longitude":"-49.10000000","name":"Itupava"},{"id":"276650","latitude":"-27.41666700","longitude":"-49.60000000","name":"Ituporanga"},{"id":"276700","latitude":"-27.18333300","longitude":"-51.73333300","name":"Jabor\u00e1"},{"id":"276712","latitude":"-28.56666700","longitude":"-48.98333300","name":"Jaboticabeira"},{"id":"276738","latitude":"-28.56666700","longitude":"-48.98333300","name":"Jabuticabeira"},{"id":"276816","latitude":"-29.00000000","longitude":"-49.76666700","name":"Jacinto Machado"},{"id":"276893","latitude":"-27.03333300","longitude":"-51.71666700","name":"Jacutinga"},{"id":"276939","latitude":"-28.60000000","longitude":"-49.03333300","name":"Jaguaruna"},{"id":"276989","latitude":"-26.50000000","longitude":"-51.23333300","name":"Jangada"},{"id":"276992","latitude":"-26.50000000","longitude":"-51.23333300","name":"Jangadinha"},{"id":"277053","latitude":"-26.48333300","longitude":"-49.06666700","name":"Jaragu\u00e1 do Sul"},{"id":"277057","latitude":"-26.48333300","longitude":"-49.06666700","name":"Jaragu\u00e1"},{"id":"277068","latitude":"-26.20000000","longitude":"-50.70000000","name":"Jararaca"},{"id":"277098","latitude":"-26.70000000","longitude":"-52.11666700","name":"Jardim"},{"id":"277332","latitude":"-27.16666700","longitude":"-51.50000000","name":"Joa\u00e7aba"},{"id":"277337","latitude":"-27.26666700","longitude":"-48.70000000","name":"Jo\u00e1ia"},{"id":"277462","latitude":"-26.45000000","longitude":"-48.93333300","name":"Jo\u00e3o Pessoa"},{"id":"277529","latitude":"-26.43333300","longitude":"-49.06666700","name":"Joaquim Wolff"},{"id":"277530","latitude":"-26.43333300","longitude":"-49.06666700","name":"Joaquim Wolf"},{"id":"277548","latitude":"-26.30000000","longitude":"-48.83333300","name":"Joinvile"},{"id":"277549","latitude":"-26.30000000","longitude":"-48.83333300","name":"Joinville"},{"id":"277553","latitude":"-27.26666700","longitude":"-48.70000000","name":"J\u00f4nia"},{"id":"277559","latitude":"-28.58333300","longitude":"-49.48333300","name":"Jord\u00e3o"},{"id":"277580","latitude":"-26.91666700","longitude":"-49.66666700","name":"Jos\u00e9 Boiteux"},{"id":"277713","latitude":"-27.16666700","longitude":"-51.50000000","name":"Jua\u00e7aba"},{"id":"277848","latitude":"-26.45000000","longitude":"-52.66666700","name":"Jupi\u00e1"},{"id":"277979","latitude":"-27.25000000","longitude":"-51.56666700","name":"Lacerd\u00f3polis"},{"id":"278017","latitude":"-26.75000000","longitude":"-50.35000000","name":"Lageado"},{"id":"278035","latitude":"-27.80000000","longitude":"-50.31666700","name":"Lages"},{"id":"278294","latitude":"-26.36666700","longitude":"-50.33333300","name":"Lagoa do Sul"},{"id":"278344","latitude":"-27.61666700","longitude":"-48.48333300","name":"Lagoa"},{"id":"278440","latitude":"-28.48333300","longitude":"-48.78333300","name":"Laguna"},{"id":"278456","latitude":"-27.18333300","longitude":"-51.98333300","name":"Lajeado dos Pintos"},{"id":"278459","latitude":"-26.95000000","longitude":"-52.60000000","name":"Lajeado Grande"},{"id":"278536","latitude":"-27.80000000","longitude":"-50.31666700","name":"Lajes"},{"id":"278585","latitude":"-26.30000000","longitude":"-51.00000000","name":"Lan\u00e7a"},{"id":"278627","latitude":"-28.65000000","longitude":"-48.98333300","name":"Laranjal"},{"id":"278636","latitude":"-27.58333300","longitude":"-50.88333300","name":"Laranjeira"},{"id":"278652","latitude":"-26.26666700","longitude":"-48.66666700","name":"Laranjeiras"},{"id":"278670","latitude":"-26.66666700","longitude":"-50.26666700","name":"Lascadinha"},{"id":"278677","latitude":"-27.21666700","longitude":"-49.75000000","name":"Laurentino"},{"id":"278684","latitude":"-28.40000000","longitude":"-49.38333300","name":"Lauro M\u00fcller"},{"id":"278726","latitude":"-27.30000000","longitude":"-51.56666700","name":"Le\u00e3o"},{"id":"278729","latitude":"-26.93333300","longitude":"-50.70000000","name":"Lebon R\u00e9gis"},{"id":"278785","latitude":"-27.03333300","longitude":"-50.93333300","name":"Liberata"},{"id":"278834","latitude":"-27.05000000","longitude":"-48.86666700","name":"Limeira"},{"id":"278837","latitude":"-27.05000000","longitude":"-48.86666700","name":"Limeiro"},{"id":"278887","latitude":"-27.25000000","longitude":"-51.83333300","name":"Linha Binda"},{"id":"278888","latitude":"-27.25000000","longitude":"-51.83333300","name":"Linha Blinda"},{"id":"278895","latitude":"-27.30000000","longitude":"-52.01666700","name":"Linha S\u00e3o Roque"},{"id":"278899","latitude":"-28.63333300","longitude":"-49.26666700","name":"Linha Torrens"},{"id":"278905","latitude":"-27.58333300","longitude":"-50.81666700","name":"Lipo"},{"id":"278974","latitude":"-27.16666700","longitude":"-49.55000000","name":"Lontras"},{"id":"278997","latitude":"-27.08333300","longitude":"-51.00000000","name":"Lourdes"},{"id":"279006","latitude":"-28.40000000","longitude":"-49.38333300","name":"Louro M\u00fcller"},{"id":"279048","latitude":"-26.73333300","longitude":"-48.95000000","name":"Lu\u00eds Alves"},{"id":"279076","latitude":"-26.73333300","longitude":"-48.95000000","name":"Luiz Alves"},{"id":"279106","latitude":"-27.11666700","longitude":"-51.46666700","name":"Luzerna"},{"id":"279199","latitude":"-26.60000000","longitude":"-49.01666700","name":"Ma\u00e7aranduba"},{"id":"279206","latitude":"-26.36666700","longitude":"-50.98333300","name":"Macat\u00e1"},{"id":"279252","latitude":"-26.85000000","longitude":"-51.38333300","name":"Macieira"},{"id":"279308","latitude":"-28.53333300","longitude":"-48.93333300","name":"Madre"},{"id":"279317","latitude":"-28.70000000","longitude":"-49.46666700","name":"M\u00e3e Luzia"},{"id":"279320","latitude":"-26.11805600","longitude":"-49.80166700","name":"Mafra"},{"id":"279355","latitude":"-27.41666700","longitude":"-48.95000000","name":"Major"},{"id":"279361","latitude":"-26.31666700","longitude":"-50.33333300","name":"Major Vieira"},{"id":"279516","latitude":"-26.16666700","longitude":"-48.53333300","name":"M\u00e1 Luz"},{"id":"279799","latitude":"-28.85000000","longitude":"-49.46666700","name":"Maracaj\u00e1"},{"id":"279860","latitude":"-27.21666700","longitude":"-51.08333300","name":"Marari"},{"id":"279866","latitude":"-26.36666700","longitude":"-50.98333300","name":"Marat\u00e1"},{"id":"279878","latitude":"-26.78333300","longitude":"-53.15000000","name":"Maravilha"},{"id":"279907","latitude":"-26.13333300","longitude":"-50.38333300","name":"Marc\u00edlio Dias"},{"id":"279934","latitude":"-27.23333300","longitude":"-52.60000000","name":"Marechal Bormann"},{"id":"279942","latitude":"-26.16666700","longitude":"-48.53333300","name":"Marechal Luz"},{"id":"279945","latitude":"-26.83333300","longitude":"-52.71666700","name":"Marema"},{"id":"279995","latitude":"-26.40000000","longitude":"-53.58333300","name":"Maria Preta"},{"id":"280085","latitude":"-27.20000000","longitude":"-50.63333300","name":"Marombas"},{"id":"280191","latitude":"-26.60000000","longitude":"-49.01666700","name":"Massaranduba"},{"id":"280195","latitude":"-27.81083300","longitude":"-48.64833300","name":"Massiambu Pequeno"},{"id":"280221","latitude":"-27.20000000","longitude":"-49.58333300","name":"Matador"},{"id":"280343","latitude":"-28.53333300","longitude":"-48.95000000","name":"Mato Alto"},{"id":"280371","latitude":"-26.45000000","longitude":"-51.15000000","name":"Matos Costa"},{"id":"280415","latitude":"-27.16666700","longitude":"-52.11666700","name":"Mau\u00e1"},{"id":"280470","latitude":"-27.12305600","longitude":"-48.61361100","name":"Meia Praia"},{"id":"280497","latitude":"-28.83333300","longitude":"-49.63333300","name":"Meleiro"},{"id":"280699","latitude":"-27.06666700","longitude":"-49.71666700","name":"Mirador"},{"id":"280759","latitude":"-27.20000000","longitude":"-50.08333300","name":"Mirim Doce"},{"id":"280764","latitude":"-27.20000000","longitude":"-50.08333300","name":"Mirim"},{"id":"280863","latitude":"-26.46666700","longitude":"-49.86666700","name":"Moema"},{"id":"280931","latitude":"-27.08333300","longitude":"-53.41666700","name":"Mondahy"},{"id":"280932","latitude":"-27.08333300","longitude":"-53.41666700","name":"Monda\u00ed"},{"id":"280998","latitude":"-27.30000000","longitude":"-50.43333300","name":"Monte Alegre"},{"id":"281038","latitude":"-26.50000000","longitude":"-50.18333300","name":"Monte Castelo"},{"id":"281218","latitude":"-28.85000000","longitude":"-49.46666700","name":"Morretes"},{"id":"281240","latitude":"-28.61666700","longitude":"-49.08333300","name":"Morro Azul"},{"id":"281248","latitude":"-28.66666700","longitude":"-49.20000000","name":"Morro da Fuma\u00e7a"},{"id":"281291","latitude":"-28.95000000","longitude":"-49.38333300","name":"Morro dos Conventos"},{"id":"281301","latitude":"-26.55000000","longitude":"-48.70000000","name":"Morro Grande"},{"id":"281309","latitude":"-28.66666700","longitude":"-49.08333300","name":"Morro Pequeno"},{"id":"281343","latitude":"-27.26666700","longitude":"-49.73333300","name":"Mosquitinho"},{"id":"281348","latitude":"-27.26666700","longitude":"-49.73333300","name":"Mosquito"},{"id":"281474","latitude":"-28.06666700","longitude":"-49.65000000","name":"Mundo Novo"},{"id":"281509","latitude":"-27.48333300","longitude":"-48.41666700","name":"Muqu\u00e9m"},{"id":"281676","latitude":"-26.90000000","longitude":"-48.65000000","name":"Navegantes"},{"id":"281736","latitude":"-27.11666700","longitude":"-49.33333300","name":"Neise Central"},{"id":"281737","latitude":"-27.11666700","longitude":"-49.33333300","name":"Neisse Central"},{"id":"281742","latitude":"-26.45000000","longitude":"-49.16666700","name":"Nereu Ramos"},{"id":"281785","latitude":"-27.30000000","longitude":"-49.45000000","name":"Nilo Pe\u00e7anha"},{"id":"281861","latitude":"-27.58333300","longitude":"-48.56666700","name":"Nossa Senhora do Dest\u00earro"},{"id":"281903","latitude":"-28.58333300","longitude":"-49.43333300","name":"Nova Beluno"},{"id":"281947","latitude":"-26.36666700","longitude":"-51.15000000","name":"Nova Gal\u00edcia"},{"id":"281948","latitude":"-26.36666700","longitude":"-51.15000000","name":"Nova Galizia"},{"id":"282029","latitude":"-27.11666700","longitude":"-51.61666700","name":"Nova Petr\u00f3polis"},{"id":"282036","latitude":"-28.75000000","longitude":"-49.78333300","name":"Nova Roma"},{"id":"282048","latitude":"-27.05000000","longitude":"-52.40000000","name":"Nova Teut\u00f4nia"},{"id":"282052","latitude":"-27.28333300","longitude":"-48.91666700","name":"Nova Trento"},{"id":"282053","latitude":"-28.51666700","longitude":"-49.46666700","name":"Nova Troviso"},{"id":"282057","latitude":"-28.65000000","longitude":"-49.50000000","name":"Nova Veneza"},{"id":"282063","latitude":"-28.85000000","longitude":"-49.80000000","name":"Nova Vicen\u00e7a"},{"id":"282064","latitude":"-28.85000000","longitude":"-49.80000000","name":"Nova Vic\u00eancia"},{"id":"282065","latitude":"-27.06666700","longitude":"-51.61666700","name":"Nova Vicenza"},{"id":"282079","latitude":"-27.06666700","longitude":"-51.61666700","name":"Nova Vincenza"},{"id":"282086","latitude":"-27.08333300","longitude":"-52.33333300","name":"Nova Xavantina"},{"id":"282102","latitude":"-28.58333300","longitude":"-49.43333300","name":"Novo Bellamo"},{"id":"282126","latitude":"-28.40000000","longitude":"-49.53333300","name":"Novo Horizonte"},{"id":"282179","latitude":"-28.75000000","longitude":"-49.36666700","name":"Nucleo Hercilio Luz"},{"id":"282348","latitude":"-28.75000000","longitude":"-49.20000000","name":"Olho d'Agua"},{"id":"282412","latitude":"-27.16666700","longitude":"-48.75000000","name":"Oliveira"},{"id":"282489","latitude":"-28.35000000","longitude":"-49.30000000","name":"Orle\u00e3es"},{"id":"282490","latitude":"-28.35000000","longitude":"-49.30000000","name":"Orleans do Sul"},{"id":"282491","latitude":"-28.35000000","longitude":"-49.30000000","name":"Orleans"},{"id":"282516","latitude":"-26.38333300","longitude":"-49.26666700","name":"Osvaldo Amaral"},{"id":"282517","latitude":"-26.38333300","longitude":"-49.26666700","name":"Osvaldo Amaro"},{"id":"282525","latitude":"-27.56666700","longitude":"-50.11666700","name":"Otac\u00edlio Costa"},{"id":"282559","latitude":"-27.35000000","longitude":"-51.68333300","name":"Ouro"},{"id":"282574","latitude":"-26.16666700","longitude":"-50.40000000","name":"Ouro Verde"},{"id":"282590","latitude":"-26.23333300","longitude":"-49.40000000","name":"Oxford"},{"id":"282622","latitude":"-26.08333300","longitude":"-50.65000000","name":"Paci\u00eancia"},{"id":"282707","latitude":"-27.91666700","longitude":"-50.10000000","name":"Painel"},{"id":"282752","latitude":"-28.41666700","longitude":"-49.43333300","name":"Palermo"},{"id":"282770","latitude":"-27.63333300","longitude":"-48.66666700","name":"Palho\u00e7a"},{"id":"282771","latitude":"-28.05000000","longitude":"-48.66666700","name":"Palhocinha"},{"id":"282787","latitude":"-27.33333300","longitude":"-50.90000000","name":"Palmares"},{"id":"282823","latitude":"-27.58333300","longitude":"-50.15000000","name":"Palmeira"},{"id":"282839","latitude":"-28.40000000","longitude":"-49.21666700","name":"Palmeiras"},{"id":"282869","latitude":"-26.01666700","longitude":"-48.85000000","name":"Palmital"},{"id":"282875","latitude":"-27.08333300","longitude":"-53.13333300","name":"Palmitos"},{"id":"282885","latitude":"-26.68333300","longitude":"-49.25000000","name":"Pameranos"},{"id":"282929","latitude":"-27.78055600","longitude":"-48.50777800","name":"P\u00e2ntano do Sul"},{"id":"282969","latitude":"-26.41666700","longitude":"-50.15000000","name":"Papanduba"},{"id":"282970","latitude":"-26.41666700","longitude":"-50.15000000","name":"Papanduva"},{"id":"282978","latitude":"-26.98333300","longitude":"-51.40000000","name":"Papuam"},{"id":"282979","latitude":"-26.98333300","longitude":"-51.40000000","name":"Papuan"},{"id":"282981","latitude":"-26.98333300","longitude":"-51.40000000","name":"Papu\u00e3"},{"id":"283021","latitude":"-26.38333300","longitude":"-49.91666700","name":"Paragua\u00e7u"},{"id":"283032","latitude":"-26.38333300","longitude":"-49.91666700","name":"Paraguass\u00fa"},{"id":"283078","latitude":"-26.60000000","longitude":"-53.65000000","name":"Para\u00edso"},{"id":"283160","latitude":"-26.38333300","longitude":"-48.71666700","name":"Parati"},{"id":"283173","latitude":"-26.38333300","longitude":"-48.71666700","name":"Paraty"},{"id":"283183","latitude":"-26.20000000","longitude":"-50.31666700","name":"Pardo"},{"id":"283184","latitude":"-26.20000000","longitude":"-50.31666700","name":"Pardos"},{"id":"283269","latitude":"-26.83333300","longitude":"-50.41666700","name":"Passa Bois"},{"id":"283273","latitude":"-26.83333300","longitude":"-50.41666700","name":"Passa Dois"},{"id":"283324","latitude":"-28.46666700","longitude":"-48.98333300","name":"Passagem"},{"id":"283338","latitude":"-27.15000000","longitude":"-53.25000000","name":"Passarinho"},{"id":"283339","latitude":"-27.15000000","longitude":"-53.25000000","name":"Passarinhos"},{"id":"283356","latitude":"-27.23333300","longitude":"-52.60000000","name":"Passo Bormann"},{"id":"283357","latitude":"-27.23333300","longitude":"-52.60000000","name":"Passo Borman"},{"id":"283358","latitude":"-26.61666700","longitude":"-50.35000000","name":"Passo Canoinhas"},{"id":"283372","latitude":"-29.21666700","longitude":"-49.80000000","name":"Passo do Cert\u00e3o"},{"id":"283374","latitude":"-28.48333300","longitude":"-49.00000000","name":"Passo do Gado"},{"id":"283375","latitude":"-28.48333300","longitude":"-49.00000000","name":"Passo do Gato"},{"id":"283381","latitude":"-29.21666700","longitude":"-49.80000000","name":"Passo do Sert\u00e3o"},{"id":"283392","latitude":"-29.21666700","longitude":"-49.80000000","name":"Passo Sert\u00e3o"},{"id":"283395","latitude":"-28.90000000","longitude":"-49.46666700","name":"Passo Vermelho"},{"id":"283558","latitude":"-26.21666700","longitude":"-48.60000000","name":"Paula"},{"id":"283560","latitude":"-26.01666700","longitude":"-50.53333300","name":"Paula Pereira"},{"id":"283561","latitude":"-26.21666700","longitude":"-48.60000000","name":"Paulas"},{"id":"283599","latitude":"-27.96444400","longitude":"-48.68250000","name":"Paulo Lopes"},{"id":"283717","latitude":"-26.51666700","longitude":"-49.13333300","name":"Pedra Branca"},{"id":"283798","latitude":"-29.00000000","longitude":"-49.83333300","name":"Pedra"},{"id":"283830","latitude":"-28.45000000","longitude":"-49.18333300","name":"Pedras Grandes"},{"id":"283863","latitude":"-26.20000000","longitude":"-48.93333300","name":"Pedreira"},{"id":"283874","latitude":"-26.83333300","longitude":"-48.66666700","name":"Pedreiras"},{"id":"284018","latitude":"-26.76666700","longitude":"-48.65000000","name":"Penha de Itapocoroy"},{"id":"284034","latitude":"-26.76666700","longitude":"-48.65000000","name":"Penha"},{"id":"284072","latitude":"-27.00000000","longitude":"-51.13333300","name":"Perdizes"},{"id":"284099","latitude":"-27.15500000","longitude":"-48.57333300","name":"Perequ\u00ea"},{"id":"284100","latitude":"-28.16666700","longitude":"-49.75000000","name":"Peric\u00f3"},{"id":"284103","latitude":"-27.53333300","longitude":"-49.70000000","name":"Perimb\u00f3"},{"id":"284131","latitude":"-28.36666700","longitude":"-48.80000000","name":"Perixil"},{"id":"284155","latitude":"-28.36666700","longitude":"-48.80000000","name":"Perrexil"},{"id":"284175","latitude":"-27.03333300","longitude":"-48.58333300","name":"Pescadores"},{"id":"284177","latitude":"-28.38333300","longitude":"-48.88333300","name":"Pescaria Brava"},{"id":"284274","latitude":"-26.76666700","longitude":"-48.66666700","name":"Pi\u00e7arras"},{"id":"284406","latitude":"-28.40000000","longitude":"-49.21666700","name":"Pindotiba"},{"id":"284412","latitude":"-27.00000000","longitude":"-51.83333300","name":"Pingador"},{"id":"284430","latitude":"-26.80000000","longitude":"-52.95000000","name":"Pinhalzinho"},{"id":"284445","latitude":"-27.41666700","longitude":"-49.10000000","name":"Pinheiral"},{"id":"284447","latitude":"-27.88722200","longitude":"-48.58861100","name":"Pinheira"},{"id":"284449","latitude":"-28.95000000","longitude":"-49.78333300","name":"Pinheirinho Baixo"},{"id":"284468","latitude":"-27.05000000","longitude":"-51.20000000","name":"Pinheiro Pr\u00eato"},{"id":"284539","latitude":"-26.20000000","longitude":"-48.93333300","name":"Pirabeiraba"},{"id":"284662","latitude":"-27.45000000","longitude":"-51.80000000","name":"Piratuba"},{"id":"284816","latitude":"-26.51666700","longitude":"-49.58333300","name":"Pocinho"},{"id":"284969","latitude":"-26.28333300","longitude":"-50.88333300","name":"Po\u00e7o Pr\u00eato"},{"id":"284993","latitude":"-28.83333300","longitude":"-49.66666700","name":"Po\u00e7o Verde"},{"id":"285040","latitude":"-27.25000000","longitude":"-50.00000000","name":"Pombinhas"},{"id":"285047","latitude":"-26.75000000","longitude":"-49.18333300","name":"Pomerode"},{"id":"285118","latitude":"-26.36666700","longitude":"-48.63333300","name":"Ponta do Rei"},{"id":"285124","latitude":"-28.28333300","longitude":"-48.78333300","name":"Ponta Grossa"},{"id":"285142","latitude":"-26.16666700","longitude":"-48.60000000","name":"Pontal"},{"id":"285159","latitude":"-28.31666700","longitude":"-48.75000000","name":"Ponta Rasa"},{"id":"285163","latitude":"-27.13333300","longitude":"-50.46666700","name":"Ponte Alta de Cima"},{"id":"285165","latitude":"-27.13333300","longitude":"-50.46666700","name":"Ponte Alta do Norte"},{"id":"285171","latitude":"-27.13333300","longitude":"-50.46666700","name":"Ponte Alta"},{"id":"285174","latitude":"-27.13333300","longitude":"-50.46666700","name":"Ponte Alto de Cima"},{"id":"285214","latitude":"-27.48333300","longitude":"-50.38333300","name":"Pontes Altas"},{"id":"285218","latitude":"-26.86666700","longitude":"-51.96666700","name":"Ponte Serrada"},{"id":"285219","latitude":"-26.86666700","longitude":"-51.96666700","name":"Ponte Serrado"},{"id":"285390","latitude":"-27.15750000","longitude":"-48.53972200","name":"Porto Bello"},{"id":"285391","latitude":"-27.15750000","longitude":"-48.53972200","name":"Porto Belo"},{"id":"285437","latitude":"-27.18333300","longitude":"-52.76666700","name":"P\u00f4rto Chalana"},{"id":"285462","latitude":"-27.18333300","longitude":"-52.76666700","name":"Porto da Chatana"},{"id":"285543","latitude":"-28.30000000","longitude":"-48.86666700","name":"Porto do Aratingauba"},{"id":"285590","latitude":"-26.03333300","longitude":"-48.81666700","name":"P\u00f4rto do Palmital"},{"id":"285635","latitude":"-26.25000000","longitude":"-51.08333300","name":"P\u00f4rto do Uniao"},{"id":"285676","latitude":"-27.21666700","longitude":"-49.08333300","name":"P\u00f4rto Franco"},{"id":"285685","latitude":"-27.28333300","longitude":"-52.68333300","name":"Porto Goio En"},{"id":"285687","latitude":"-27.28333300","longitude":"-52.68333300","name":"Porto Goyo En"},{"id":"285801","latitude":"-26.03333300","longitude":"-48.81666700","name":"P\u00f4rto Palmital"},{"id":"285810","latitude":"-27.28333300","longitude":"-52.68333300","name":"P\u00f4rto Pinheiro"},{"id":"285858","latitude":"-27.16666700","longitude":"-53.61666700","name":"P\u00f4rto Rode"},{"id":"285925","latitude":"-26.25000000","longitude":"-51.08333300","name":"P\u00f4rto Uni\u00e3o"},{"id":"285926","latitude":"-26.25000000","longitude":"-51.08333300","name":"Porto Unic\u00e3o"},{"id":"285973","latitude":"-26.53333300","longitude":"-49.60000000","name":"P\u00f4sto Carvalho"},{"id":"285982","latitude":"-26.85000000","longitude":"-49.71666700","name":"P\u00f4sto Duque de Caxias"},{"id":"286047","latitude":"-27.25000000","longitude":"-49.95000000","name":"Pouso Redondo"},{"id":"286051","latitude":"-27.25000000","longitude":"-49.95000000","name":"Pousso Redondo"},{"id":"286092","latitude":"-26.33333300","longitude":"-48.58333300","name":"Praia Grande"},{"id":"286100","latitude":"-28.16666700","longitude":"-48.96666700","name":"Praia Redonda"},{"id":"286183","latitude":"-27.05000000","longitude":"-49.61666700","name":"Presidente Get\u00falio"},{"id":"286192","latitude":"-26.70000000","longitude":"-51.05000000","name":"Presidente Pena"},{"id":"286241","latitude":"-26.95000000","longitude":"-51.10000000","name":"Princesa Isabel"},{"id":"286403","latitude":"-27.68333300","longitude":"-49.21666700","name":"Quebra Dentes"},{"id":"286409","latitude":"-27.73333300","longitude":"-48.93333300","name":"Que\u00e7aba"},{"id":"286490","latitude":"-27.73333300","longitude":"-48.93333300","name":"Qui\u00e7aba"},{"id":"286504","latitude":"-26.78333300","longitude":"-52.75000000","name":"Quilombo"},{"id":"286510","latitude":"-26.33333300","longitude":"-50.71666700","name":"Quil\u00f4metro Quinze"},{"id":"286555","latitude":"-26.13333300","longitude":"-49.01666700","name":"Quiriri"},{"id":"286685","latitude":"-28.50000000","longitude":"-49.28333300","name":"Rancho dos Bugres"},{"id":"286689","latitude":"-26.60000000","longitude":"-50.25000000","name":"Rancho Grande"},{"id":"286694","latitude":"-27.68333300","longitude":"-49.03333300","name":"Rancho Queimado"},{"id":"286695","latitude":"-27.68333300","longitude":"-49.03333300","name":"Rancho Quemado"},{"id":"286721","latitude":"-27.50000000","longitude":"-48.46666700","name":"Ratones"},{"id":"286752","latitude":"-27.43333300","longitude":"-48.45000000","name":"Recanto"},{"id":"286841","latitude":"-26.60000000","longitude":"-52.35000000","name":"Registro"},{"id":"286844","latitude":"-26.33333300","longitude":"-50.61666700","name":"Reichart"},{"id":"286899","latitude":"-27.51666700","longitude":"-48.51666700","name":"Rerituba"},{"id":"287026","latitude":"-28.63333300","longitude":"-49.05000000","name":"Retiro"},{"id":"287257","latitude":"-28.60000000","longitude":"-48.96666700","name":"Riacho"},{"id":"287307","latitude":"-27.71666700","longitude":"-48.58333300","name":"Ribeir\u00e3o da Ilha"},{"id":"287327","latitude":"-27.20000000","longitude":"-49.15000000","name":"Ribeir\u00e3o do Ouro"},{"id":"287336","latitude":"-26.98333300","longitude":"-50.00000000","name":"Ribeir\u00e3o Grande"},{"id":"287338","latitude":"-28.45000000","longitude":"-48.86666700","name":"Ribeir\u00e3o Pequeno"},{"id":"287348","latitude":"-27.71666700","longitude":"-48.58333300","name":"Ribeir\u00e3o"},{"id":"287401","latitude":"-28.83333300","longitude":"-49.25000000","name":"Rinc\u00e3o"},{"id":"287407","latitude":"-28.75000000","longitude":"-49.21666700","name":"Rio Acima"},{"id":"287417","latitude":"-27.13333300","longitude":"-51.21666700","name":"Rio Bonita"},{"id":"287420","latitude":"-26.13333300","longitude":"-48.90000000","name":"Rio Bonito"},{"id":"287431","latitude":"-27.08333300","longitude":"-52.13333300","name":"Rio Branco"},{"id":"287434","latitude":"-26.78333300","longitude":"-51.00000000","name":"Rio Ca\u00e7ador"},{"id":"287435","latitude":"-27.40000000","longitude":"-50.48333300","name":"Rio Cachorros"},{"id":"287437","latitude":"-27.33333300","longitude":"-51.60000000","name":"Rio Capinzal"},{"id":"287438","latitude":"-28.13333300","longitude":"-49.05000000","name":"Rio Carolina"},{"id":"287442","latitude":"-28.71666700","longitude":"-49.58333300","name":"Rio Cedro M\u00e9dio"},{"id":"287453","latitude":"-27.08333300","longitude":"-50.63333300","name":"Rio Correntes"},{"id":"287458","latitude":"-26.35000000","longitude":"-50.63333300","name":"Rio da Areia"},{"id":"287463","latitude":"-29.00000000","longitude":"-49.83333300","name":"Rio da Pedra"},{"id":"287472","latitude":"-26.50000000","longitude":"-50.23333300","name":"Rio das Antas"},{"id":"287473","latitude":"-26.53333300","longitude":"-50.30000000","name":"Rio da Serra"},{"id":"287480","latitude":"-27.41666700","longitude":"-49.25000000","name":"Rio das Pedras"},{"id":"287493","latitude":"-28.55000000","longitude":"-49.36666700","name":"Rio Deserto"},{"id":"287499","latitude":"-26.96666700","longitude":"-50.15000000","name":"Rio do Campo"},{"id":"287500","latitude":"-28.71666700","longitude":"-49.58333300","name":"Rio do Cedro M\u00e9dio"},{"id":"287505","latitude":"-27.20000000","longitude":"-49.80000000","name":"Rio d'Oeste"},{"id":"287508","latitude":"-26.28333300","longitude":"-49.11666700","name":"Rio do J\u00falio"},{"id":"287509","latitude":"-26.48333300","longitude":"-50.36666700","name":"Rio do Liso"},{"id":"287521","latitude":"-27.45000000","longitude":"-51.80000000","name":"Rio do Peixe"},{"id":"287524","latitude":"-28.41666700","longitude":"-49.11666700","name":"Rio do Pouso"},{"id":"287528","latitude":"-28.83333300","longitude":"-49.63333300","name":"Rio do Salto"},{"id":"287531","latitude":"-27.51666700","longitude":"-49.51666700","name":"Rio dos Bugres"},{"id":"287532","latitude":"-27.40000000","longitude":"-50.48333300","name":"Rio dos Cachorros"},{"id":"287533","latitude":"-26.73333300","longitude":"-49.26666700","name":"Rio dos Cedros"},{"id":"287535","latitude":"-26.33333300","longitude":"-50.61666700","name":"Rio dos Pardos"},{"id":"287538","latitude":"-28.90000000","longitude":"-49.40000000","name":"Rio dos Porcos"},{"id":"287540","latitude":"-27.21666700","longitude":"-49.65000000","name":"Rio do Sul"},{"id":"287541","latitude":"-26.75000000","longitude":"-49.18333300","name":"Rio do Testo"},{"id":"287545","latitude":"-28.13333300","longitude":"-48.76666700","name":"Rio d'Una"},{"id":"287547","latitude":"-26.28333300","longitude":"-50.08333300","name":"Rio Estiva"},{"id":"287548","latitude":"-26.71666700","longitude":"-49.48333300","name":"Rio Forca\u00e7\u00e3o"},{"id":"287550","latitude":"-28.10000000","longitude":"-49.11666700","name":"Rio Fortuna"},{"id":"287569","latitude":"-28.68333300","longitude":"-49.45000000","name":"Rio Maina"},{"id":"287577","latitude":"-26.24416700","longitude":"-49.51305600","name":"Rio Negrinho"},{"id":"287583","latitude":"-28.93333300","longitude":"-49.43333300","name":"Rio Negro"},{"id":"287596","latitude":"-26.45000000","longitude":"-50.30000000","name":"Rio Novo"},{"id":"287608","latitude":"-28.15000000","longitude":"-49.21666700","name":"Rio Pequeno"},{"id":"287611","latitude":"-26.21861100","longitude":"-49.60527800","name":"Rio Pr\u00eato do Sul"},{"id":"287619","latitude":"-26.21861100","longitude":"-49.60527800","name":"Rio Pr\u00eato"},{"id":"287628","latitude":"-27.86666700","longitude":"-49.78333300","name":"Rio Rufino"},{"id":"287637","latitude":"-27.21666700","longitude":"-49.65000000","name":"Rio Sul"},{"id":"287638","latitude":"-27.65000000","longitude":"-48.50000000","name":"Rio Tavares"},{"id":"287655","latitude":"-26.28333300","longitude":"-49.33333300","name":"Rio Vermelho"},{"id":"287737","latitude":"-27.16666700","longitude":"-52.58333300","name":"Rodeio Chato"},{"id":"287738","latitude":"-26.85000000","longitude":"-49.33333300","name":"Rodeio Doze"},{"id":"287741","latitude":"-26.85000000","longitude":"-49.33333300","name":"Rodeio"},{"id":"287775","latitude":"-26.63333300","longitude":"-53.31666700","name":"Romel\u00e2ndia"},{"id":"287885","latitude":"-27.86666700","longitude":"-49.78333300","name":"Rufino"},{"id":"287902","latitude":"-26.23333300","longitude":"-49.83333300","name":"Rutes"},{"id":"287904","latitude":"-26.88333300","longitude":"-52.38333300","name":"Ruy Barbosa"},{"id":"288049","latitude":"-26.18333300","longitude":"-48.66666700","name":"Sa\u00ed"},{"id":"288054","latitude":"-27.33333300","longitude":"-49.33333300","name":"Salceiro"},{"id":"288144","latitude":"-26.25000000","longitude":"-50.35000000","name":"Salseiro"},{"id":"288164","latitude":"-27.41666700","longitude":"-49.60000000","name":"Salto Grande"},{"id":"288173","latitude":"-26.53333300","longitude":"-48.83333300","name":"Salto"},{"id":"288183","latitude":"-26.41666700","longitude":"-48.83333300","name":"Salvador"},{"id":"288217","latitude":"-26.25000000","longitude":"-48.55000000","name":"Sambaqui"},{"id":"288240","latitude":"-29.08333300","longitude":"-49.76666700","name":"Sanga da Areia"},{"id":"288241","latitude":"-28.80000000","longitude":"-49.56666700","name":"Sanga do Engenho"},{"id":"288242","latitude":"-28.98333300","longitude":"-49.50000000","name":"Sanga do Veado"},{"id":"288243","latitude":"-28.88333300","longitude":"-49.56666700","name":"Sanga Grande"},{"id":"288246","latitude":"-28.63333300","longitude":"-49.13333300","name":"Sang\u00e3o"},{"id":"288362","latitude":"-26.93333300","longitude":"-50.45000000","name":"Santa Cec\u00edlia"},{"id":"288381","latitude":"-27.15000000","longitude":"-51.58333300","name":"Santa Clara"},{"id":"288428","latitude":"-26.35000000","longitude":"-50.88333300","name":"Santa Cruz do Timb\u00f3"},{"id":"288450","latitude":"-26.35000000","longitude":"-50.88333300","name":"Santa Cruz"},{"id":"288523","latitude":"-27.16666700","longitude":"-51.66666700","name":"Santa Helena"},{"id":"288588","latitude":"-26.80000000","longitude":"-48.65000000","name":"Santa L\u00eddia"},{"id":"288697","latitude":"-26.66666700","longitude":"-50.70000000","name":"Santa Maria"},{"id":"288780","latitude":"-27.56666700","longitude":"-48.75000000","name":"Santana"},{"id":"288811","latitude":"-27.95000000","longitude":"-49.86666700","name":"Santanna"},{"id":"288941","latitude":"-29.13333300","longitude":"-49.71666700","name":"Santa Rosa"},{"id":"288965","latitude":"-27.66666700","longitude":"-49.40000000","name":"Santa Teresa"},{"id":"289011","latitude":"-27.66666700","longitude":"-49.40000000","name":"Santa Thereza"},{"id":"289036","latitude":"-28.41666700","longitude":"-48.90000000","name":"Santiago"},{"id":"289053","latitude":"-27.68333300","longitude":"-48.76666700","name":"Santo Amaro da Imperatriz"},{"id":"289058","latitude":"-27.68333300","longitude":"-48.76666700","name":"Santo Amaro do Cubat\u00e3o"},{"id":"289071","latitude":"-27.68333300","longitude":"-48.76666700","name":"Santo Amaro"},{"id":"289124","latitude":"-27.51666700","longitude":"-48.51666700","name":"Santo Ant\u00f4nio de Lisboa"},{"id":"289174","latitude":"-28.20000000","longitude":"-50.70000000","name":"Santo Ant\u00f4nio do Pelotas"},{"id":"289175","latitude":"-27.23333300","longitude":"-51.91666700","name":"Santo Ant\u00f4nio do Pinhal"},{"id":"289191","latitude":"-27.78333300","longitude":"-50.20000000","name":"Santo Antonio dos Indios"},{"id":"289224","latitude":"-27.51666700","longitude":"-48.51666700","name":"Santo Antonio"},{"id":"289343","latitude":"-28.66666700","longitude":"-49.56666700","name":"S\u00e3o Bento Alto"},{"id":"289354","latitude":"-26.24972200","longitude":"-49.38250000","name":"S\u00e3o Bento do Sul"},{"id":"289376","latitude":"-26.24972200","longitude":"-49.38250000","name":"S\u00e3o Bento"},{"id":"289400","latitude":"-27.90000000","longitude":"-48.93333300","name":"S\u00e3o Bonif\u00e1cio"},{"id":"289413","latitude":"-28.45000000","longitude":"-48.86666700","name":"S\u00e3o-Br\u00e1s"},{"id":"289414","latitude":"-28.46666700","longitude":"-48.86666700","name":"S\u00e3o Br\u00e1s"},{"id":"289424","latitude":"-28.45000000","longitude":"-48.86666700","name":"S\u00e3o Braz"},{"id":"289455","latitude":"-27.06666700","longitude":"-52.98333300","name":"S\u00e3o Carlos"},{"id":"289518","latitude":"-26.56666700","longitude":"-52.53333300","name":"S\u00e3o Domingos"},{"id":"289594","latitude":"-26.23333300","longitude":"-48.65000000","name":"S\u00e3o Francisco do Sul"},{"id":"289616","latitude":"-26.23333300","longitude":"-48.65000000","name":"S\u00e3o Francisco"},{"id":"289635","latitude":"-26.60000000","longitude":"-49.78333300","name":"S\u00e3o Gabriel"},{"id":"289713","latitude":"-27.26666700","longitude":"-48.83333300","name":"S\u00e3o Jo\u00e3o Baptista"},{"id":"289719","latitude":"-27.26666700","longitude":"-48.83333300","name":"S\u00e3o Jo\u00e3o Batista"},{"id":"289757","latitude":"-26.61666700","longitude":"-50.96666700","name":"S\u00e3o Jo\u00e3o de Cima"},{"id":"289822","latitude":"-27.46666700","longitude":"-48.41666700","name":"S\u00e3o Jo\u00e3o do Rio Vermelho"},{"id":"289835","latitude":"-29.21666700","longitude":"-49.80000000","name":"S\u00e3o Jo\u00e3o do Sul"},{"id":"289863","latitude":"-26.16666700","longitude":"-50.15000000","name":"S\u00e3o Jo\u00e3o"},{"id":"289871","latitude":"-28.30000000","longitude":"-49.93333300","name":"S\u00e3o Joaquim da Costa da Serra"},{"id":"289900","latitude":"-28.30000000","longitude":"-49.93333300","name":"S\u00e3o Joaquim"},{"id":"289915","latitude":"-26.70000000","longitude":"-53.40000000","name":"S\u00e3o Jorge"},{"id":"290007","latitude":"-26.50000000","longitude":"-53.50000000","name":"S\u00e3o Jos\u00e9 do Cedro"},{"id":"290009","latitude":"-27.66666700","longitude":"-50.58333300","name":"S\u00e3o Jos\u00e9 do Cerrito"},{"id":"290071","latitude":"-27.66666700","longitude":"-50.58333300","name":"S\u00e3o Jos\u00e9 do Serrito"},{"id":"290111","latitude":"-27.63333300","longitude":"-48.65000000","name":"S\u00e3o Jos\u00e9"},{"id":"290126","latitude":"-26.80000000","longitude":"-48.65000000","name":"S\u00e3o L\u00eddio"},{"id":"290133","latitude":"-26.40000000","longitude":"-52.76666700","name":"Sao Lourenco d'Oeste"},{"id":"290135","latitude":"-26.40000000","longitude":"-52.76666700","name":"S\u00e3o Louren\u00e7o do Oeste"},{"id":"290153","latitude":"-26.40000000","longitude":"-52.76666700","name":"S\u00e3o Louren\u00e7o"},{"id":"290193","latitude":"-27.01666700","longitude":"-51.25000000","name":"S\u00e3o Lu\u00eds"},{"id":"290219","latitude":"-28.18333300","longitude":"-48.95000000","name":"S\u00e3o Luiz"},{"id":"290260","latitude":"-28.16666700","longitude":"-48.96666700","name":"S\u00e3o Martinho do Capivaras"},{"id":"290267","latitude":"-28.16666700","longitude":"-48.96666700","name":"S\u00e3o Martinho"},{"id":"290283","latitude":"-28.13333300","longitude":"-49.11666700","name":"S\u00e3o Maur\u00edcio"},{"id":"290302","latitude":"-26.75000000","longitude":"-53.56666700","name":"Sao Miguel d'Oeste"},{"id":"290306","latitude":"-26.75000000","longitude":"-53.56666700","name":"S\u00e3o Miguel do Oeste"},{"id":"290334","latitude":"-26.16666700","longitude":"-49.23333300","name":"S\u00e3o Miguel"},{"id":"290349","latitude":"-27.86666700","longitude":"-49.08333300","name":"S\u00e3o Paulo dos Pinhais"},{"id":"290363","latitude":"-27.63333300","longitude":"-50.95000000","name":"S\u00e3o Paulo"},{"id":"290384","latitude":"-27.58333300","longitude":"-48.80000000","name":"S\u00e3o Pedro de Alc\u00e2ntara"},{"id":"290434","latitude":"-28.83333300","longitude":"-49.51666700","name":"S\u00e3o Pedro"},{"id":"290488","latitude":"-26.41666700","longitude":"-50.78333300","name":"S\u00e3o Roque"},{"id":"290536","latitude":"-27.28333300","longitude":"-51.43333300","name":"S\u00e3o Sebasti\u00e3o do Erval"},{"id":"290572","latitude":"-26.78333300","longitude":"-50.83333300","name":"S\u00e3o Sebasti\u00e3o do Sul"},{"id":"290597","latitude":"-26.78333300","longitude":"-50.83333300","name":"S\u00e3o-Sebasti\u00e3o"},{"id":"290598","latitude":"-28.33333300","longitude":"-49.18333300","name":"S\u00e3o Sebasti\u00e3o"},{"id":"290637","latitude":"-28.31666700","longitude":"-48.93333300","name":"S\u00e3o Tom\u00e1s"},{"id":"290640","latitude":"-28.31666700","longitude":"-48.93333300","name":"S\u00e3o Tomaz"},{"id":"290696","latitude":"-26.88333300","longitude":"-49.33333300","name":"S\u00e3o Vigilio"},{"id":"290702","latitude":"-26.88333300","longitude":"-49.33333300","name":"S\u00e3o Virg\u00edlio"},{"id":"290706","latitude":"-26.66666700","longitude":"-52.08333300","name":"Sapataria"},{"id":"290708","latitude":"-26.66666700","longitude":"-52.08333300","name":"Sapateiro"},{"id":"290794","latitude":"-26.41666700","longitude":"-53.15000000","name":"Sargento"},{"id":"290826","latitude":"-26.95000000","longitude":"-52.96666700","name":"Saudade"},{"id":"290829","latitude":"-26.95000000","longitude":"-52.96666700","name":"Saudades"},{"id":"290843","latitude":"-26.43333300","longitude":"-49.06666700","name":"Schroeder"},{"id":"290846","latitude":"-27.11666700","longitude":"-52.28333300","name":"Seara"},{"id":"290959","latitude":"-26.93333300","longitude":"-50.45000000","name":"Sepultura"},{"id":"291027","latitude":"-26.24972200","longitude":"-49.38250000","name":"Serra Alta"},{"id":"291048","latitude":"-26.83333300","longitude":"-50.66666700","name":"Serra da Esperan\u00e7a"},{"id":"291093","latitude":"-27.50000000","longitude":"-49.78333300","name":"Serra dos Alves"},{"id":"291150","latitude":"-27.53333300","longitude":"-48.65000000","name":"Serraria"},{"id":"291194","latitude":"-26.11666700","longitude":"-50.48333300","name":"Serrito"},{"id":"291198","latitude":"-27.80000000","longitude":"-50.88333300","name":"Serro Negro"},{"id":"291200","latitude":"-26.60000000","longitude":"-49.15000000","name":"S\u00earro"},{"id":"291246","latitude":"-27.00000000","longitude":"-52.05000000","name":"Sert\u00e3osinho"},{"id":"291252","latitude":"-27.00000000","longitude":"-52.05000000","name":"Sert\u00e3ozinho"},{"id":"291254","latitude":"-26.60000000","longitude":"-49.15000000","name":"Servo"},{"id":"291292","latitude":"-28.58333300","longitude":"-49.43333300","name":"Sider\u00f3polis"},{"id":"291356","latitude":"-28.35000000","longitude":"-48.88333300","name":"Siqueira"},{"id":"291357","latitude":"-28.35000000","longitude":"-48.88333300","name":"Siqueiro"},{"id":"291367","latitude":"-27.97861100","longitude":"-48.64166700","name":"Siri\u00fa"},{"id":"291682","latitude":"-26.35000000","longitude":"-48.85000000","name":"Soares"},{"id":"291784","latitude":"-29.11666700","longitude":"-49.66666700","name":"Sombrio"},{"id":"291840","latitude":"-27.10000000","longitude":"-49.45000000","name":"Subida"},{"id":"291995","latitude":"-27.20000000","longitude":"-49.58333300","name":"Tabo\u00e3o"},{"id":"292046","latitude":"-27.20000000","longitude":"-49.58333300","name":"Tabu\u00e3o"},{"id":"292141","latitude":"-27.10000000","longitude":"-49.98333300","name":"Tai\u00f3"},{"id":"292188","latitude":"-26.58333300","longitude":"-50.58333300","name":"Tamandu\u00e1"},{"id":"292239","latitude":"-27.13333300","longitude":"-51.21666700","name":"Tangar\u00e1"},{"id":"292442","latitude":"-26.71666700","longitude":"-51.20000000","name":"Taquara Verde"},{"id":"292555","latitude":"-26.08333300","longitude":"-50.41666700","name":"Tauna"},{"id":"292557","latitude":"-26.08333300","longitude":"-50.41666700","name":"Taunay"},{"id":"292571","latitude":"-27.10000000","longitude":"-49.98333300","name":"Tayo"},{"id":"292656","latitude":"-27.73333300","longitude":"-48.93333300","name":"Teres\u00f3polis"},{"id":"292739","latitude":"-26.86666700","longitude":"-49.16666700","name":"T\u00easto Salto"},{"id":"292740","latitude":"-26.75000000","longitude":"-49.18333300","name":"Testo"},{"id":"292747","latitude":"-27.05000000","longitude":"-52.40000000","name":"Teutonia"},{"id":"292758","latitude":"-27.73333300","longitude":"-48.93333300","name":"Therezopolis"},{"id":"292793","latitude":"-27.35000000","longitude":"-48.90000000","name":"Tijipi\u00f3"},{"id":"292803","latitude":"-27.24111100","longitude":"-48.63138900","name":"Tijucas"},{"id":"292814","latitude":"-27.41666700","longitude":"-48.63333300","name":"Tijuquinhas"},{"id":"292815","latitude":"-27.41666700","longitude":"-48.63333300","name":"Tijuquinha"},{"id":"292828","latitude":"-28.81666700","longitude":"-49.85000000","name":"Timb\u00e9"},{"id":"292839","latitude":"-26.83333300","longitude":"-49.30000000","name":"Timb\u00f3"},{"id":"293002","latitude":"-26.16666700","longitude":"-48.75000000","name":"Tornos do Pinto"},{"id":"293155","latitude":"-26.10000000","longitude":"-50.31666700","name":"Tr\u00eas Barras"},{"id":"293182","latitude":"-27.13333300","longitude":"-51.98333300","name":"Tr\u00eas de Outubro"},{"id":"293236","latitude":"-28.51666700","longitude":"-49.46666700","name":"Treviso"},{"id":"293240","latitude":"-28.58333300","longitude":"-49.16666700","name":"Treze de Maio"},{"id":"293241","latitude":"-27.00000000","longitude":"-51.40000000","name":"Treze T\u00edlias"},{"id":"293317","latitude":"-27.45000000","longitude":"-49.85000000","name":"Trombudo Alto"},{"id":"293318","latitude":"-27.30000000","longitude":"-49.78333300","name":"Trombudo Central"},{"id":"293320","latitude":"-27.25000000","longitude":"-49.70000000","name":"Trombudo"},{"id":"293337","latitude":"-28.50000000","longitude":"-49.01666700","name":"Tubar\u00e3o"},{"id":"293441","latitude":"-27.50000000","longitude":"-51.46666700","name":"Tupitinga"},{"id":"293473","latitude":"-28.93333300","longitude":"-49.68333300","name":"Turvo"},{"id":"293519","latitude":"-26.20000000","longitude":"-48.51666700","name":"Ubatuba"},{"id":"293603","latitude":"-27.50000000","longitude":"-51.46666700","name":"Umbu"},{"id":"293653","latitude":"-26.25000000","longitude":"-51.08333300","name":"Uni\u00e3o"},{"id":"293690","latitude":"-28.03333300","longitude":"-49.61666700","name":"Urubici"},{"id":"293691","latitude":"-28.03333300","longitude":"-49.61666700","name":"Urubicy"},{"id":"293692","latitude":"-28.03333300","longitude":"-49.61666700","name":"Urubioly"},{"id":"293694","latitude":"-28.03333300","longitude":"-49.61666700","name":"Urubuci"},{"id":"293705","latitude":"-28.80000000","longitude":"-49.20000000","name":"Uru\u00e7anga da Praia"},{"id":"293706","latitude":"-28.80000000","longitude":"-49.20000000","name":"Uru\u00e7anga de Praia"},{"id":"293708","latitude":"-28.51666700","longitude":"-49.31666700","name":"Uru\u00e7anga"},{"id":"293734","latitude":"-27.45000000","longitude":"-51.86666700","name":"Uruguai"},{"id":"293745","latitude":"-27.95000000","longitude":"-49.86666700","name":"Urupema"},{"id":"293753","latitude":"-28.80000000","longitude":"-49.20000000","name":"Urussanga da Praia"},{"id":"293755","latitude":"-28.51666700","longitude":"-49.31666700","name":"Urussanga"},{"id":"293763","latitude":"-26.95000000","longitude":"-49.85000000","name":"Uru"},{"id":"293868","latitude":"-26.20000000","longitude":"-50.80000000","name":"Vall\u00f5es"},{"id":"293869","latitude":"-26.20000000","longitude":"-50.80000000","name":"Val\u00f5es"},{"id":"293895","latitude":"-27.51666700","longitude":"-49.30000000","name":"Vargedo"},{"id":"293918","latitude":"-28.11666700","longitude":"-48.91666700","name":"Vargem do Cedro"},{"id":"293919","latitude":"-28.11666700","longitude":"-48.91666700","name":"Vargem do Cerro"},{"id":"294364","latitude":"-27.38333300","longitude":"-49.36666700","name":"Vidal Ramos"},{"id":"294367","latitude":"-27.00000000","longitude":"-51.13333300","name":"Videira"},{"id":"294400","latitude":"-28.08333300","longitude":"-50.53333300","name":"Vigia"},{"id":"294523","latitude":"-26.78333300","longitude":"-53.01666700","name":"Vila Mod\u00ealo"},{"id":"294538","latitude":"-26.35000000","longitude":"-50.86666700","name":"Vila Nova Timb\u00f3"},{"id":"294552","latitude":"-26.35000000","longitude":"-50.86666700","name":"Vila Nova"},{"id":"294555","latitude":"-26.35000000","longitude":"-50.86666700","name":"Vila Novo do Timbo"},{"id":"294631","latitude":"-26.11805600","longitude":"-49.80166700","name":"Villa de Mafra"},{"id":"294645","latitude":"-26.35000000","longitude":"-50.86666700","name":"Villa Nova do Timbo"},{"id":"294649","latitude":"-26.35000000","longitude":"-50.86666700","name":"Villa Nova"},{"id":"294748","latitude":"-27.38333300","longitude":"-49.36666700","name":"Vital-Ramos"},{"id":"294820","latitude":"-27.45000000","longitude":"-51.88333300","name":"Volta Grande"},{"id":"294837","latitude":"-26.93333300","longitude":"-53.51666700","name":"Vor\u00e1"},{"id":"294848","latitude":"-26.53333300","longitude":"-49.83333300","name":"Wagner"},{"id":"294850","latitude":"-26.96666700","longitude":"-49.28333300","name":"Warnow"},{"id":"294856","latitude":"-26.93333300","longitude":"-49.80000000","name":"Witmarsum"},{"id":"294857","latitude":"-26.93333300","longitude":"-49.80000000","name":"Witmarsun"},{"id":"294862","latitude":"-26.88333300","longitude":"-52.38333300","name":"Xaner\u00e9"},{"id":"294863","latitude":"-26.88333300","longitude":"-52.38333300","name":"Xanxer\u00ea"},{"id":"294864","latitude":"-27.10000000","longitude":"-52.60000000","name":"Xapec\u00f3"},{"id":"294879","latitude":"-27.08333300","longitude":"-52.33333300","name":"Xavantina"},{"id":"294887","latitude":"-26.93333300","longitude":"-52.51666700","name":"Xaxim"},{"id":"294943","latitude":"-27.06666700","longitude":"-52.75000000","name":"Zandavali"},{"id":"294965","latitude":"-27.17972200","longitude":"-48.53388900","name":"Zimbros"}]