[{"id":"382291","latitude":"26.80000000","longitude":"101.23333330","name":"Abili"},{"id":"382315","latitude":"22.88333330","longitude":"103.30000000","name":"Adebo"},{"id":"382339","latitude":"25.10000000","longitude":"104.10000000","name":"Agang"},{"id":"382380","latitude":"24.41666670","longitude":"100.10000000","name":"Aihua"},{"id":"382413","latitude":"24.50000000","longitude":"101.56666670","name":"Ainishan"},{"id":"382420","latitude":"28.16666670","longitude":"104.16666670","name":"Aitian"},{"id":"382447","latitude":"23.82750000","longitude":"104.50388890","name":"Ajijie"},{"id":"382459","latitude":"24.23333330","longitude":"105.08333330","name":"Ake"},{"id":"382578","latitude":"23.76222220","longitude":"104.57972220","name":"Ameng"},{"id":"382583","latitude":"23.71111110","longitude":"103.24611110","name":"Ami"},{"id":"382584","latitude":"23.71111110","longitude":"103.24611110","name":"Amichow"},{"id":"382585","latitude":"23.71111110","longitude":"103.24611110","name":"Amihsien"},{"id":"382710","latitude":"24.30000000","longitude":"98.90000000","name":"Anding"},{"id":"382738","latitude":"28.63333330","longitude":"104.38333330","name":"Anfu"},{"id":"382924","latitude":"25.30083330","longitude":"101.70805560","name":"Anle"},{"id":"382958","latitude":"24.43333330","longitude":"101.90000000","name":"Anlongpu"},{"id":"382997","latitude":"24.90583330","longitude":"102.49166670","name":"Anning"},{"id":"383001","latitude":"24.90583330","longitude":"102.49166670","name":"Anningchow"},{"id":"383010","latitude":"22.90000000","longitude":"103.75527780","name":"Anomi"},{"id":"383011","latitude":"23.85000000","longitude":"100.98333330","name":"Anpanchen"},{"id":"383012","latitude":"23.85000000","longitude":"100.98333330","name":"Anpanching"},{"id":"383036","latitude":"23.03333330","longitude":"104.40000000","name":"Anping"},{"id":"383487","latitude":"22.88333330","longitude":"103.30000000","name":"Atepo"},{"id":"383488","latitude":"22.88333330","longitude":"103.30000000","name":"Atepu"},{"id":"383493","latitude":"28.50000000","longitude":"98.86666670","name":"Atun"},{"id":"383495","latitude":"28.50000000","longitude":"98.86666670","name":"Atung"},{"id":"383496","latitude":"28.50000000","longitude":"98.86666670","name":"Atunhsien"},{"id":"383497","latitude":"28.50000000","longitude":"98.86666670","name":"Atuntse"},{"id":"383498","latitude":"28.50000000","longitude":"98.86666670","name":"Atuntze"},{"id":"383499","latitude":"28.50000000","longitude":"98.86666670","name":"Atuntzu"},{"id":"383506","latitude":"25.90000000","longitude":"103.20000000","name":"Awang"},{"id":"383522","latitude":"23.96944440","longitude":"105.59500000","name":"Ayong"},{"id":"383525","latitude":"23.96944440","longitude":"105.59500000","name":"Ayung"},{"id":"383531","latitude":"23.22277780","longitude":"102.44027780","name":"Azhahe"},{"id":"383535","latitude":"25.34166670","longitude":"102.77861110","name":"Aziying"},{"id":"383537","latitude":"24.80000000","longitude":"104.30000000","name":"Azong"},{"id":"383557","latitude":"23.75000000","longitude":"105.43333330","name":"Babao"},{"id":"383570","latitude":"23.85194440","longitude":"105.81000000","name":"Bacai"},{"id":"383633","latitude":"27.93333330","longitude":"98.93333330","name":"Badi"},{"id":"383663","latitude":"27.50000000","longitude":"100.80000000","name":"Baerqiao"},{"id":"383878","latitude":"26.80000000","longitude":"100.00000000","name":"Baihanchang"},{"id":"383908","latitude":"22.97111110","longitude":"103.79638890","name":"Baiheqiao"},{"id":"384000","latitude":"27.35000000","longitude":"99.10000000","name":"Baijifan"},{"id":"384009","latitude":"27.33333330","longitude":"99.10000000","name":"Baijixun"},{"id":"384159","latitude":"25.98027780","longitude":"102.07833330","name":"Baimakou"},{"id":"384222","latitude":"23.81277780","longitude":"106.10416670","name":"Baimin"},{"id":"384397","latitude":"26.16666670","longitude":"99.40000000","name":"Baishi"},{"id":"384432","latitude":"25.78333330","longitude":"103.50000000","name":"Baishiyan"},{"id":"384444","latitude":"24.83333330","longitude":"102.23333330","name":"Baishu"},{"id":"384537","latitude":"23.58333330","longitude":"101.58333330","name":"Baitu"},{"id":"384566","latitude":"26.50000000","longitude":"103.16666670","name":"Baiwujie"},{"id":"384616","latitude":"24.06666670","longitude":"105.98333330","name":"Baiyang"},{"id":"384628","latitude":"25.05000000","longitude":"103.16666670","name":"Baiyangjie"},{"id":"384711","latitude":"23.79416670","longitude":"102.96222220","name":"Baiyun"},{"id":"384735","latitude":"23.03333330","longitude":"103.76666670","name":"Baizhai"},{"id":"384785","latitude":"23.40000000","longitude":"104.43333330","name":"Bajia"},{"id":"384831","latitude":"24.66916670","longitude":"102.36083330","name":"Bajie"},{"id":"384857","latitude":"23.66472220","longitude":"105.49861110","name":"Bale"},{"id":"384923","latitude":"23.82472220","longitude":"105.28194440","name":"Balong"},{"id":"384945","latitude":"28.83333330","longitude":"98.66666670","name":"Bam\u00ea"},{"id":"384969","latitude":"23.91722220","longitude":"105.48138890","name":"Banbang"},{"id":"384985","latitude":"23.55833330","longitude":"105.70388890","name":"Bancang"},{"id":"385028","latitude":"23.93333330","longitude":"100.36666670","name":"Bangdongjie"},{"id":"385029","latitude":"23.60000000","longitude":"104.65000000","name":"Bange"},{"id":"385036","latitude":"23.38027780","longitude":"104.57777780","name":"Banggu"},{"id":"385066","latitude":"23.30000000","longitude":"99.10000000","name":"Banhong"},{"id":"385072","latitude":"22.15000000","longitude":"99.23333330","name":"Banjia"},{"id":"385090","latitude":"24.03333330","longitude":"99.53333330","name":"Banka"},{"id":"385105","latitude":"28.50000000","longitude":"103.98333330","name":"Banli"},{"id":"385145","latitude":"22.66666670","longitude":"102.18333330","name":"Banpo"},{"id":"385169","latitude":"25.61888890","longitude":"102.97250000","name":"Banqiao"},{"id":"385308","latitude":"24.56666670","longitude":"100.53333330","name":"Baodian"},{"id":"385359","latitude":"26.98333330","longitude":"103.33333330","name":"Baogunao"},{"id":"385366","latitude":"27.21666670","longitude":"99.26666670","name":"Baohe"},{"id":"385451","latitude":"25.04888890","longitude":"101.68972220","name":"Baomanjie"},{"id":"385460","latitude":"23.76666670","longitude":"100.95000000","name":"Baomujing"},{"id":"385494","latitude":"25.11666670","longitude":"99.15000000","name":"Baoshan"},{"id":"385556","latitude":"23.76111110","longitude":"102.39750000","name":"Baoxiu"},{"id":"385581","latitude":"23.98138890","longitude":"105.18750000","name":"Baoyuequan"},{"id":"385651","latitude":"22.57500000","longitude":"103.87388890","name":"Basa"},{"id":"385714","latitude":"24.95000000","longitude":"98.76666670","name":"Bawan"},{"id":"385746","latitude":"23.64972220","longitude":"102.63750000","name":"Baxin"},{"id":"385852","latitude":"23.00000000","longitude":"104.06666670","name":"Bazhai"},{"id":"385941","latitude":"24.42722220","longitude":"102.54833330","name":"Beicheng"},{"id":"385999","latitude":"25.55000000","longitude":"99.70000000","name":"Beidou"},{"id":"386454","latitude":"25.76666670","longitude":"101.40000000","name":"Beixinjie"},{"id":"386470","latitude":"26.15000000","longitude":"100.18333330","name":"Beiya"},{"id":"386514","latitude":"27.43333330","longitude":"103.76666670","name":"Beizha"},{"id":"386616","latitude":"28.26333330","longitude":"99.28222220","name":"Benzilan"},{"id":"386690","latitude":"25.30611110","longitude":"102.29388890","name":"Bicheng"},{"id":"386692","latitude":"25.30611110","longitude":"102.29388890","name":"Bicheng Zhen"},{"id":"386715","latitude":"26.55000000","longitude":"98.93333330","name":"Bijiang"},{"id":"386725","latitude":"24.98583330","longitude":"102.62250000","name":"Biji"},{"id":"386727","latitude":"24.98583330","longitude":"102.62250000","name":"Bijiguan"},{"id":"386742","latitude":"25.85000000","longitude":"100.56666670","name":"Binchuan"},{"id":"386754","latitude":"25.65000000","longitude":"98.83333330","name":"Binggong"},{"id":"386759","latitude":"23.62555560","longitude":"104.08388890","name":"Binglie"},{"id":"386760","latitude":"25.01666670","longitude":"99.36666670","name":"Bingmajie"},{"id":"386762","latitude":"25.97861110","longitude":"102.03083330","name":"Bingnong"},{"id":"386769","latitude":"27.96666670","longitude":"98.51666670","name":"Bingzhongluo"},{"id":"386780","latitude":"25.66666670","longitude":"100.56666670","name":"Binju"},{"id":"386804","latitude":"23.45944440","longitude":"103.41694440","name":"Bisezhai"},{"id":"386836","latitude":"23.50000000","longitude":"101.68333330","name":"Bixi"},{"id":"386856","latitude":"23.93111110","longitude":"106.07000000","name":"Boai"},{"id":"386871","latitude":"23.18333330","longitude":"103.75000000","name":"Boduqing"},{"id":"386897","latitude":"25.84333330","longitude":"101.34027780","name":"Boji"},{"id":"386969","latitude":"23.70000000","longitude":"100.01666670","name":"Boshang"},{"id":"387062","latitude":"26.36666670","longitude":"103.03333330","name":"Buka"},{"id":"387079","latitude":"21.61666670","longitude":"100.40000000","name":"Bulangshan"},{"id":"387413","latitude":"25.66194440","longitude":"101.28333330","name":"Cangjie"},{"id":"387462","latitude":"23.15000000","longitude":"99.25000000","name":"Cangyuan"},{"id":"387483","latitude":"23.51472220","longitude":"103.41083330","name":"Caoba"},{"id":"387597","latitude":"25.63333330","longitude":"99.11666670","name":"Caojian"},{"id":"387873","latitude":"25.65888890","longitude":"102.29055560","name":"Chadian"},{"id":"387938","latitude":"25.26388890","longitude":"101.21972220","name":"Chahe"},{"id":"387949","latitude":"22.89583330","longitude":"103.98722220","name":"Chaho"},{"id":"387957","latitude":"27.80000000","longitude":"105.08333330","name":"Chahsi"},{"id":"387958","latitude":"27.80000000","longitude":"105.08333330","name":"Chahsichen"},{"id":"388127","latitude":"23.86166670","longitude":"103.04027780","name":"Chake"},{"id":"388134","latitude":"23.86166670","longitude":"103.04027780","name":"Chakochieh"},{"id":"388170","latitude":"28.90000000","longitude":"98.78333330","name":"Chali"},{"id":"388527","latitude":"24.93333330","longitude":"100.36666670","name":"Changchongjie"},{"id":"388638","latitude":"24.20000000","longitude":"97.80000000","name":"Changfeng"},{"id":"388640","latitude":"24.20000000","longitude":"97.80000000","name":"ChangFengCheh"},{"id":"388643","latitude":"24.20000000","longitude":"97.80000000","name":"Changfengchieh"},{"id":"388645","latitude":"24.20000000","longitude":"97.80000000","name":"Changfengkai"},{"id":"388864","latitude":"25.25000000","longitude":"99.58333330","name":"Changjie"},{"id":"389029","latitude":"23.72000000","longitude":"104.23694440","name":"Changling"},{"id":"389035","latitude":"23.72000000","longitude":"104.23694440","name":"Changlingchieh"},{"id":"389042","latitude":"23.72000000","longitude":"104.23694440","name":"Changlingjie"},{"id":"389044","latitude":"23.72000000","longitude":"104.23694440","name":"Changlingkang"},{"id":"389089","latitude":"23.85027780","longitude":"106.03722220","name":"Changlong"},{"id":"389107","latitude":"23.85027780","longitude":"106.03722220","name":"Changlung"},{"id":"389160","latitude":"24.83333330","longitude":"99.60000000","name":"Changning"},{"id":"389458","latitude":"26.48333330","longitude":"104.20000000","name":"Changtang"},{"id":"389630","latitude":"26.06666670","longitude":"99.40000000","name":"Changxin"},{"id":"389759","latitude":"26.86666670","longitude":"100.96666670","name":"Chanho"},{"id":"389770","latitude":"25.60000000","longitude":"103.81666670","name":"Chani"},{"id":"389771","latitude":"25.60000000","longitude":"103.81666670","name":"Chanichen"},{"id":"389772","latitude":"25.60000000","longitude":"103.81666670","name":"Chanihsien"},{"id":"389811","latitude":"25.60000000","longitude":"103.81666670","name":"Chanyi"},{"id":"389812","latitude":"25.60000000","longitude":"103.81666670","name":"Chanyichow"},{"id":"389813","latitude":"25.60000000","longitude":"103.81666670","name":"Chanyihsien"},{"id":"389845","latitude":"26.95000000","longitude":"103.05000000","name":"Chaochia"},{"id":"389912","latitude":"25.58333330","longitude":"100.30000000","name":"Chaochou"},{"id":"389921","latitude":"25.58333330","longitude":"100.30000000","name":"Chaochow"},{"id":"390013","latitude":"24.71666670","longitude":"97.93333330","name":"Chaokou"},{"id":"390016","latitude":"24.83333330","longitude":"103.68333330","name":"Chaokua"},{"id":"390123","latitude":"27.31666670","longitude":"103.71666670","name":"Chaotung"},{"id":"390127","latitude":"27.31666670","longitude":"103.71666670","name":"Chaotunghsien"},{"id":"390364","latitude":"23.98138890","longitude":"102.31444440","name":"Chawu"},{"id":"390423","latitude":"22.58250000","longitude":"103.97138890","name":"Chechan"},{"id":"390437","latitude":"26.23333330","longitude":"103.40000000","name":"Chechichieh"},{"id":"390459","latitude":"24.26666670","longitude":"98.28333330","name":"Chefang"},{"id":"390471","latitude":"26.55000000","longitude":"103.60000000","name":"Chehai"},{"id":"390479","latitude":"25.19444440","longitude":"101.27333330","name":"Chehnam"},{"id":"390521","latitude":"21.98333330","longitude":"100.81666670","name":"Cheli"},{"id":"390522","latitude":"21.98333330","longitude":"100.81666670","name":"Chelihsien"},{"id":"390555","latitude":"24.58333330","longitude":"98.85000000","name":"Chenan"},{"id":"390557","latitude":"24.58333330","longitude":"98.85000000","name":"Chenanchieh"},{"id":"390560","latitude":"24.58333330","longitude":"98.85000000","name":"Chenanso"},{"id":"390832","latitude":"24.66944440","longitude":"102.91722220","name":"Chengchiang"},{"id":"390835","latitude":"24.66944440","longitude":"102.91722220","name":"Chengchianghsien"},{"id":"390900","latitude":"25.75000000","longitude":"103.83333330","name":"Chengfangqiao"},{"id":"390916","latitude":"24.89333330","longitude":"102.79666670","name":"Chenggong"},{"id":"390978","latitude":"26.15000000","longitude":"98.83333330","name":"Chengjia"},{"id":"390999","latitude":"24.66944440","longitude":"102.91722220","name":"Chengjiang"},{"id":"391005","latitude":"24.19444440","longitude":"102.92805560","name":"Chengjiao"},{"id":"391006","latitude":"23.36277780","longitude":"104.54750000","name":"Chengjiapo"},{"id":"391034","latitude":"24.66944440","longitude":"102.91722220","name":"Chengkiang"},{"id":"391035","latitude":"24.66944440","longitude":"102.91722220","name":"Chengkianghsien"},{"id":"391057","latitude":"24.89333330","longitude":"102.79666670","name":"Chengkung"},{"id":"391058","latitude":"24.89333330","longitude":"102.79666670","name":"Chengkunghsien"},{"id":"391082","latitude":"24.73333330","longitude":"98.08333330","name":"Chenglungchieh"},{"id":"391199","latitude":"22.36666670","longitude":"101.51666670","name":"Chengtung"},{"id":"391218","latitude":"23.59055560","longitude":"102.84666670","name":"Chenguan"},{"id":"391298","latitude":"24.35000000","longitude":"97.93333330","name":"Chengzi"},{"id":"391337","latitude":"27.45000000","longitude":"104.83333330","name":"Chenhsiung"},{"id":"391338","latitude":"27.45000000","longitude":"104.83333330","name":"Chenhsiunghsien"},{"id":"391340","latitude":"27.45000000","longitude":"104.83333330","name":"Chenhsuing"},{"id":"391347","latitude":"23.86333330","longitude":"106.02805560","name":"Chening"},{"id":"391479","latitude":"23.90000000","longitude":"99.03333330","name":"Chenkang"},{"id":"391480","latitude":"24.11666670","longitude":"99.38333330","name":"Chenkanghsien"},{"id":"391562","latitude":"25.19444440","longitude":"101.27333330","name":"Chennan"},{"id":"391563","latitude":"25.19444440","longitude":"101.27333330","name":"Chennanchou"},{"id":"391565","latitude":"25.19444440","longitude":"101.27333330","name":"Chennanhsien"},{"id":"391586","latitude":"22.53333330","longitude":"99.93333330","name":"Chenpien"},{"id":"391590","latitude":"22.53333330","longitude":"99.93333330","name":"Chenpienting"},{"id":"391642","latitude":"27.45000000","longitude":"104.83333330","name":"Chensiung"},{"id":"391643","latitude":"27.45000000","longitude":"104.83333330","name":"Chensiungchow"},{"id":"391644","latitude":"27.45000000","longitude":"104.83333330","name":"Chensiunghsien"},{"id":"391773","latitude":"23.85000000","longitude":"100.98333330","name":"Cheny\u00fcan"},{"id":"391779","latitude":"21.98333330","longitude":"101.46666670","name":"Cheny\u00fceh"},{"id":"391780","latitude":"21.98333330","longitude":"101.46666670","name":"Cheny\u00fcehhsien"},{"id":"391824","latitude":"23.72944440","longitude":"105.94111110","name":"Chesang"},{"id":"391829","latitude":"24.28333330","longitude":"104.63333330","name":"Chetai"},{"id":"391835","latitude":"24.76666670","longitude":"98.33333330","name":"Chetaochen"},{"id":"391837","latitude":"24.76666670","longitude":"98.33333330","name":"Chetao"},{"id":"392042","latitude":"22.60000000","longitude":"101.83333330","name":"Chiangcheng"},{"id":"392043","latitude":"22.60000000","longitude":"101.83333330","name":"Chiangchenghanitsuitsutzuchihhsien"},{"id":"392044","latitude":"22.60000000","longitude":"101.83333330","name":"Chiangchenghsien"},{"id":"392101","latitude":"24.28944440","longitude":"102.75305560","name":"Chiangchuan"},{"id":"392104","latitude":"24.42416670","longitude":"102.80500000","name":"Chiangchuanhsien"},{"id":"392131","latitude":"22.78333330","longitude":"101.95000000","name":"Chianghsichai"},{"id":"392132","latitude":"22.78333330","longitude":"101.95000000","name":"Chianghsi"},{"id":"392143","latitude":"21.98333330","longitude":"100.81666670","name":"Chianghung"},{"id":"392147","latitude":"26.08333330","longitude":"101.91666670","name":"Chiangi"},{"id":"392187","latitude":"24.90000000","longitude":"100.33333330","name":"Chianglang"},{"id":"392205","latitude":"23.61027780","longitude":"104.33527780","name":"Chiangnachen"},{"id":"392206","latitude":"23.61027780","longitude":"104.33527780","name":"Chiangna"},{"id":"392254","latitude":"26.10000000","longitude":"99.76666670","name":"Chiangteng"},{"id":"392255","latitude":"27.00000000","longitude":"103.58333330","name":"Chiangti"},{"id":"392331","latitude":"26.20000000","longitude":"102.36666670","name":"Chiaochetu"},{"id":"392334","latitude":"26.95000000","longitude":"103.05000000","name":"Chiaochia"},{"id":"392335","latitude":"26.95000000","longitude":"103.05000000","name":"Chiaochiahsien"},{"id":"392354","latitude":"27.00861110","longitude":"102.91611110","name":"Chiaochiaying"},{"id":"392389","latitude":"26.10000000","longitude":"99.76666670","name":"Chiaohou"},{"id":"392390","latitude":"26.10000000","longitude":"99.76666670","name":"Chiaohouching"},{"id":"392450","latitude":"27.08805560","longitude":"103.04111110","name":"Chiaomaiti"},{"id":"392524","latitude":"22.84111110","longitude":"103.91944440","name":"Chiaotou"},{"id":"392527","latitude":"25.46666670","longitude":"98.65000000","name":"Chiaotouchieh"},{"id":"392587","latitude":"24.06666670","longitude":"101.58333330","name":"Chiasa"},{"id":"392603","latitude":"26.61666670","longitude":"98.90000000","name":"Chiata"},{"id":"392751","latitude":"23.51416670","longitude":"103.23194440","name":"Chichieh"},{"id":"393053","latitude":"25.51166670","longitude":"101.23638890","name":"Chienchuanchen"},{"id":"393055","latitude":"26.46666670","longitude":"99.86666670","name":"Chienchuan"},{"id":"393059","latitude":"26.46666670","longitude":"99.86666670","name":"Chienchuanhsien"},{"id":"393158","latitude":"22.90000000","longitude":"100.20000000","name":"Chienliu"},{"id":"393243","latitude":"23.61638890","longitude":"102.82694440","name":"Chienshui"},{"id":"393244","latitude":"23.61638890","longitude":"102.82694440","name":"Chienshuihsien"},{"id":"393247","latitude":"25.40000000","longitude":"100.68333330","name":"Chiensochieh"},{"id":"393250","latitude":"25.40000000","longitude":"100.68333330","name":"Chienso"},{"id":"393607","latitude":"23.32055560","longitude":"103.54694440","name":"Chihtsun"},{"id":"393614","latitude":"26.55000000","longitude":"98.93333330","name":"Chihtzelo"},{"id":"393615","latitude":"26.55000000","longitude":"98.93333330","name":"Chihtzulo"},{"id":"393800","latitude":"24.11055560","longitude":"102.75888890","name":"Chilu"},{"id":"393814","latitude":"22.76666670","longitude":"102.20000000","name":"Chimapa"},{"id":"393880","latitude":"24.70222220","longitude":"102.74416670","name":"Chincheng"},{"id":"393908","latitude":"26.23333330","longitude":"100.56666670","name":"Chinchiangchieh"},{"id":"393911","latitude":"26.23333330","longitude":"100.56666670","name":"Chinchiang"},{"id":"393980","latitude":"22.78111110","longitude":"103.79777780","name":"Chinchuchai"},{"id":"394213","latitude":"25.45000000","longitude":"100.60000000","name":"Chinghuatung"},{"id":"394218","latitude":"21.98333330","longitude":"100.81666670","name":"Chinghung"},{"id":"394263","latitude":"23.46666670","longitude":"100.70000000","name":"Chingkuchieh"},{"id":"394265","latitude":"23.46666670","longitude":"100.70000000","name":"Chingku"},{"id":"394266","latitude":"28.18333330","longitude":"103.58333330","name":"Chingkuei"},{"id":"394267","latitude":"23.46666670","longitude":"100.70000000","name":"Chingkuhsien"},{"id":"394290","latitude":"23.75583330","longitude":"102.03222220","name":"Chinglingchang"},{"id":"394303","latitude":"23.75583330","longitude":"102.03222220","name":"Chinglungchang"},{"id":"394311","latitude":"23.75583330","longitude":"102.03222220","name":"Chinglungchi"},{"id":"394316","latitude":"23.75583330","longitude":"102.03222220","name":"Chinglung"},{"id":"394361","latitude":"22.90000000","longitude":"103.66666670","name":"Chingpien"},{"id":"394494","latitude":"21.98333330","longitude":"100.81666670","name":"Chingte"},{"id":"394501","latitude":"28.18333330","longitude":"103.58333330","name":"Chingti"},{"id":"394516","latitude":"28.18333330","longitude":"103.58333330","name":"Chingtipa"},{"id":"394547","latitude":"24.46666670","longitude":"100.90000000","name":"Chingtung"},{"id":"394552","latitude":"24.46666670","longitude":"100.90000000","name":"Chingtunghsien"},{"id":"394565","latitude":"22.96444440","longitude":"103.98722220","name":"Chingya"},{"id":"394647","latitude":"22.76666670","longitude":"103.25000000","name":"Chinho"},{"id":"394727","latitude":"26.75000000","longitude":"100.68333330","name":"Chinkuan"},{"id":"394756","latitude":"27.16666670","longitude":"100.63333330","name":"Chinmientsun"},{"id":"394760","latitude":"24.66805560","longitude":"102.59194440","name":"Chinning"},{"id":"394778","latitude":"25.72611110","longitude":"101.32472220","name":"Chinpichen"},{"id":"394779","latitude":"25.72611110","longitude":"101.32472220","name":"Chinpichieh"},{"id":"394781","latitude":"25.72611110","longitude":"101.32472220","name":"Chinpi"},{"id":"394785","latitude":"22.76666670","longitude":"103.25000000","name":"Chinping"},{"id":"394787","latitude":"22.76666670","longitude":"103.25000000","name":"Chinpinghsien"},{"id":"394798","latitude":"22.76666670","longitude":"103.25000000","name":"Chinsha"},{"id":"394893","latitude":"22.76388890","longitude":"103.97805560","name":"Chintsaitang"},{"id":"394908","latitude":"26.23333330","longitude":"100.56666670","name":"Chintunchieh"},{"id":"395144","latitude":"22.71027780","longitude":"103.91861110","name":"Chitzuy\u00fcan"},{"id":"395161","latitude":"24.73333330","longitude":"98.08333330","name":"Chiuchen"},{"id":"395173","latitude":"25.40000000","longitude":"99.60000000","name":"Chiucheng"},{"id":"395177","latitude":"24.11666670","longitude":"99.38333330","name":"Chiuchenkang"},{"id":"395179","latitude":"23.80000000","longitude":"100.83333330","name":"Chiucheny\u00fcan"},{"id":"395187","latitude":"24.42416670","longitude":"102.80500000","name":"Chiuchiangchuan"},{"id":"395254","latitude":"25.48333330","longitude":"103.78333330","name":"Chiuch\u00fcching"},{"id":"395266","latitude":"22.48333330","longitude":"99.98333330","name":"Chiufang"},{"id":"395355","latitude":"26.61666670","longitude":"101.21666670","name":"Chiuhuaping"},{"id":"395397","latitude":"24.66805560","longitude":"102.59194440","name":"Chiukunyang"},{"id":"395398","latitude":"24.66805560","longitude":"102.59194440","name":"Chiukunyanghsiencheng"},{"id":"395432","latitude":"21.98333330","longitude":"100.81666670","name":"Chiulungchiang"},{"id":"395437","latitude":"24.35000000","longitude":"97.93333330","name":"Chiulungchuan"},{"id":"395483","latitude":"24.05000000","longitude":"104.20000000","name":"Chiupei"},{"id":"395485","latitude":"24.05000000","longitude":"104.20000000","name":"Chiupeihsien"},{"id":"395503","latitude":"22.58333330","longitude":"101.10000000","name":"Chiupuwen"},{"id":"395619","latitude":"24.73333330","longitude":"98.08333330","name":"Chiuyingchiang"},{"id":"395632","latitude":"25.81666670","longitude":"99.35000000","name":"Chiuy\u00fcnlung"},{"id":"395744","latitude":"23.88333330","longitude":"99.40000000","name":"Chonggang"},{"id":"395855","latitude":"25.70000000","longitude":"100.60000000","name":"Chouchengchen"},{"id":"396018","latitude":"23.24250000","longitude":"104.59000000","name":"Chouyangchai"},{"id":"396019","latitude":"23.24250000","longitude":"104.59000000","name":"Chouyangchia"},{"id":"396020","latitude":"23.24250000","longitude":"104.59000000","name":"Chouyangchieh"},{"id":"396021","latitude":"23.24250000","longitude":"104.59000000","name":"Chouyang"},{"id":"396022","latitude":"23.24250000","longitude":"104.59000000","name":"Chouyanghsinchieh"},{"id":"396187","latitude":"24.91666670","longitude":"102.03333330","name":"Chuanjie"},{"id":"396289","latitude":"22.58888890","longitude":"103.95611110","name":"Chuantungshangchai"},{"id":"396427","latitude":"23.96444440","longitude":"102.78250000","name":"Ch\u00fcchi"},{"id":"396432","latitude":"26.05000000","longitude":"101.66666670","name":"Chuchih"},{"id":"396436","latitude":"23.96444440","longitude":"102.78250000","name":"Ch\u00fcchihsien"},{"id":"396441","latitude":"25.48333330","longitude":"103.78333330","name":"Ch\u00fcching"},{"id":"396443","latitude":"25.48333330","longitude":"103.78333330","name":"Ch\u00fcchinghsien"},{"id":"396449","latitude":"26.05000000","longitude":"101.66666670","name":"Chucho"},{"id":"396476","latitude":"26.05000000","longitude":"101.66666670","name":"Ch\u00fcch\u00fceh"},{"id":"396548","latitude":"23.96444440","longitude":"102.78250000","name":"Ch\u00fchsi"},{"id":"396563","latitude":"25.03638890","longitude":"101.54555560","name":"Chuhsiung"},{"id":"396564","latitude":"25.03638890","longitude":"101.54555560","name":"Chuhsiunghsien"},{"id":"396685","latitude":"23.98333330","longitude":"104.65000000","name":"Chulin"},{"id":"396772","latitude":"25.66666670","longitude":"104.23333330","name":"Chunganchen"},{"id":"396783","latitude":"22.60611110","longitude":"103.97555560","name":"Chungchai (1)"},{"id":"396847","latitude":"25.70000000","longitude":"100.18333330","name":"Chunghochen"},{"id":"396853","latitude":"25.10000000","longitude":"98.35000000","name":"Chungho"},{"id":"396857","latitude":"23.71666670","longitude":"103.66666670","name":"Chunghoying"},{"id":"396871","latitude":"26.61666670","longitude":"101.21666670","name":"Chunghsinchen"},{"id":"396891","latitude":"27.20000000","longitude":"99.71666670","name":"Chunghsing"},{"id":"396916","latitude":"24.73333330","longitude":"102.58333330","name":"Chungitsun"},{"id":"396924","latitude":"22.80361110","longitude":"103.93611110","name":"Chungkan"},{"id":"397037","latitude":"24.51666670","longitude":"103.76666670","name":"Chungshuchen"},{"id":"397061","latitude":"27.83333330","longitude":"99.60000000","name":"Chungtien"},{"id":"397062","latitude":"27.83333330","longitude":"99.60000000","name":"Chungtienhsien"},{"id":"397063","latitude":"27.83333330","longitude":"99.60000000","name":"Chungtienting"},{"id":"397119","latitude":"24.73333330","longitude":"102.58333330","name":"Chungyi"},{"id":"397254","latitude":"25.21666670","longitude":"98.60000000","name":"Ch\u00fcshih"},{"id":"397256","latitude":"25.21666670","longitude":"98.60000000","name":"Ch\u00fcshihlien"},{"id":"397293","latitude":"27.30000000","longitude":"99.66666670","name":"Ch\u00fctien"},{"id":"397326","latitude":"25.40000000","longitude":"99.60000000","name":"Ch\u00fctungchieh"},{"id":"397328","latitude":"25.40000000","longitude":"99.60000000","name":"Ch\u00fctung"},{"id":"397357","latitude":"25.03638890","longitude":"101.54555560","name":"Chuxiong"},{"id":"397379","latitude":"24.10777780","longitude":"103.41861110","name":"Ch\u00fcy\u00fcanchen"},{"id":"397380","latitude":"24.10777780","longitude":"103.41861110","name":"Chuy\u00fcanchieh"},{"id":"397381","latitude":"24.10777780","longitude":"103.41861110","name":"Chuy\u00fcan"},{"id":"397485","latitude":"27.68333330","longitude":"98.61666670","name":"Cikai"},{"id":"397519","latitude":"24.51638890","longitude":"102.55444440","name":"Citongguan"},{"id":"397599","latitude":"25.63472220","longitude":"102.58027780","name":"Cuihua"},{"id":"397703","latitude":"23.80138890","longitude":"102.13472220","name":"Cuoke"},{"id":"397766","latitude":"25.16666670","longitude":"98.68333330","name":"Daba"},{"id":"397811","latitude":"25.04666670","longitude":"102.87611110","name":"Dabanqiao"},{"id":"397898","latitude":"25.43333330","longitude":"100.21666670","name":"Dacang"},{"id":"398099","latitude":"27.13333330","longitude":"100.40000000","name":"Dadong"},{"id":"398128","latitude":"22.33333330","longitude":"100.96666670","name":"Dadugang"},{"id":"398139","latitude":"25.68333330","longitude":"98.85000000","name":"Dadunzi"},{"id":"398141","latitude":"24.16666670","longitude":"100.60000000","name":"Daduo"},{"id":"398309","latitude":"27.73333330","longitude":"103.88333330","name":"Daguan"},{"id":"398349","latitude":"24.88333330","longitude":"101.16666670","name":"Daguokou"},{"id":"398402","latitude":"25.58333330","longitude":"104.26666670","name":"Dahe"},{"id":"398426","latitude":"25.45805560","longitude":"101.01388890","name":"Dahekou"},{"id":"398558","latitude":"26.20000000","longitude":"103.40000000","name":"Daibu"},{"id":"398722","latitude":"23.73583330","longitude":"103.94861110","name":"Dajiayi"},{"id":"398738","latitude":"23.46666670","longitude":"100.70000000","name":"Dajie"},{"id":"398762","latitude":"26.46666670","longitude":"103.80000000","name":"Dajing"},{"id":"398790","latitude":"27.30000000","longitude":"100.23333330","name":"Daju"},{"id":"398857","latitude":"27.05000000","longitude":"101.10000000","name":"Dalaba"},{"id":"398961","latitude":"25.70000000","longitude":"100.18333330","name":"Dali"},{"id":"399018","latitude":"23.08333330","longitude":"104.18333330","name":"Dalishu"},{"id":"399019","latitude":"22.66666670","longitude":"99.43333330","name":"Dalisuo"},{"id":"399079","latitude":"25.55111110","longitude":"101.20527780","name":"Dalongkou"},{"id":"399151","latitude":"21.70000000","longitude":"100.05000000","name":"Daluo"},{"id":"399231","latitude":"23.41666670","longitude":"99.70000000","name":"Damenge"},{"id":"399233","latitude":"25.90861110","longitude":"101.64166670","name":"Damenglian"},{"id":"399234","latitude":"21.60000000","longitude":"100.66666670","name":"Damenglong"},{"id":"399364","latitude":"24.85000000","longitude":"103.98333330","name":"Danfeng"},{"id":"399563","latitude":"25.00000000","longitude":"98.88333330","name":"Daojie"},{"id":"399706","latitude":"23.10916670","longitude":"104.59027780","name":"Dapingzhen"},{"id":"399771","latitude":"23.85972220","longitude":"102.35611110","name":"Daqiao"},{"id":"399892","latitude":"27.46666670","longitude":"103.26666670","name":"Dashanbao"},{"id":"399903","latitude":"23.10000000","longitude":"100.00000000","name":"Dashan"},{"id":"399931","latitude":"23.71472220","longitude":"102.11916670","name":"Dashao"},{"id":"400007","latitude":"25.09333330","longitude":"101.45250000","name":"Dashipu"},{"id":"400053","latitude":"27.05000000","longitude":"103.58333330","name":"Dashuijing"},{"id":"400082","latitude":"22.86083330","longitude":"103.88250000","name":"Dashutang"},{"id":"400083","latitude":"22.83388890","longitude":"103.87361110","name":"Dashutangzhan"},{"id":"400105","latitude":"26.03333330","longitude":"104.23333330","name":"Dasongshu"},{"id":"400128","latitude":"23.67500000","longitude":"103.25944440","name":"Data"},{"id":"400231","latitude":"24.80000000","longitude":"104.16666670","name":"Datong"},{"id":"400287","latitude":"23.40166670","longitude":"103.29138890","name":"Datun"},{"id":"400288","latitude":"23.40166670","longitude":"103.29138890","name":"Datunjie"},{"id":"400323","latitude":"27.66666670","longitude":"105.06666670","name":"Dawan"},{"id":"400375","latitude":"25.99222220","longitude":"101.81722220","name":"Dawanzi"},{"id":"400547","latitude":"23.01333330","longitude":"102.33888890","name":"Daxing"},{"id":"400551","latitude":"26.10000000","longitude":"98.90000000","name":"Daxingdi"},{"id":"400565","latitude":"23.01333330","longitude":"102.33888890","name":"Daxing Zhen"},{"id":"400624","latitude":"26.80000000","longitude":"100.26666670","name":"Dayan"},{"id":"400648","latitude":"23.39277780","longitude":"102.19250000","name":"Dayangjie"},{"id":"400715","latitude":"25.22361110","longitude":"102.52388890","name":"Daying"},{"id":"400830","latitude":"24.10000000","longitude":"100.23333330","name":"Dazhai"},{"id":"400915","latitude":"23.60000000","longitude":"103.36666670","name":"Dazhuang"},{"id":"400969","latitude":"24.06666670","longitude":"99.30000000","name":"Dedang"},{"id":"400987","latitude":"23.58500000","longitude":"103.86694440","name":"Dehoujie"},{"id":"400994","latitude":"25.10000000","longitude":"100.66666670","name":"Deju"},{"id":"401025","latitude":"25.98333330","longitude":"100.08333330","name":"Dengchuan"},{"id":"401049","latitude":"23.93333330","longitude":"97.60000000","name":"Dengjia"},{"id":"401241","latitude":"23.88777780","longitude":"102.72138890","name":"Dianlu"},{"id":"401245","latitude":"26.43333330","longitude":"99.91666670","name":"Diannan"},{"id":"401266","latitude":"23.51666670","longitude":"101.86666670","name":"Diansuotang"},{"id":"401268","latitude":"25.48333330","longitude":"98.45000000","name":"Diantanai"},{"id":"401276","latitude":"23.76305560","longitude":"102.71527780","name":"Dianwei"},{"id":"401291","latitude":"24.40500000","longitude":"102.22472220","name":"Dianzhong"},{"id":"401324","latitude":"23.93861110","longitude":"104.56416670","name":"Diaojing"},{"id":"401409","latitude":"23.89527780","longitude":"104.90916670","name":"Diji"},{"id":"401431","latitude":"23.28333330","longitude":"101.96666670","name":"Dima"},{"id":"401601","latitude":"23.93333330","longitude":"97.60000000","name":"Dingqia"},{"id":"401757","latitude":"24.28333330","longitude":"104.86666670","name":"Dixu"},{"id":"401837","latitude":"26.86666670","longitude":"99.95000000","name":"Dongarong"},{"id":"401859","latitude":"23.90666670","longitude":"105.13972220","name":"Dongbao"},{"id":"401891","latitude":"23.73277780","longitude":"105.78138890","name":"Dongbo"},{"id":"401896","latitude":"23.53444440","longitude":"105.05611110","name":"Dongbu"},{"id":"401960","latitude":"25.51166670","longitude":"101.23638890","name":"Dongchuan"},{"id":"402015","latitude":"28.50000000","longitude":"98.86666670","name":"Dong"},{"id":"402042","latitude":"24.75861110","longitude":"103.26527780","name":"Dongfanghong"},{"id":"402062","latitude":"24.91333330","longitude":"103.14750000","name":"Dongfeng"},{"id":"402083","latitude":"23.30694440","longitude":"105.19250000","name":"Donggan"},{"id":"402095","latitude":"22.46666670","longitude":"99.80000000","name":"Donggang"},{"id":"402159","latitude":"25.09111110","longitude":"101.50750000","name":"Dongguazhen"},{"id":"402531","latitude":"23.42750000","longitude":"104.89666670","name":"Dongma"},{"id":"402642","latitude":"25.90472220","longitude":"102.08611110","name":"Dongpo"},{"id":"402708","latitude":"23.92666670","longitude":"102.87250000","name":"Dongshanba"},{"id":"402723","latitude":"26.35000000","longitude":"100.90000000","name":"Dongshan"},{"id":"402776","latitude":"23.28333330","longitude":"104.58333330","name":"Dongsheng"},{"id":"402936","latitude":"28.51666670","longitude":"99.70000000","name":"Dongwang"},{"id":"403293","latitude":"23.60000000","longitude":"100.13333330","name":"Douge"},{"id":"403342","latitude":"23.13388890","longitude":"103.17027780","name":"Doumuge"},{"id":"403343","latitude":"23.13388890","longitude":"103.17027780","name":"Doumugo"},{"id":"403353","latitude":"28.03333330","longitude":"104.08333330","name":"Doushaguan"},{"id":"403385","latitude":"27.70000000","longitude":"98.35000000","name":"Drungjiang"},{"id":"403436","latitude":"24.61611110","longitude":"102.68611110","name":"Duanqi"},{"id":"403498","latitude":"23.38333330","longitude":"101.93333330","name":"Dugui"},{"id":"403635","latitude":"22.88333330","longitude":"104.53333330","name":"Dulong"},{"id":"403750","latitude":"26.30000000","longitude":"100.36666670","name":"Duomei"},{"id":"403921","latitude":"24.43333330","longitude":"101.33333330","name":"Ejia"},{"id":"403950","latitude":"27.31666670","longitude":"103.71666670","name":"Enan"},{"id":"403951","latitude":"27.31666670","longitude":"103.71666670","name":"Enanhsien"},{"id":"403980","latitude":"24.00000000","longitude":"101.11666670","name":"Enle"},{"id":"404260","latitude":"26.11666670","longitude":"99.95000000","name":"Erhyuan"},{"id":"404408","latitude":"26.11666670","longitude":"99.95000000","name":"Eryuan"},{"id":"404417","latitude":"24.17388890","longitude":"102.40194440","name":"Eshan"},{"id":"404440","latitude":"23.97666670","longitude":"104.43611110","name":"Fabai"},{"id":"404441","latitude":"24.56666670","longitude":"101.86666670","name":"Fabiao"},{"id":"404451","latitude":"23.38888890","longitude":"104.78527780","name":"Fadou"},{"id":"404458","latitude":"26.53333330","longitude":"104.13333330","name":"Fahong"},{"id":"404634","latitude":"25.16666670","longitude":"103.66666670","name":"Fanghua"},{"id":"405023","latitude":"24.51083330","longitude":"103.39916670","name":"Fayushao"},{"id":"405088","latitude":"22.99333330","longitude":"103.88500000","name":"Feitechi"},{"id":"405214","latitude":"24.58333330","longitude":"99.90000000","name":"Fengching"},{"id":"405235","latitude":"23.00000000","longitude":"103.13333330","name":"Fengchunling"},{"id":"405347","latitude":"24.52444440","longitude":"103.30500000","name":"Fenghuang"},{"id":"405359","latitude":"24.52444440","longitude":"103.30500000","name":"Fenghuangshan"},{"id":"405395","latitude":"25.58333330","longitude":"100.30000000","name":"Fengi"},{"id":"405397","latitude":"25.58333330","longitude":"100.30000000","name":"Fengihsien"},{"id":"405569","latitude":"24.66944440","longitude":"102.91722220","name":"Fenglu"},{"id":"405582","latitude":"25.58333330","longitude":"100.30000000","name":"Fengmingchen"},{"id":"405624","latitude":"24.58333330","longitude":"99.90000000","name":"Fengqing"},{"id":"405638","latitude":"24.58333330","longitude":"99.90000000","name":"Fengshanchen"},{"id":"405650","latitude":"24.58333330","longitude":"99.90000000","name":"Fengshan"},{"id":"405763","latitude":"25.24250000","longitude":"101.38027780","name":"Fengtun"},{"id":"405771","latitude":"23.90000000","longitude":"99.03333330","name":"Fengweiba"},{"id":"405774","latitude":"23.90000000","longitude":"99.03333330","name":"Fengwei"},{"id":"405776","latitude":"23.90000000","longitude":"99.03333330","name":"Fengweipa"},{"id":"405837","latitude":"25.58333330","longitude":"100.30000000","name":"Fengyi"},{"id":"405840","latitude":"25.58333330","longitude":"100.30000000","name":"Fengyihsien"},{"id":"405871","latitude":"25.98333330","longitude":"99.93333330","name":"Fengyuzhen"},{"id":"406003","latitude":"21.96666670","longitude":"100.46666670","name":"Fohai"},{"id":"406004","latitude":"21.96666670","longitude":"100.46666670","name":"Fohaihsien"},{"id":"406036","latitude":"28.18333330","longitude":"103.70000000","name":"Fotan"},{"id":"406216","latitude":"23.62472220","longitude":"105.62722220","name":"Fuchou"},{"id":"406218","latitude":"23.62472220","longitude":"105.62722220","name":"Fuchouhsien"},{"id":"406225","latitude":"23.62472220","longitude":"105.62722220","name":"Fuchow"},{"id":"406262","latitude":"25.40000000","longitude":"104.23333330","name":"Fucun"},{"id":"406294","latitude":"26.96666670","longitude":"98.90000000","name":"Fugong"},{"id":"406308","latitude":"21.96666670","longitude":"100.46666670","name":"Fuhaihsien"},{"id":"406336","latitude":"22.76666670","longitude":"101.08333330","name":"Fuhsingchen"},{"id":"406444","latitude":"26.96666670","longitude":"98.90000000","name":"Fukung"},{"id":"406463","latitude":"25.35000000","longitude":"104.36666670","name":"Fule"},{"id":"406466","latitude":"24.30555560","longitude":"102.09555560","name":"Fuliangpeng"},{"id":"406551","latitude":"25.21805560","longitude":"102.49972220","name":"Fuminhsien"},{"id":"406575","latitude":"23.62472220","longitude":"105.62722220","name":"Funing"},{"id":"406577","latitude":"23.62472220","longitude":"105.62722220","name":"Funinghsien"},{"id":"406739","latitude":"25.40000000","longitude":"104.23333330","name":"Futsun"},{"id":"406830","latitude":"22.88333330","longitude":"99.80000000","name":"Fuyong"},{"id":"406839","latitude":"25.66666670","longitude":"104.23333330","name":"Fuyuan"},{"id":"406857","latitude":"22.88333330","longitude":"99.80000000","name":"Fuyung"},{"id":"406946","latitude":"26.36666670","longitude":"98.90000000","name":"Ganben"},{"id":"406974","latitude":"25.36666670","longitude":"98.83333330","name":"Ganding"},{"id":"407011","latitude":"26.13333330","longitude":"98.60000000","name":"Gangfang"},{"id":"407063","latitude":"26.50000000","longitude":"103.18333330","name":"Gangou"},{"id":"407165","latitude":"22.48333330","longitude":"100.58333330","name":"Ganlanba"},{"id":"407259","latitude":"24.78333330","longitude":"98.08333330","name":"Ganya"},{"id":"407281","latitude":"23.71666670","longitude":"102.00000000","name":"Ganzhuang"},{"id":"407390","latitude":"23.99166670","longitude":"102.71000000","name":"Gaoda"},{"id":"407436","latitude":"25.32027780","longitude":"101.88138890","name":"Gaofeng"},{"id":"407496","latitude":"25.26666670","longitude":"104.06666670","name":"Gaojiacun"},{"id":"407603","latitude":"24.51666670","longitude":"104.38333330","name":"Gaoliang"},{"id":"407616","latitude":"25.16666670","longitude":"98.80000000","name":"Gaoligonglinchang"},{"id":"407735","latitude":"25.60472220","longitude":"102.19333330","name":"Gaoqiao"},{"id":"407853","latitude":"27.96666670","longitude":"105.18333330","name":"Gaotian"},{"id":"408094","latitude":"23.23888890","longitude":"103.63944440","name":"Gegu"},{"id":"408118","latitude":"23.36555560","longitude":"103.15583330","name":"Gejiu"},{"id":"408124","latitude":"23.10083330","longitude":"102.39583330","name":"Gekui"},{"id":"408125","latitude":"23.66444440","longitude":"105.32611110","name":"Gelaba"},{"id":"408190","latitude":"23.51666670","longitude":"99.40000000","name":"Gengma"},{"id":"408287","latitude":"25.98333330","longitude":"104.06666670","name":"Geyitou"},{"id":"408403","latitude":"25.60000000","longitude":"99.33333330","name":"Gongguoqiao"},{"id":"408411","latitude":"25.31611110","longitude":"101.53722220","name":"Gonghe"},{"id":"408453","latitude":"24.90000000","longitude":"100.33333330","name":"Gonglang"},{"id":"408509","latitude":"25.80000000","longitude":"103.21666670","name":"Gongshan"},{"id":"408603","latitude":"23.49500000","longitude":"102.84027780","name":"Goujie"},{"id":"408787","latitude":"25.00611110","longitude":"102.76277780","name":"Guandu"},{"id":"408882","latitude":"25.64944440","longitude":"101.22750000","name":"Guanglu"},{"id":"408896","latitude":"24.05000000","longitude":"105.05000000","name":"Guangnan"},{"id":"408935","latitude":"25.16861110","longitude":"101.74861110","name":"Guangtong"},{"id":"408995","latitude":"23.37500000","longitude":"103.30861110","name":"Guanjiashan"},{"id":"409173","latitude":"23.39472220","longitude":"102.72416670","name":"Guanting"},{"id":"409187","latitude":"25.52500000","longitude":"101.17611110","name":"Guantun"},{"id":"409288","latitude":"24.30000000","longitude":"104.03333330","name":"Guanzhai"},{"id":"409392","latitude":"23.71666670","longitude":"101.15000000","name":"Gucheng"},{"id":"409439","latitude":"25.40000000","longitude":"98.48333330","name":"Gudong"},{"id":"409487","latitude":"23.64861110","longitude":"105.85666670","name":"Guichao"},{"id":"409575","latitude":"23.16750000","longitude":"102.10722220","name":"Guipu"},{"id":"409585","latitude":"24.10000000","longitude":"101.96666670","name":"Guishan"},{"id":"409605","latitude":"28.30000000","longitude":"103.90000000","name":"Guixi"},{"id":"409687","latitude":"23.59000000","longitude":"106.01972220","name":"Gula"},{"id":"409691","latitude":"26.08333330","longitude":"98.60000000","name":"Gulang"},{"id":"409719","latitude":"22.80694440","longitude":"103.96472220","name":"Gulinqing"},{"id":"409767","latitude":"23.26444440","longitude":"104.26000000","name":"Gumu"},{"id":"410225","latitude":"25.31666670","longitude":"98.30000000","name":"Guyong"},{"id":"410410","latitude":"26.06666670","longitude":"104.33333330","name":"Haidai"},{"id":"410455","latitude":"24.80694440","longitude":"102.58500000","name":"Haikou"},{"id":"410589","latitude":"24.43333330","longitude":"101.56666670","name":"Haitzuti"},{"id":"410619","latitude":"26.56666670","longitude":"100.75000000","name":"Haiyaopu"},{"id":"410629","latitude":"24.66666670","longitude":"103.56666670","name":"Haiyi"},{"id":"410648","latitude":"24.43333330","longitude":"101.56666670","name":"Haizidi"},{"id":"410798","latitude":"22.93750000","longitude":"103.93611110","name":"Hanchipo"},{"id":"411176","latitude":"26.56666670","longitude":"100.20000000","name":"Haoching"},{"id":"411177","latitude":"26.56666670","longitude":"100.20000000","name":"Haochinghsien"},{"id":"411501","latitude":"25.56666670","longitude":"100.75000000","name":"Hedian"},{"id":"411605","latitude":"23.63722220","longitude":"105.18222220","name":"Heichihkuo"},{"id":"411606","latitude":"25.36083330","longitude":"101.74444440","name":"Heiching"},{"id":"411649","latitude":"25.36083330","longitude":"101.74444440","name":"Heijing"},{"id":"411664","latitude":"25.06500000","longitude":"102.65333330","name":"Heilinpu"},{"id":"411699","latitude":"25.35000000","longitude":"98.10000000","name":"Heinitang"},{"id":"411812","latitude":"23.63722220","longitude":"105.18222220","name":"Heizhiguo"},{"id":"411932","latitude":"22.51222220","longitude":"103.95750000","name":"Hekou"},{"id":"411998","latitude":"26.40000000","longitude":"101.25000000","name":"Hemenkou"},{"id":"412503","latitude":"26.56666670","longitude":"100.20000000","name":"Heqing"},{"id":"412591","latitude":"25.01666670","longitude":"98.46666670","name":"Heshun"},{"id":"412644","latitude":"24.53333330","longitude":"98.40000000","name":"Hetoucun"},{"id":"412707","latitude":"24.14361110","longitude":"102.64861110","name":"Hexi"},{"id":"412973","latitude":"26.56666670","longitude":"100.20000000","name":"Hoching"},{"id":"412978","latitude":"22.76666670","longitude":"103.25000000","name":"Hochin"},{"id":"413065","latitude":"24.14361110","longitude":"102.64861110","name":"Hohsi"},{"id":"413067","latitude":"24.14361110","longitude":"102.64861110","name":"Hohsihsien"},{"id":"413117","latitude":"26.56666670","longitude":"100.20000000","name":"Hoking"},{"id":"413118","latitude":"26.56666670","longitude":"100.20000000","name":"Hokinghsien"},{"id":"413142","latitude":"22.51222220","longitude":"103.95750000","name":"Hokou"},{"id":"413145","latitude":"22.51222220","longitude":"103.95750000","name":"Hokouhsien"},{"id":"413147","latitude":"22.51222220","longitude":"103.95750000","name":"Hokoushih"},{"id":"413150","latitude":"22.51222220","longitude":"103.95750000","name":"Hokouyaotsumiaotsutzuchihhsien"},{"id":"413151","latitude":"22.51222220","longitude":"103.95750000","name":"Hokouyaotsutzuchihhsien"},{"id":"413157","latitude":"22.51222220","longitude":"103.95750000","name":"Hokow"},{"id":"413160","latitude":"22.51222220","longitude":"103.95750000","name":"Hokowhsien"},{"id":"413211","latitude":"26.40000000","longitude":"101.25000000","name":"HomenKou"},{"id":"413256","latitude":"24.14500000","longitude":"103.31972220","name":"Hongchichen"},{"id":"413342","latitude":"23.38416670","longitude":"102.34916670","name":"Honghe"},{"id":"413383","latitude":"25.93277780","longitude":"101.87333330","name":"Hongjiang"},{"id":"413527","latitude":"26.16666670","longitude":"104.06666670","name":"Hongqiao"},{"id":"413592","latitude":"25.05000000","longitude":"103.25000000","name":"Hongshan"},{"id":"413608","latitude":"23.71111110","longitude":"104.30666670","name":"Hongsheke"},{"id":"413679","latitude":"23.71500000","longitude":"102.99222220","name":"Hongtian"},{"id":"413698","latitude":"25.01666670","longitude":"100.85000000","name":"Hongtupo"},{"id":"413737","latitude":"24.14500000","longitude":"103.31972220","name":"Hongxi"},{"id":"413793","latitude":"26.98333330","longitude":"99.91666670","name":"Hongyan"},{"id":"413970","latitude":"25.01666670","longitude":"98.46666670","name":"Hoshun"},{"id":"413972","latitude":"25.01666670","longitude":"98.46666670","name":"Hoshunhsiang"},{"id":"413975","latitude":"24.14361110","longitude":"102.64861110","name":"Hosi"},{"id":"413977","latitude":"24.14361110","longitude":"102.64861110","name":"Hosihsien"},{"id":"414152","latitude":"25.35000000","longitude":"98.20000000","name":"Houchiao"},{"id":"414524","latitude":"25.35000000","longitude":"98.20000000","name":"Houqiao"},{"id":"414825","latitude":"24.66944440","longitude":"102.91722220","name":"Hoyang"},{"id":"414845","latitude":"24.20000000","longitude":"97.80000000","name":"Hsanghawng"},{"id":"414918","latitude":"25.66666670","longitude":"100.00000000","name":"Hsiachiehhsiang"},{"id":"415035","latitude":"27.81666670","longitude":"99.33333330","name":"Hsiajo"},{"id":"415037","latitude":"22.53333330","longitude":"99.93333330","name":"Hsiakaihsin"},{"id":"415069","latitude":"25.56666670","longitude":"100.23333330","name":"Hsiakuan"},{"id":"415070","latitude":"25.56666670","longitude":"100.23333330","name":"Hsiakuanshih"},{"id":"415172","latitude":"25.48333330","longitude":"100.58333330","name":"Hsiangchengchen"},{"id":"415382","latitude":"22.94527780","longitude":"103.96138890","name":"Hsiangyuchai"},{"id":"415386","latitude":"25.48333330","longitude":"100.58333330","name":"Hsiangy\u00fcn"},{"id":"415387","latitude":"25.48333330","longitude":"100.58333330","name":"Hsiangy\u00fcnhsien"},{"id":"415397","latitude":"22.87833330","longitude":"103.95777780","name":"Hsianiuchang"},{"id":"415496","latitude":"22.97833330","longitude":"103.84722220","name":"Hsiaochiehtzu"},{"id":"415549","latitude":"27.58333330","longitude":"99.80000000","name":"Hsiaochungtien"},{"id":"415583","latitude":"27.23694440","longitude":"103.19250000","name":"Hsiaohochieh"},{"id":"415599","latitude":"22.65916670","longitude":"103.80055560","name":"Hsiaohokou"},{"id":"415691","latitude":"27.93333330","longitude":"103.90000000","name":"Hsiaokuanhsi"},{"id":"415758","latitude":"23.80666670","longitude":"103.17638890","name":"Hsiaolungtan"},{"id":"415771","latitude":"21.91666670","longitude":"101.25000000","name":"Hsiaomenglun"},{"id":"415772","latitude":"24.21666670","longitude":"99.31666670","name":"Hsiaomengtung"},{"id":"415781","latitude":"22.65416670","longitude":"103.94166670","name":"Hsiaonanchi"},{"id":"415843","latitude":"27.50000000","longitude":"103.73333330","name":"Hsiaoputzu"},{"id":"415864","latitude":"25.16250000","longitude":"102.99750000","name":"Hsiaoshao"},{"id":"415948","latitude":"27.73333330","longitude":"104.25000000","name":"Hsiaotsaopa"},{"id":"415990","latitude":"24.23333330","longitude":"103.45000000","name":"Hsiaoyangchieh"},{"id":"416003","latitude":"23.59222220","longitude":"102.00416670","name":"Hsiaoyen"},{"id":"416330","latitude":"24.14361110","longitude":"102.64861110","name":"Hsicheng"},{"id":"416398","latitude":"23.45000000","longitude":"104.66666670","name":"Hsichou"},{"id":"416399","latitude":"23.45000000","longitude":"104.66666670","name":"Hsichouhsien"},{"id":"416400","latitude":"23.24250000","longitude":"104.59000000","name":"Hsichouhsinchieh"},{"id":"416575","latitude":"23.83333330","longitude":"101.71666670","name":"Hsienho"},{"id":"416665","latitude":"24.37972220","longitude":"103.09638890","name":"Hsierhchieh"},{"id":"416666","latitude":"24.37972220","longitude":"103.09638890","name":"Hsierh"},{"id":"416762","latitude":"23.45000000","longitude":"104.66666670","name":"Hsihsi"},{"id":"416987","latitude":"22.75000000","longitude":"99.48333330","name":"Hsimeng"},{"id":"416989","latitude":"22.75000000","longitude":"99.48333330","name":"Hsimengwatsutzuchihhsien"},{"id":"417042","latitude":"23.31277780","longitude":"103.44222220","name":"Hsinanso"},{"id":"417058","latitude":"22.68583330","longitude":"103.84666670","name":"Hsinchai"},{"id":"417122","latitude":"24.78333330","longitude":"98.08333330","name":"Hsincheng"},{"id":"417186","latitude":"23.15416670","longitude":"102.74777780","name":"Hsinchiehchen"},{"id":"417196","latitude":"23.15416670","longitude":"102.74777780","name":"Hsinchieh"},{"id":"417243","latitude":"25.98333330","longitude":"100.08333330","name":"Hsinchouchen"},{"id":"417248","latitude":"25.98333330","longitude":"100.08333330","name":"Hsinchou"},{"id":"417314","latitude":"23.70000000","longitude":"101.16666670","name":"Hsinfu"},{"id":"417480","latitude":"23.37500000","longitude":"103.30861110","name":"Hsingpa"},{"id":"417592","latitude":"24.35500000","longitude":"102.54222220","name":"Hsinhsing"},{"id":"417634","latitude":"24.95000000","longitude":"100.05000000","name":"Hsiniuchieh"},{"id":"417781","latitude":"24.10000000","longitude":"101.96666670","name":"Hsinpinghsien"},{"id":"417785","latitude":"24.10000000","longitude":"101.96666670","name":"Hsinping"},{"id":"417907","latitude":"24.05000000","longitude":"103.73333330","name":"Hsintien"},{"id":"417932","latitude":"22.92194440","longitude":"103.92111110","name":"Hsintitang"},{"id":"417942","latitude":"26.08333330","longitude":"103.16666670","name":"Hsintsunchieh"},{"id":"417949","latitude":"26.08333330","longitude":"103.16666670","name":"Hsintsun"},{"id":"417996","latitude":"24.10000000","longitude":"101.81666670","name":"Hsinyingpan"},{"id":"418009","latitude":"24.17388890","longitude":"102.40194440","name":"Hsio"},{"id":"418063","latitude":"23.45000000","longitude":"104.66666670","name":"Hsisachen"},{"id":"418064","latitude":"23.45000000","longitude":"104.66666670","name":"Hsisachieh"},{"id":"418065","latitude":"23.45000000","longitude":"104.66666670","name":"Hsisa"},{"id":"418169","latitude":"22.87388890","longitude":"103.81944440","name":"Hsitepao"},{"id":"418331","latitude":"23.86750000","longitude":"105.34361110","name":"Hsiyangchieh"},{"id":"418345","latitude":"23.86750000","longitude":"105.34361110","name":"Hsiyang"},{"id":"418436","latitude":"26.26666670","longitude":"104.01666670","name":"Hs\u00fcanweihsien"},{"id":"418438","latitude":"26.26666670","longitude":"104.01666670","name":"Hs\u00fcanwei"},{"id":"418505","latitude":"24.62250000","longitude":"103.03833330","name":"Hs\u00fcchiatu"},{"id":"418580","latitude":"23.05000000","longitude":"99.55000000","name":"Hs\u00fcehlin"},{"id":"418641","latitude":"23.95861110","longitude":"103.19388890","name":"Hs\u00fcnchienssu"},{"id":"418663","latitude":"25.56361110","longitude":"103.25333330","name":"Hs\u00fcntienhsien"},{"id":"418665","latitude":"25.56361110","longitude":"103.25333330","name":"Hs\u00fcntien"},{"id":"418666","latitude":"25.56361110","longitude":"103.25333330","name":"Hs\u00fcntienhuitsutzuchihhsien"},{"id":"418753","latitude":"24.76666670","longitude":"102.80000000","name":"Huacheng"},{"id":"418758","latitude":"23.86083330","longitude":"105.61555560","name":"Huachiachieh"},{"id":"418836","latitude":"28.06666670","longitude":"98.90000000","name":"Huafengping"},{"id":"418870","latitude":"24.05861110","longitude":"103.01972220","name":"Huahsichen"},{"id":"419068","latitude":"23.86083330","longitude":"105.61555560","name":"Huajiajie"},{"id":"419102","latitude":"26.85000000","longitude":"101.35000000","name":"Huajungchuang"},{"id":"419167","latitude":"26.05000000","longitude":"100.40000000","name":"Hualongtan"},{"id":"419215","latitude":"25.05000000","longitude":"103.65000000","name":"Huancheng"},{"id":"419294","latitude":"22.36666670","longitude":"101.16666670","name":"Huangcaoba"},{"id":"419297","latitude":"22.90000000","longitude":"102.66666670","name":"Huangcaoling"},{"id":"419530","latitude":"28.00000000","longitude":"103.55000000","name":"Huanggeshu"},{"id":"419543","latitude":"25.77444440","longitude":"101.84750000","name":"Huangguayuan"},{"id":"420010","latitude":"25.25000000","longitude":"104.70000000","name":"Huangnihe"},{"id":"420014","latitude":"25.25000000","longitude":"104.70000000","name":"Huangniho"},{"id":"420186","latitude":"26.80000000","longitude":"100.23333330","name":"Huangshan"},{"id":"420378","latitude":"22.36666670","longitude":"101.16666670","name":"Huangtsaopa"},{"id":"420649","latitude":"22.93333330","longitude":"100.70000000","name":"Huangzhulin"},{"id":"420661","latitude":"24.08722220","longitude":"102.20083330","name":"Huanian"},{"id":"420663","latitude":"24.08722220","longitude":"102.20083330","name":"Huanien"},{"id":"420665","latitude":"24.19444440","longitude":"102.92805560","name":"Huaninghsien"},{"id":"420666","latitude":"24.19444440","longitude":"102.92805560","name":"Huaning"},{"id":"420681","latitude":"26.85000000","longitude":"101.35000000","name":"Huanping"},{"id":"420729","latitude":"26.61666670","longitude":"101.21666670","name":"Huapingchiuchih"},{"id":"420730","latitude":"26.61666670","longitude":"101.21666670","name":"Huapinghsien"},{"id":"420735","latitude":"26.61666670","longitude":"101.21666670","name":"Huaping"},{"id":"420737","latitude":"26.61666670","longitude":"101.21666670","name":"Huapingkuchih"},{"id":"420767","latitude":"26.85000000","longitude":"101.35000000","name":"Huarongzhuang"},{"id":"420894","latitude":"24.05861110","longitude":"103.01972220","name":"Huaxi"},{"id":"421043","latitude":"24.45000000","longitude":"97.88333330","name":"Huche"},{"id":"421101","latitude":"24.86666670","longitude":"100.53333330","name":"Huchieh"},{"id":"421303","latitude":"24.98333330","longitude":"98.86666670","name":"Huijenchiao"},{"id":"421416","latitude":"24.98333330","longitude":"98.86666670","name":"Huirenqiao"},{"id":"421454","latitude":"24.80000000","longitude":"98.95000000","name":"Huitongqiao"},{"id":"421460","latitude":"26.35000000","longitude":"103.41666670","name":"Huitsehsien"},{"id":"421461","latitude":"26.35000000","longitude":"103.41666670","name":"Huitse"},{"id":"421467","latitude":"24.80000000","longitude":"98.95000000","name":"Huitungchiao"},{"id":"421494","latitude":"28.61666670","longitude":"104.21666670","name":"Huiyi"},{"id":"421507","latitude":"26.35000000","longitude":"103.41666670","name":"Huize"},{"id":"421582","latitude":"24.86666670","longitude":"100.53333330","name":"Hujie"},{"id":"421842","latitude":"23.38416670","longitude":"102.34916670","name":"Hungho"},{"id":"422082","latitude":"25.11305560","longitude":"102.95472220","name":"Hunshuitang"},{"id":"422324","latitude":"24.45000000","longitude":"97.88333330","name":"Husa"},{"id":"422620","latitude":"26.85000000","longitude":"101.35000000","name":"Hwapinghsien"},{"id":"422621","latitude":"26.85000000","longitude":"101.35000000","name":"Hwaping"},{"id":"422629","latitude":"26.85000000","longitude":"101.35000000","name":"Hwayung"},{"id":"422636","latitude":"28.30000000","longitude":"103.90000000","name":"Hweiki"},{"id":"422646","latitude":"26.35000000","longitude":"103.41666670","name":"Hweitsehhsien"},{"id":"422647","latitude":"26.35000000","longitude":"103.41666670","name":"Hweitseh"},{"id":"422677","latitude":"26.81666670","longitude":"103.48333330","name":"Ichehs\u00fcn"},{"id":"422769","latitude":"23.33333330","longitude":"100.65000000","name":"Ihsiangching"},{"id":"422770","latitude":"23.33333330","longitude":"100.65000000","name":"Ihsiang"},{"id":"422833","latitude":"24.91333330","longitude":"103.14750000","name":"Ilianghsien"},{"id":"422834","latitude":"24.91333330","longitude":"103.14750000","name":"Iliang"},{"id":"422862","latitude":"24.66861110","longitude":"102.16055560","name":"Imenhsien"},{"id":"422866","latitude":"24.66861110","longitude":"102.16055560","name":"Imen"},{"id":"422910","latitude":"22.28333330","longitude":"101.40000000","name":"Ipang"},{"id":"422916","latitude":"25.15833330","longitude":"101.90222220","name":"Ipilang"},{"id":"422917","latitude":"25.15833330","longitude":"101.90222220","name":"Ipinglang"},{"id":"422928","latitude":"23.38416670","longitude":"102.34916670","name":"Isachen"},{"id":"422929","latitude":"23.38416670","longitude":"102.34916670","name":"Isa"},{"id":"423007","latitude":"21.98333330","longitude":"101.46666670","name":"Iwu"},{"id":"423028","latitude":"28.95000000","longitude":"99.03333330","name":"Jaggoi"},{"id":"423419","latitude":"26.08333330","longitude":"99.33333330","name":"Jiancao"},{"id":"423445","latitude":"26.46666670","longitude":"99.86666670","name":"Jianchuan"},{"id":"423489","latitude":"24.00000000","longitude":"103.60000000","name":"Jiangbianjie"},{"id":"423499","latitude":"22.60000000","longitude":"101.83333330","name":"Jiangcheng"},{"id":"423502","latitude":"24.28944440","longitude":"102.75305560","name":"Jiangchuan"},{"id":"423525","latitude":"27.00000000","longitude":"103.58333330","name":"Jiangdi"},{"id":"423727","latitude":"23.61027780","longitude":"104.33527780","name":"Jiangna"},{"id":"423757","latitude":"25.26916670","longitude":"101.63166670","name":"Jiangpo"},{"id":"423858","latitude":"22.78333330","longitude":"101.95000000","name":"Jiangxi"},{"id":"423877","latitude":"26.08333330","longitude":"101.91666670","name":"Jiangyi"},{"id":"423932","latitude":"23.07777780","longitude":"102.91583330","name":"Jianiang"},{"id":"424021","latitude":"23.16666670","longitude":"99.50000000","name":"Jianshe"},{"id":"424027","latitude":"23.61638890","longitude":"102.82694440","name":"Jianshui"},{"id":"424107","latitude":"26.20000000","longitude":"102.36666670","name":"Jiaochedu"},{"id":"424175","latitude":"27.58333330","longitude":"104.01666670","name":"Jiaokui"},{"id":"424200","latitude":"26.33333330","longitude":"102.41666670","name":"Jiaopingdu"},{"id":"424245","latitude":"26.15000000","longitude":"102.45000000","name":"Jiaoxi"},{"id":"424281","latitude":"23.25000000","longitude":"102.16666670","name":"Jiaqi"},{"id":"424290","latitude":"21.95000000","longitude":"100.75000000","name":"Jiasa"},{"id":"424351","latitude":"23.27083330","longitude":"102.34194440","name":"Jiayin"},{"id":"424570","latitude":"25.46666670","longitude":"98.66666670","name":"Jietou"},{"id":"424629","latitude":"24.18333330","longitude":"104.03333330","name":"Jihche"},{"id":"424686","latitude":"25.61861110","longitude":"102.79388890","name":"Jijie"},{"id":"424691","latitude":"26.55000000","longitude":"98.93333330","name":"Jijilaw"},{"id":"424714","latitude":"27.98333330","longitude":"103.96666670","name":"Jili"},{"id":"424783","latitude":"25.72611110","longitude":"101.32472220","name":"Jinbi"},{"id":"424806","latitude":"25.53000000","longitude":"102.40277780","name":"Jincheng"},{"id":"424842","latitude":"26.45000000","longitude":"99.40000000","name":"Jinding"},{"id":"424860","latitude":"26.50000000","longitude":"100.20000000","name":"Jindun"},{"id":"424917","latitude":"24.46666670","longitude":"100.90000000","name":"Jingdong"},{"id":"424947","latitude":"23.75000000","longitude":"100.65000000","name":"Jinggujie"},{"id":"424949","latitude":"23.46666670","longitude":"100.70000000","name":"Jinggu"},{"id":"424962","latitude":"21.98333330","longitude":"100.81666670","name":"Jinghong"},{"id":"425102","latitude":"26.75000000","longitude":"100.68333330","name":"Jinguan"},{"id":"425130","latitude":"23.48333330","longitude":"101.36666670","name":"Jingxing"},{"id":"425132","latitude":"28.18333330","longitude":"103.58333330","name":"Jingxin"},{"id":"425208","latitude":"26.46666670","longitude":"99.86666670","name":"Jinhua"},{"id":"425251","latitude":"26.23333330","longitude":"100.56666670","name":"Jinjiang"},{"id":"425353","latitude":"27.16666670","longitude":"100.63333330","name":"Jinmiancun"},{"id":"425354","latitude":"27.16666670","longitude":"100.63333330","name":"Jinmian"},{"id":"425361","latitude":"24.66805560","longitude":"102.59194440","name":"Jinning"},{"id":"425388","latitude":"22.76666670","longitude":"103.25000000","name":"Jinping"},{"id":"425436","latitude":"25.14361110","longitude":"102.07527780","name":"Jinshan"},{"id":"425516","latitude":"22.00000000","longitude":"101.03333330","name":"Jinuoluoke"},{"id":"425753","latitude":"28.02250000","longitude":"105.06138890","name":"Jiucheng"},{"id":"425795","latitude":"22.48333330","longitude":"99.98333330","name":"Jiufang"},{"id":"425886","latitude":"23.41666670","longitude":"101.73333330","name":"Jiulian"},{"id":"425923","latitude":"25.74166670","longitude":"102.79805560","name":"Jiulong"},{"id":"425944","latitude":"23.96666670","longitude":"104.83333330","name":"Jiumo"},{"id":"426068","latitude":"24.73333330","longitude":"98.08333330","name":"Jiuyingjiang"},{"id":"426079","latitude":"25.81666670","longitude":"99.35000000","name":"Jiuyunlong"},{"id":"426096","latitude":"23.80000000","longitude":"100.83333330","name":"Jiuzhenyuan"},{"id":"426110","latitude":"25.09444440","longitude":"101.80527780","name":"Jiuzhuang"},{"id":"426218","latitude":"22.93666670","longitude":"103.86861110","name":"Joshuitang"},{"id":"426257","latitude":"27.30000000","longitude":"99.66666670","name":"Judian"},{"id":"426261","latitude":"24.65000000","longitude":"103.73333330","name":"Juece"},{"id":"426313","latitude":"24.03333330","longitude":"97.86666670","name":"Juili"},{"id":"426317","latitude":"25.48333330","longitude":"98.45000000","name":"Juitien"},{"id":"426398","latitude":"26.26666670","longitude":"104.01666670","name":"Jungchengchen"},{"id":"426414","latitude":"26.26666670","longitude":"104.01666670","name":"Jungfeng"},{"id":"426499","latitude":"25.34388890","longitude":"101.51055560","name":"Juntun"},{"id":"426597","latitude":"24.06666670","longitude":"101.58333330","name":"Kachieh"},{"id":"426608","latitude":"23.24388890","longitude":"103.15944440","name":"Kafang"},{"id":"426665","latitude":"23.37194440","longitude":"104.24972220","name":"Kaihua"},{"id":"426668","latitude":"23.37194440","longitude":"104.24972220","name":"Kaihwafu"},{"id":"426671","latitude":"23.37194440","longitude":"104.24972220","name":"Kaihwa"},{"id":"426728","latitude":"27.15000000","longitude":"99.85000000","name":"Kaiwen"},{"id":"426740","latitude":"23.71111110","longitude":"103.24611110","name":"Kaiy\u00fcanhsien"},{"id":"426745","latitude":"23.71111110","longitude":"103.24611110","name":"Kaiyuan"},{"id":"426767","latitude":"25.91666670","longitude":"103.80000000","name":"Kalangcheng"},{"id":"426805","latitude":"24.78333330","longitude":"98.08333330","name":"Kanai"},{"id":"426911","latitude":"26.13333330","longitude":"98.60000000","name":"Kangfang"},{"id":"427096","latitude":"22.76055560","longitude":"103.92861110","name":"Kankou"},{"id":"427110","latitude":"21.86666670","longitude":"100.98333330","name":"Kanlanpa"},{"id":"427111","latitude":"21.86666670","longitude":"100.98333330","name":"Kanlanpatu"},{"id":"427214","latitude":"24.78333330","longitude":"98.08333330","name":"Kanyai"},{"id":"427215","latitude":"24.78333330","longitude":"98.08333330","name":"Kanya"},{"id":"427436","latitude":"25.16666670","longitude":"98.80000000","name":"Kaolikunglinchang"},{"id":"427745","latitude":"24.06666670","longitude":"101.58333330","name":"Kasachieh"},{"id":"427774","latitude":"25.40000000","longitude":"98.48333330","name":"KaTungChieh"},{"id":"427792","latitude":"24.97333330","longitude":"103.06527780","name":"Kebaocun"},{"id":"427793","latitude":"24.97333330","longitude":"103.06527780","name":"Kebao"},{"id":"427819","latitude":"24.88333330","longitude":"99.46666670","name":"Kejie"},{"id":"427885","latitude":"21.98333330","longitude":"100.81666670","name":"Kenghung"},{"id":"427893","latitude":"21.70000000","longitude":"100.05000000","name":"Keng Law"},{"id":"427901","latitude":"23.51666670","longitude":"99.40000000","name":"Kengmahsuanfussu"},{"id":"427902","latitude":"23.51666670","longitude":"99.40000000","name":"Kengma"},{"id":"427903","latitude":"23.51666670","longitude":"99.40000000","name":"Kengmashechihch\u00fc"},{"id":"427904","latitude":"23.51666670","longitude":"99.40000000","name":"Kengmataitsukawatsutzuchihhsien"},{"id":"427905","latitude":"23.51666670","longitude":"99.40000000","name":"Kengmataitsuwatsutzuchihhsien"},{"id":"427952","latitude":"21.70000000","longitude":"100.05000000","name":"Kenlo"},{"id":"428129","latitude":"22.60000000","longitude":"101.83333330","name":"Kiangchenghsien"},{"id":"428132","latitude":"24.42416670","longitude":"102.80500000","name":"Kiangchwanhsien"},{"id":"428133","latitude":"24.42416670","longitude":"102.80500000","name":"Kiangchwan"},{"id":"428135","latitude":"21.98333330","longitude":"100.81666670","name":"Kianghung"},{"id":"428150","latitude":"23.61027780","longitude":"104.33527780","name":"Kiangna"},{"id":"428157","latitude":"27.00000000","longitude":"103.58333330","name":"Kiangti"},{"id":"428164","latitude":"26.08333330","longitude":"101.91666670","name":"Kiangyi"},{"id":"428174","latitude":"26.10000000","longitude":"99.76666670","name":"Kiaohowtsing"},{"id":"428176","latitude":"26.95000000","longitude":"103.05000000","name":"Kiaokiahsien"},{"id":"428177","latitude":"26.95000000","longitude":"103.05000000","name":"Kiaokia"},{"id":"428214","latitude":"26.46666670","longitude":"99.86666670","name":"Kienchwanchow"},{"id":"428215","latitude":"26.46666670","longitude":"99.86666670","name":"Kienchwanhsien"},{"id":"428235","latitude":"23.61638890","longitude":"102.82694440","name":"Kienshuihsien"},{"id":"428236","latitude":"23.61638890","longitude":"102.82694440","name":"Kienshui"},{"id":"428255","latitude":"23.51416670","longitude":"103.23194440","name":"Kikai"},{"id":"428266","latitude":"22.76666670","longitude":"102.20000000","name":"Kimapa"},{"id":"428288","latitude":"23.46666670","longitude":"100.70000000","name":"Kingkuhsien"},{"id":"428289","latitude":"23.46666670","longitude":"100.70000000","name":"Kingku"},{"id":"428305","latitude":"28.18333330","longitude":"103.58333330","name":"Kingti"},{"id":"428307","latitude":"24.46666670","longitude":"100.90000000","name":"Kingtunghsien"},{"id":"428308","latitude":"24.46666670","longitude":"100.90000000","name":"Kingtungsin"},{"id":"428309","latitude":"24.46666670","longitude":"100.90000000","name":"Kingtungting"},{"id":"428321","latitude":"26.23333330","longitude":"100.56666670","name":"Kinkiang"},{"id":"428326","latitude":"26.23333330","longitude":"100.56666670","name":"Kinktang"},{"id":"428328","latitude":"21.98333330","longitude":"100.81666670","name":"Kinlungkiang"},{"id":"428380","latitude":"24.73333330","longitude":"98.08333330","name":"Kiucheng"},{"id":"428394","latitude":"21.98333330","longitude":"100.81666670","name":"Kiulungkiang"},{"id":"428395","latitude":"21.98333330","longitude":"100.81666670","name":"Kiulunkiang"},{"id":"428404","latitude":"24.05000000","longitude":"104.20000000","name":"Kiupehhsien"},{"id":"428407","latitude":"26.61666670","longitude":"101.21666670","name":"Kiuyaping"},{"id":"428459","latitude":"23.36555560","longitude":"103.15583330","name":"Kochiuhsien"},{"id":"428460","latitude":"23.36555560","longitude":"103.15583330","name":"Kochiu"},{"id":"428461","latitude":"23.36555560","longitude":"103.15583330","name":"Kochiushih"},{"id":"428498","latitude":"25.98333330","longitude":"104.06666670","name":"Koitou"},{"id":"428505","latitude":"23.36555560","longitude":"103.15583330","name":"Kokiuchang"},{"id":"428506","latitude":"23.36555560","longitude":"103.15583330","name":"Kokiuhsien"},{"id":"428507","latitude":"23.36555560","longitude":"103.15583330","name":"Kokiu"},{"id":"428525","latitude":"23.23888890","longitude":"103.63944440","name":"Koku"},{"id":"428553","latitude":"23.66444440","longitude":"105.32611110","name":"Kolapa"},{"id":"428785","latitude":"23.49500000","longitude":"102.84027780","name":"Kouchieh"},{"id":"428786","latitude":"23.49500000","longitude":"102.84027780","name":"Kouchiehtzu"},{"id":"428880","latitude":"24.78916670","longitude":"103.14194440","name":"Kowkaitze"},{"id":"428914","latitude":"28.30000000","longitude":"103.90000000","name":"Kuaihsi"},{"id":"429076","latitude":"24.51666670","longitude":"103.76666670","name":"Kuanghsi"},{"id":"429112","latitude":"24.05000000","longitude":"105.05000000","name":"Kuangnanhsien"},{"id":"429113","latitude":"24.05000000","longitude":"105.05000000","name":"Kuangnan"},{"id":"429128","latitude":"26.65000000","longitude":"103.68333330","name":"Kuangshanchen"},{"id":"429138","latitude":"26.65000000","longitude":"103.68333330","name":"Kuangshanzhen"},{"id":"429166","latitude":"25.15833330","longitude":"101.90222220","name":"Kuangtung"},{"id":"429187","latitude":"24.91333330","longitude":"103.14750000","name":"Kuangyuan"},{"id":"429346","latitude":"23.39472220","longitude":"102.72416670","name":"Kuanting"},{"id":"429547","latitude":"23.36555560","longitude":"103.15583330","name":"Kuchiu"},{"id":"429578","latitude":"28.30000000","longitude":"103.90000000","name":"Kueichi"},{"id":"429591","latitude":"27.38333330","longitude":"104.26666670","name":"Kueihsiang"},{"id":"429594","latitude":"28.30000000","longitude":"103.90000000","name":"Kueihsi"},{"id":"429628","latitude":"24.65000000","longitude":"103.56666670","name":"Kueishan"},{"id":"429757","latitude":"21.98333330","longitude":"100.81666670","name":"Kuilungkiang"},{"id":"429776","latitude":"27.38333330","longitude":"104.26666670","name":"Kuixiang"},{"id":"429799","latitude":"23.96444440","longitude":"102.78250000","name":"Kukiang"},{"id":"429801","latitude":"23.96444440","longitude":"102.78250000","name":"K\u00fckihsien"},{"id":"429802","latitude":"23.96444440","longitude":"102.78250000","name":"Kuki"},{"id":"429822","latitude":"26.08333330","longitude":"98.60000000","name":"Kulang"},{"id":"429840","latitude":"22.80694440","longitude":"103.96472220","name":"Kulinching"},{"id":"429902","latitude":"23.26444440","longitude":"104.26000000","name":"Kumuchieh"},{"id":"429905","latitude":"23.26444440","longitude":"104.26000000","name":"Kumu"},{"id":"430020","latitude":"25.60000000","longitude":"99.33333330","name":"Kungkuo Chiao"},{"id":"430021","latitude":"25.60000000","longitude":"99.33333330","name":"Kungkuo"},{"id":"430026","latitude":"24.90000000","longitude":"100.33333330","name":"Kunglang"},{"id":"430064","latitude":"25.80000000","longitude":"103.21666670","name":"Kungshan"},{"id":"430066","latitude":"27.68333330","longitude":"98.61666670","name":"Kungshantulungtsunutsutzuchihhsien"},{"id":"430081","latitude":"23.39472220","longitude":"102.72416670","name":"Kungting"},{"id":"430104","latitude":"25.31666670","longitude":"98.30000000","name":"Kungyung"},{"id":"430118","latitude":"25.03888890","longitude":"102.71833330","name":"Kunminghsien"},{"id":"430119","latitude":"25.03888890","longitude":"102.71833330","name":"Kunming"},{"id":"430120","latitude":"25.03888890","longitude":"102.71833330","name":"Kunmingshih"},{"id":"430121","latitude":"25.03888890","longitude":"102.71833330","name":"Kunming Shi"},{"id":"430144","latitude":"24.66805560","longitude":"102.59194440","name":"Kunyanghsien"},{"id":"430147","latitude":"24.66805560","longitude":"102.59194440","name":"Kunyang"},{"id":"430424","latitude":"27.30000000","longitude":"99.66666670","name":"Kutien"},{"id":"430432","latitude":"25.40000000","longitude":"99.60000000","name":"Kuting"},{"id":"430438","latitude":"25.48333330","longitude":"103.78333330","name":"K\u00fctsingfu"},{"id":"430439","latitude":"25.48333330","longitude":"103.78333330","name":"Kutsinghsien"},{"id":"430440","latitude":"25.48333330","longitude":"103.78333330","name":"K\u00fctsing"},{"id":"430448","latitude":"25.40000000","longitude":"98.48333330","name":"Kutungchieh"},{"id":"430450","latitude":"25.40000000","longitude":"98.48333330","name":"Kutungkai"},{"id":"430452","latitude":"25.40000000","longitude":"98.48333330","name":"Kutung"},{"id":"430485","latitude":"25.31666670","longitude":"98.30000000","name":"Kuyung"},{"id":"430526","latitude":"24.05000000","longitude":"105.05000000","name":"Kwangnanfu"},{"id":"430527","latitude":"24.05000000","longitude":"105.05000000","name":"Kwangnanhsien"},{"id":"430528","latitude":"24.05000000","longitude":"105.05000000","name":"Kwangnan"},{"id":"430537","latitude":"24.51666670","longitude":"103.76666670","name":"Kwangsichow"},{"id":"430538","latitude":"24.51666670","longitude":"103.76666670","name":"Kwangsihsien"},{"id":"430609","latitude":"23.23888890","longitude":"103.63944440","name":"Kwoku"},{"id":"430653","latitude":"26.48333330","longitude":"99.26666670","name":"Lachichieh"},{"id":"430654","latitude":"26.45000000","longitude":"99.15000000","name":"Lachiching"},{"id":"430655","latitude":"26.48333330","longitude":"99.26666670","name":"Lachimingching"},{"id":"430656","latitude":"26.48333330","longitude":"99.26666670","name":"Lachiming"},{"id":"430671","latitude":"22.96000000","longitude":"103.80111110","name":"Lahadi"},{"id":"430677","latitude":"22.96000000","longitude":"103.80111110","name":"Lahati"},{"id":"430693","latitude":"26.33333330","longitude":"104.16666670","name":"Laibin"},{"id":"430783","latitude":"26.48333330","longitude":"99.26666670","name":"Lajing"},{"id":"430789","latitude":"26.45000000","longitude":"99.15000000","name":"Lakitsing"},{"id":"430801","latitude":"24.01166670","longitude":"103.14638890","name":"Lalihei"},{"id":"430810","latitude":"27.40000000","longitude":"98.90000000","name":"Lamadi"},{"id":"430826","latitude":"27.40000000","longitude":"98.90000000","name":"Lamati"},{"id":"430831","latitude":"24.73333330","longitude":"98.91666670","name":"Lameng"},{"id":"430833","latitude":"26.48333330","longitude":"99.26666670","name":"Lamingmingching"},{"id":"430845","latitude":"22.53333330","longitude":"99.93333330","name":"Lancang Lahuzu Zizhixian"},{"id":"430846","latitude":"22.53333330","longitude":"99.93333330","name":"Lancang"},{"id":"430862","latitude":"22.81472220","longitude":"103.91944440","name":"Lanchiao"},{"id":"430871","latitude":"26.11666670","longitude":"99.95000000","name":"Lanchiung"},{"id":"430920","latitude":"26.11666670","longitude":"99.95000000","name":"Langchiung"},{"id":"430924","latitude":"27.31666670","longitude":"100.88333330","name":"Langch\u00fc"},{"id":"430946","latitude":"23.36694440","longitude":"105.58944440","name":"Langheng"},{"id":"430962","latitude":"23.99611110","longitude":"105.42361110","name":"Langi"},{"id":"430981","latitude":"26.11666670","longitude":"99.95000000","name":"Langkiunghsien"},{"id":"430986","latitude":"27.31666670","longitude":"100.88333330","name":"Langk\u00fc"},{"id":"431072","latitude":"23.99611110","longitude":"105.42361110","name":"Langyi"},{"id":"431141","latitude":"26.11666670","longitude":"99.95000000","name":"Lankiunghsien"},{"id":"431142","latitude":"26.11666670","longitude":"99.95000000","name":"Lankiung"},{"id":"431173","latitude":"22.90166670","longitude":"103.94250000","name":"Lannitang"},{"id":"431180","latitude":"26.48333330","longitude":"99.26666670","name":"Lanpinghsien"},{"id":"431181","latitude":"26.48333330","longitude":"99.26666670","name":"Lanping"},{"id":"431258","latitude":"22.53333330","longitude":"99.93333330","name":"Lantsanghsien"},{"id":"431259","latitude":"22.70000000","longitude":"99.80000000","name":"Lantsanglahutsutzuchihch\u00fc"},{"id":"431260","latitude":"22.53333330","longitude":"99.93333330","name":"Lantsang"},{"id":"431309","latitude":"25.61583330","longitude":"101.67916670","name":"Laobing"},{"id":"431324","latitude":"24.18333330","longitude":"101.70000000","name":"Laochang"},{"id":"431335","latitude":"25.62194440","longitude":"101.89277780","name":"Laocheng"},{"id":"431345","latitude":"23.16666670","longitude":"101.15000000","name":"Laochieh"},{"id":"431393","latitude":"22.76055560","longitude":"103.85777780","name":"Laofanchai"},{"id":"431395","latitude":"22.76055560","longitude":"103.85777780","name":"Laofanzhai"},{"id":"431501","latitude":"23.73055560","longitude":"105.29222220","name":"Laojie"},{"id":"431509","latitude":"22.85000000","longitude":"102.81666670","name":"Laojizhai"},{"id":"431571","latitude":"23.45805560","longitude":"105.06333330","name":"Laomachieh"},{"id":"431667","latitude":"22.72888890","longitude":"103.98638890","name":"Laowachai"},{"id":"431685","latitude":"25.86666670","longitude":"99.01666670","name":"Laowo"},{"id":"431725","latitude":"28.06666670","longitude":"104.23333330","name":"Laoyakuan"},{"id":"431746","latitude":"28.06666670","longitude":"104.23333330","name":"Laoyatan"},{"id":"431764","latitude":"25.33333330","longitude":"99.28333330","name":"Laoyingjie"},{"id":"431782","latitude":"23.39916670","longitude":"103.79111110","name":"Laozhaijie"},{"id":"431842","latitude":"26.36666670","longitude":"101.21666670","name":"Lashih"},{"id":"431843","latitude":"26.36666670","longitude":"101.21666670","name":"Lashi"},{"id":"432065","latitude":"25.48972220","longitude":"102.80388890","name":"Lelang"},{"id":"432268","latitude":"24.05000000","longitude":"105.05000000","name":"Liancheng"},{"id":"432299","latitude":"27.80000000","longitude":"103.58333330","name":"Lianfeng"},{"id":"432445","latitude":"27.83333330","longitude":"104.18333330","name":"Lianghekou"},{"id":"432454","latitude":"24.76666670","longitude":"98.33333330","name":"Lianghe"},{"id":"432470","latitude":"24.76666670","longitude":"98.33333330","name":"Liangho"},{"id":"432563","latitude":"24.65000000","longitude":"103.96666670","name":"Lianglongtan"},{"id":"432572","latitude":"24.65000000","longitude":"103.96666670","name":"Lianglungtan"},{"id":"432579","latitude":"27.43333330","longitude":"99.60000000","name":"Liangmei"},{"id":"432729","latitude":"23.46166670","longitude":"105.01138890","name":"Liangtzuchieh"},{"id":"432778","latitude":"23.46166670","longitude":"105.01138890","name":"Liangzhijie"},{"id":"432854","latitude":"23.26277780","longitude":"104.48972220","name":"Lianhuatang"},{"id":"432905","latitude":"24.90583330","longitude":"102.49166670","name":"Lianran"},{"id":"432943","latitude":"25.98333330","longitude":"99.80000000","name":"Liantiejie"},{"id":"433017","latitude":"25.23333330","longitude":"103.86666670","name":"Liaohu"},{"id":"433200","latitude":"26.80000000","longitude":"100.26666670","name":"Lichiangfu"},{"id":"433201","latitude":"26.80000000","longitude":"100.26666670","name":"Lichianghsien"},{"id":"433207","latitude":"26.80000000","longitude":"100.26666670","name":"Lichiang"},{"id":"433208","latitude":"26.80000000","longitude":"100.26666670","name":"Lichiangnahsitsutzuchihhsien"},{"id":"433322","latitude":"23.53111110","longitude":"105.53000000","name":"Lida"},{"id":"433408","latitude":"27.80000000","longitude":"103.58333330","name":"Lienfeng"},{"id":"433567","latitude":"23.83750000","longitude":"102.86444440","name":"Lihaozhai"},{"id":"433598","latitude":"24.19444440","longitude":"102.92805560","name":"Lihsien"},{"id":"433711","latitude":"23.59222220","longitude":"102.00416670","name":"Lijiang"},{"id":"433716","latitude":"25.91666670","longitude":"100.55000000","name":"Lijiao"},{"id":"433812","latitude":"26.80000000","longitude":"100.26666670","name":"Likianghsien"},{"id":"433830","latitude":"22.94944440","longitude":"103.89888890","name":"Lilachai"},{"id":"433846","latitude":"24.19444440","longitude":"102.92805560","name":"Li"},{"id":"433892","latitude":"23.94250000","longitude":"104.92333330","name":"Limie"},{"id":"433937","latitude":"23.61638890","longitude":"102.82694440","name":"Linanfu"},{"id":"433942","latitude":"23.61638890","longitude":"102.82694440","name":"Linan"},{"id":"433945","latitude":"23.61638890","longitude":"102.82694440","name":"Linan Zhen"},{"id":"433957","latitude":"23.90000000","longitude":"100.03333330","name":"Lincang"},{"id":"434244","latitude":"25.91666670","longitude":"103.66666670","name":"Lingjiaotang"},{"id":"434647","latitude":"27.46666670","longitude":"104.41666670","name":"Linkou"},{"id":"434785","latitude":"23.90000000","longitude":"100.03333330","name":"Lintsang"},{"id":"434960","latitude":"27.25000000","longitude":"98.91666670","name":"Lishadi"},{"id":"435045","latitude":"24.21666670","longitude":"100.46666670","name":"Lishu"},{"id":"435074","latitude":"23.53111110","longitude":"105.53000000","name":"Lita"},{"id":"435403","latitude":"26.53333330","longitude":"100.83333330","name":"Liude"},{"id":"435530","latitude":"26.45000000","longitude":"100.33333330","name":"Liuhe"},{"id":"435757","latitude":"25.88611110","longitude":"101.37361110","name":"Liuju"},{"id":"435800","latitude":"25.86666670","longitude":"98.86666670","name":"Liuku"},{"id":"435916","latitude":"23.85527780","longitude":"102.20611110","name":"Liumoni"},{"id":"436194","latitude":"23.95472220","longitude":"105.85416670","name":"Liuwen"},{"id":"436347","latitude":"24.08333330","longitude":"105.63333330","name":"Liwang"},{"id":"436359","latitude":"24.18333330","longitude":"100.81666670","name":"Liwei"},{"id":"436712","latitude":"26.23333330","longitude":"102.93333330","name":"Lohs\u00fcehchang"},{"id":"436713","latitude":"26.23333330","longitude":"102.93333330","name":"Lohs\u00fceh"},{"id":"436732","latitude":"27.70000000","longitude":"104.68333330","name":"Lokan"},{"id":"436813","latitude":"23.42611110","longitude":"102.99250000","name":"Longcha"},{"id":"436823","latitude":"24.89333330","longitude":"102.79666670","name":"Longcheng"},{"id":"436835","latitude":"25.19444440","longitude":"101.27333330","name":"Longchuan"},{"id":"436848","latitude":"23.88333330","longitude":"97.65000000","name":"Longdaojie"},{"id":"436849","latitude":"23.88333330","longitude":"97.65000000","name":"Longdao"},{"id":"436854","latitude":"24.40000000","longitude":"103.83333330","name":"Longde"},{"id":"436905","latitude":"25.55055560","longitude":"101.20500000","name":"Longgang"},{"id":"437013","latitude":"25.66583330","longitude":"101.54416670","name":"Longjie"},{"id":"437086","latitude":"24.58333330","longitude":"98.68333330","name":"Longling"},{"id":"437152","latitude":"27.08333330","longitude":"100.10000000","name":"Longpan"},{"id":"437154","latitude":"23.88166670","longitude":"102.56527780","name":"Longpeng"},{"id":"437180","latitude":"24.56666670","longitude":"104.06666670","name":"Longqingli"},{"id":"437199","latitude":"25.11416670","longitude":"102.75472220","name":"Longquan"},{"id":"437240","latitude":"24.58333330","longitude":"98.68333330","name":"Longshan"},{"id":"437295","latitude":"23.66666670","longitude":"100.65000000","name":"Longtangjie"},{"id":"437326","latitude":"23.65027780","longitude":"102.16500000","name":"Longtan"},{"id":"437345","latitude":"23.93777780","longitude":"104.21916670","name":"Longtao"},{"id":"437387","latitude":"27.11833330","longitude":"103.39000000","name":"Longtoushan"},{"id":"437458","latitude":"23.98138890","longitude":"102.31444440","name":"Longwu"},{"id":"437565","latitude":"24.96666670","longitude":"104.33333330","name":"Lopingchow"},{"id":"437567","latitude":"24.96666670","longitude":"104.33333330","name":"Lopinghsien"},{"id":"437569","latitude":"24.96666670","longitude":"104.33333330","name":"Loping"},{"id":"437606","latitude":"26.23333330","longitude":"102.93333330","name":"Loshui"},{"id":"437656","latitude":"25.30611110","longitude":"102.29388890","name":"Lotzuhsien"},{"id":"437658","latitude":"25.30611110","longitude":"102.29388890","name":"Lotzu"},{"id":"437928","latitude":"24.97083330","longitude":"102.26388890","name":"Lubiao"},{"id":"437940","latitude":"25.96666670","longitude":"98.83333330","name":"Luchangchieh"},{"id":"437941","latitude":"25.96666670","longitude":"98.83333330","name":"Luchanghsiang"},{"id":"437943","latitude":"25.96666670","longitude":"98.83333330","name":"Luchang"},{"id":"437945","latitude":"25.96666670","longitude":"98.83333330","name":"Luchangshangchai"},{"id":"437964","latitude":"25.03638890","longitude":"101.54555560","name":"Luchengzhen"},{"id":"438054","latitude":"25.55444440","longitude":"102.46500000","name":"Luch\u00fcanhsien"},{"id":"438056","latitude":"25.55444440","longitude":"102.46500000","name":"Luch\u00fcan"},{"id":"438060","latitude":"23.01333330","longitude":"102.33888890","name":"L\u00fcchun"},{"id":"438093","latitude":"27.18333330","longitude":"103.55000000","name":"Ludian"},{"id":"438124","latitude":"25.14361110","longitude":"102.07527780","name":"Lufenghsien"},{"id":"438129","latitude":"25.14361110","longitude":"102.07527780","name":"Lufeng"},{"id":"438132","latitude":"24.57250000","longitude":"103.11527780","name":"Lufengtsun"},{"id":"438134","latitude":"24.75861110","longitude":"103.26527780","name":"Lufu"},{"id":"438177","latitude":"25.14916670","longitude":"101.38250000","name":"L\u00fche"},{"id":"438184","latitude":"25.14916670","longitude":"101.38250000","name":"L\u00fchochen"},{"id":"438188","latitude":"25.14916670","longitude":"101.38250000","name":"L\u00fcho"},{"id":"438200","latitude":"24.45000000","longitude":"98.60000000","name":"Luhsihsien"},{"id":"438205","latitude":"24.26666670","longitude":"98.28333330","name":"Luhsi"},{"id":"438207","latitude":"24.26666670","longitude":"98.28333330","name":"Luhsishechihch\u00fc"},{"id":"438338","latitude":"24.33000000","longitude":"102.84944440","name":"Luju"},{"id":"438403","latitude":"25.05000000","longitude":"103.65000000","name":"Lulianghsien"},{"id":"438406","latitude":"25.05000000","longitude":"103.65000000","name":"Luliang"},{"id":"438443","latitude":"27.05000000","longitude":"98.88333330","name":"Lumadeng"},{"id":"438451","latitude":"24.81694440","longitude":"103.27000000","name":"Lumeiyi"},{"id":"438462","latitude":"26.25000000","longitude":"103.65000000","name":"Luna"},{"id":"438463","latitude":"24.75861110","longitude":"103.26527780","name":"Lunanchow"},{"id":"438465","latitude":"24.75861110","longitude":"103.26527780","name":"Lunanhsien"},{"id":"438466","latitude":"24.75861110","longitude":"103.26527780","name":"Lunanitsutzuchihhsien"},{"id":"438470","latitude":"24.75861110","longitude":"103.26527780","name":"Lunan"},{"id":"438499","latitude":"24.89333330","longitude":"102.79666670","name":"Lungchengchen"},{"id":"438523","latitude":"25.66583330","longitude":"101.54416670","name":"Lungchieh"},{"id":"438554","latitude":"25.19444440","longitude":"101.27333330","name":"Lungchuanchen"},{"id":"438572","latitude":"24.20000000","longitude":"97.80000000","name":"Lungchuan"},{"id":"438586","latitude":"24.35000000","longitude":"97.93333330","name":"Lungchwan"},{"id":"438673","latitude":"24.68333330","longitude":"100.80000000","name":"Lungkai"},{"id":"438720","latitude":"22.98472220","longitude":"103.75666670","name":"Lungku"},{"id":"438730","latitude":"24.58333330","longitude":"98.68333330","name":"Lunglinghsien"},{"id":"438731","latitude":"24.58333330","longitude":"98.68333330","name":"Lungling"},{"id":"438783","latitude":"23.88166670","longitude":"102.56527780","name":"Lungpengchen"},{"id":"438784","latitude":"23.88166670","longitude":"102.56527780","name":"Lungpengli"},{"id":"438785","latitude":"23.88166670","longitude":"102.56527780","name":"Lungpeng"},{"id":"438868","latitude":"23.88333330","longitude":"97.65000000","name":"Lungtaochieh"},{"id":"438869","latitude":"23.88333330","longitude":"97.65000000","name":"Lungtao"},{"id":"438895","latitude":"27.11833330","longitude":"103.39000000","name":"Lungtoushan"},{"id":"438953","latitude":"23.88166670","longitude":"102.56527780","name":"Lungwu"},{"id":"438954","latitude":"23.98138890","longitude":"102.31444440","name":"Lungwushechihch\u00fc"},{"id":"439038","latitude":"26.43333330","longitude":"98.86666670","name":"Luobenzhuo"},{"id":"439055","latitude":"22.63027780","longitude":"103.94611110","name":"Luochai (1)"},{"id":"439073","latitude":"25.85000000","longitude":"102.25000000","name":"Luoci"},{"id":"439083","latitude":"24.53333330","longitude":"100.01666670","name":"Luodang"},{"id":"439207","latitude":"23.54333330","longitude":"104.18527780","name":"Luojiayi"},{"id":"439232","latitude":"23.83638890","longitude":"104.53972220","name":"Luojuhei"},{"id":"439233","latitude":"27.70000000","longitude":"104.68333330","name":"Luokan"},{"id":"439290","latitude":"24.96666670","longitude":"104.33333330","name":"Luoping"},{"id":"439347","latitude":"23.17138890","longitude":"102.26916670","name":"Luosi"},{"id":"439416","latitude":"24.96666670","longitude":"104.33333330","name":"Luoxiong"},{"id":"439418","latitude":"26.23333330","longitude":"102.93333330","name":"Luoxue"},{"id":"439501","latitude":"24.97083330","longitude":"102.26388890","name":"Lupiaochieh"},{"id":"439502","latitude":"24.97083330","longitude":"102.26388890","name":"Lupiao"},{"id":"439532","latitude":"25.55444440","longitude":"102.46500000","name":"Luquan"},{"id":"439577","latitude":"24.83333330","longitude":"99.96666670","name":"Lushih"},{"id":"439584","latitude":"24.83333330","longitude":"99.96666670","name":"Lushi"},{"id":"439591","latitude":"25.96666670","longitude":"98.83333330","name":"Lushui"},{"id":"439593","latitude":"25.96666670","longitude":"98.83333330","name":"Lushuishechihch\u00fc"},{"id":"439603","latitude":"24.51666670","longitude":"103.76666670","name":"Lusihsien"},{"id":"439608","latitude":"24.31666670","longitude":"98.46666670","name":"Lusi"},{"id":"439642","latitude":"27.18333330","longitude":"103.55000000","name":"Lutienhsien"},{"id":"439646","latitude":"27.18333330","longitude":"103.55000000","name":"Lutien"},{"id":"439649","latitude":"27.18333330","longitude":"103.55000000","name":"Lutienting"},{"id":"439736","latitude":"24.45000000","longitude":"98.60000000","name":"Luxi"},{"id":"439795","latitude":"25.96666670","longitude":"98.83333330","name":"Luzhangjie"},{"id":"439797","latitude":"25.96666670","longitude":"98.83333330","name":"Luzhang"},{"id":"439886","latitude":"23.03333330","longitude":"104.40000000","name":"Mabai"},{"id":"439892","latitude":"23.84500000","longitude":"105.04361110","name":"Mabao"},{"id":"439894","latitude":"28.58333330","longitude":"98.80000000","name":"Mabating"},{"id":"439920","latitude":"25.15000000","longitude":"98.46666670","name":"Machanchieh"},{"id":"439948","latitude":"25.15000000","longitude":"98.46666670","name":"Machan"},{"id":"439972","latitude":"23.74166670","longitude":"103.41694440","name":"Macheshao"},{"id":"440068","latitude":"25.77166670","longitude":"102.92333330","name":"Machieh"},{"id":"440089","latitude":"27.43333330","longitude":"98.88333330","name":"Machi"},{"id":"440167","latitude":"26.43333330","longitude":"99.60000000","name":"Madeng"},{"id":"440176","latitude":"25.93416670","longitude":"102.99833330","name":"Madian"},{"id":"440251","latitude":"23.03333330","longitude":"104.40000000","name":"Maguan"},{"id":"440314","latitude":"22.57444440","longitude":"103.90611110","name":"Mahuangpu"},{"id":"440403","latitude":"24.13333330","longitude":"100.05000000","name":"Maitui"},{"id":"440534","latitude":"23.26611110","longitude":"102.64277780","name":"Majie"},{"id":"440535","latitude":"25.03333330","longitude":"102.63611110","name":"Majiezi"},{"id":"440546","latitude":"27.43333330","longitude":"98.88333330","name":"Maji"},{"id":"440564","latitude":"25.70611110","longitude":"101.87638890","name":"Makai"},{"id":"440583","latitude":"22.68555560","longitude":"103.96194440","name":"Mako"},{"id":"440594","latitude":"27.62194440","longitude":"103.30666670","name":"Makou"},{"id":"440596","latitude":"23.03333330","longitude":"104.40000000","name":"Makuanhsien"},{"id":"440597","latitude":"23.03333330","longitude":"104.40000000","name":"Makuan"},{"id":"440609","latitude":"23.03333330","longitude":"104.40000000","name":"Makwanhsien"},{"id":"440610","latitude":"23.03333330","longitude":"104.40000000","name":"Makwan"},{"id":"440670","latitude":"24.98333330","longitude":"98.86666670","name":"Maliaopu"},{"id":"440673","latitude":"23.15000000","longitude":"104.73333330","name":"Malichen"},{"id":"440694","latitude":"23.15000000","longitude":"104.73333330","name":"Mali"},{"id":"440723","latitude":"23.15000000","longitude":"104.73333330","name":"Malipokungshe"},{"id":"440724","latitude":"23.15000000","longitude":"104.73333330","name":"Malipo"},{"id":"440725","latitude":"23.15000000","longitude":"104.73333330","name":"Maliposhih"},{"id":"440736","latitude":"23.42222220","longitude":"105.13805560","name":"Malong"},{"id":"440766","latitude":"25.40000000","longitude":"103.56666670","name":"Malunghsien"},{"id":"440768","latitude":"23.42222220","longitude":"105.13805560","name":"Malung"},{"id":"440775","latitude":"26.16666670","longitude":"102.56666670","name":"Malutang"},{"id":"440781","latitude":"25.27250000","longitude":"103.37500000","name":"Mamatsun"},{"id":"440791","latitude":"25.27250000","longitude":"103.37500000","name":"Mamingchen"},{"id":"440792","latitude":"25.27250000","longitude":"103.37500000","name":"Maming"},{"id":"440794","latitude":"25.27250000","longitude":"103.37500000","name":"Mamingzhen"},{"id":"440804","latitude":"22.81666670","longitude":"100.78333330","name":"Mamu"},{"id":"440805","latitude":"21.61666670","longitude":"101.30000000","name":"Mamushu"},{"id":"440862","latitude":"23.98333330","longitude":"99.10000000","name":"Mangbing"},{"id":"440863","latitude":"27.65000000","longitude":"104.86666670","name":"Mangbu"},{"id":"440869","latitude":"24.26666670","longitude":"98.28333330","name":"Mangchepan"},{"id":"440882","latitude":"24.50000000","longitude":"100.50000000","name":"Manghuai"},{"id":"440885","latitude":"25.40000000","longitude":"98.85000000","name":"Mangkuan"},{"id":"440895","latitude":"27.65000000","longitude":"104.86666670","name":"Mangpu"},{"id":"440899","latitude":"22.03333330","longitude":"100.25000000","name":"Mangse"},{"id":"440904","latitude":"24.45000000","longitude":"98.60000000","name":"Mangshihchieh"},{"id":"440906","latitude":"24.45000000","longitude":"98.60000000","name":"Mangshih"},{"id":"440908","latitude":"24.45000000","longitude":"98.60000000","name":"Mangshi"},{"id":"440909","latitude":"24.90000000","longitude":"99.73333330","name":"Mangshui"},{"id":"440911","latitude":"23.30000000","longitude":"100.98333330","name":"Mangu"},{"id":"440920","latitude":"23.01666670","longitude":"103.34861110","name":"Manhao"},{"id":"440925","latitude":"22.54166670","longitude":"103.97555560","name":"Manhun"},{"id":"440930","latitude":"23.05000000","longitude":"101.85000000","name":"Manijie"},{"id":"440938","latitude":"23.90000000","longitude":"100.03333330","name":"Maning"},{"id":"440965","latitude":"22.08333330","longitude":"100.60000000","name":"Manmai"},{"id":"440966","latitude":"23.00000000","longitude":"101.31666670","name":"Manmujie"},{"id":"440967","latitude":"22.72583330","longitude":"103.75694440","name":"Manniang"},{"id":"440970","latitude":"22.63388890","longitude":"103.82083330","name":"Manpa"},{"id":"441000","latitude":"24.56666670","longitude":"97.76666670","name":"Manwaing"},{"id":"441005","latitude":"24.56666670","longitude":"97.76666670","name":"Many\u00fcnchieh"},{"id":"441006","latitude":"24.56666670","longitude":"97.76666670","name":"Manyunjie"},{"id":"441007","latitude":"24.56666670","longitude":"97.76666670","name":"Many\u00fcn"},{"id":"441205","latitude":"25.52611110","longitude":"102.14750000","name":"Maojie"},{"id":"441231","latitude":"24.60000000","longitude":"100.25000000","name":"Maolan"},{"id":"441269","latitude":"23.31666670","longitude":"100.28333330","name":"Maomiching"},{"id":"441270","latitude":"23.31666670","longitude":"100.28333330","name":"Maomi"},