[{"id":"382316","latitude":"32.83333330","longitude":"95.16666670","name":"Adoi"},{"id":"382335","latitude":"36.41666670","longitude":"94.60000000","name":"Aerhtunch\u00fcko"},{"id":"382336","latitude":"36.36666670","longitude":"94.91666670","name":"Aerhtunch\u00fckochunghsinch\u00fc"},{"id":"382337","latitude":"36.36666670","longitude":"94.91666670","name":"Aerhtunch\u00fckohasakotsutzuchihch\u00fc"},{"id":"382345","latitude":"36.12250000","longitude":"101.57972220","name":"Agong"},{"id":"382351","latitude":"37.03888890","longitude":"98.46277780","name":"Ahandalaisi"},{"id":"382401","latitude":"36.60000000","longitude":"97.60000000","name":"Ailikesilun"},{"id":"382414","latitude":"35.13333330","longitude":"91.83333330","name":"Ainulikaierhko"},{"id":"382466","latitude":"36.80000000","longitude":"91.10000000","name":"Akochukosai"},{"id":"382508","latitude":"36.80000000","longitude":"91.10000000","name":"Akxokesay"},{"id":"382515","latitude":"38.16666670","longitude":"90.68333330","name":"Alaerh"},{"id":"382535","latitude":"35.50000000","longitude":"99.43333330","name":"Alhla"},{"id":"382540","latitude":"38.10000000","longitude":"100.50000000","name":"Aliko"},{"id":"382560","latitude":"36.41666670","longitude":"94.60000000","name":"Altenqoke"},{"id":"382753","latitude":"33.10000000","longitude":"92.30000000","name":"Angcai"},{"id":"382762","latitude":"36.16888890","longitude":"102.05361110","name":"Angsiduo"},{"id":"382763","latitude":"36.16888890","longitude":"102.05361110","name":"Angssuto"},{"id":"383355","latitude":"38.10000000","longitude":"98.80000000","name":"Aorgen"},{"id":"383422","latitude":"38.16666670","longitude":"90.68333330","name":"Aral"},{"id":"383436","latitude":"38.10000000","longitude":"100.50000000","name":"Arig"},{"id":"383467","latitude":"36.12250000","longitude":"101.57972220","name":"Ashihkung"},{"id":"383470","latitude":"36.12250000","longitude":"101.57972220","name":"Ashkung"},{"id":"383526","latitude":"33.20000000","longitude":"96.20000000","name":"Ayunggoinba"},{"id":"383536","latitude":"37.40000000","longitude":"98.66666670","name":"Azizeka"},{"id":"383552","latitude":"38.18055560","longitude":"100.24027780","name":"Babao"},{"id":"383571","latitude":"35.70000000","longitude":"100.50000000","name":"Bacang"},{"id":"383577","latitude":"38.96666670","longitude":"94.31666670","name":"Bachanar\u00f6n"},{"id":"383578","latitude":"38.96666670","longitude":"94.31666670","name":"BachaNaryn"},{"id":"383669","latitude":"38.96666670","longitude":"94.31666670","name":"Baganalin"},{"id":"383670","latitude":"38.96666670","longitude":"94.31666670","name":"Baga Nariin"},{"id":"383671","latitude":"38.96666670","longitude":"94.31666670","name":"Baga Narin"},{"id":"383672","latitude":"33.96666670","longitude":"96.43333330","name":"Bagan"},{"id":"383676","latitude":"35.83333330","longitude":"98.53333330","name":"Bag Belqer"},{"id":"383680","latitude":"38.96666670","longitude":"94.31666670","name":"Bag Narin"},{"id":"383691","latitude":"35.28333330","longitude":"100.43333330","name":"Bagou"},{"id":"384132","latitude":"32.96666670","longitude":"100.70000000","name":"Baima"},{"id":"384261","latitude":"36.09555560","longitude":"102.26111110","name":"Ba\u00efn rong"},{"id":"384277","latitude":"32.78333330","longitude":"100.63333330","name":"Baiq\u00ean"},{"id":"384505","latitude":"32.91666670","longitude":"97.05000000","name":"Baitang"},{"id":"384701","latitude":"33.25000000","longitude":"100.70000000","name":"Baiy\u00fcgoinba"},{"id":"384756","latitude":"35.71916670","longitude":"102.57472220","name":"Baizhuang"},{"id":"385264","latitude":"35.61750000","longitude":"102.07083330","name":"Baoan"},{"id":"385639","latitude":"36.16666670","longitude":"97.33333330","name":"Baron"},{"id":"385641","latitude":"36.16666670","longitude":"97.33333330","name":"Baronkure"},{"id":"385643","latitude":"35.90000000","longitude":"97.40000000","name":"Barun"},{"id":"385650","latitude":"36.16666670","longitude":"97.33333330","name":"Baruun"},{"id":"385653","latitude":"33.73333330","longitude":"100.60000000","name":"Basar"},{"id":"385685","latitude":"35.25000000","longitude":"100.60000000","name":"Batan"},{"id":"385753","latitude":"36.76611110","longitude":"101.13194440","name":"Bayan"},{"id":"385849","latitude":"38.18055560","longitude":"100.24027780","name":"Bayuy"},{"id":"385859","latitude":"36.19500000","longitude":"102.73166670","name":"Bazhou"},{"id":"385884","latitude":"32.08333330","longitude":"96.50000000","name":"B\u00eaca"},{"id":"385885","latitude":"31.93333330","longitude":"96.60000000","name":"B\u00eacaka"},{"id":"385886","latitude":"36.76666670","longitude":"91.70000000","name":"Behleg"},{"id":"386220","latitude":"34.96666670","longitude":"92.95000000","name":"Beilu Heyan"},{"id":"386588","latitude":"32.60000000","longitude":"96.70000000","name":"B\u00eama"},{"id":"386629","latitude":"37.45000000","longitude":"101.81666670","name":"Beydatun"},{"id":"386702","latitude":"36.80000000","longitude":"91.48333330","name":"Bielisai"},{"id":"386800","latitude":"33.88333330","longitude":"92.33333330","name":"Bi Qu"},{"id":"386891","latitude":"37.38333330","longitude":"100.46666670","name":"Boincang"},{"id":"386923","latitude":"36.48333330","longitude":"92.40000000","name":"Boluntay"},{"id":"386951","latitude":"33.55000000","longitude":"99.78333330","name":"Borba"},{"id":"387036","latitude":"35.53333330","longitude":"93.90000000","name":"Budongquan"},{"id":"387081","latitude":"36.48333330","longitude":"92.40000000","name":"Bulantai"},{"id":"387082","latitude":"36.48333330","longitude":"92.40000000","name":"Bulantay"},{"id":"387192","latitude":"36.61666670","longitude":"98.23333330","name":"Cacakongma"},{"id":"387193","latitude":"36.66666670","longitude":"98.16666670","name":"Cacaxingka"},{"id":"387319","latitude":"34.46666670","longitude":"98.83333330","name":"Cairiwa"},{"id":"387379","latitude":"36.75000000","longitude":"99.10000000","name":"Caka"},{"id":"387520","latitude":"38.06666670","longitude":"100.43333330","name":"Cao Daban"},{"id":"387603","latitude":"36.61666670","longitude":"102.03333330","name":"Caojiapu"},{"id":"387812","latitude":"37.58388890","longitude":"100.43361110","name":"C\u00eatar"},{"id":"387846","latitude":"36.75000000","longitude":"99.10000000","name":"Chachia"},{"id":"387860","latitude":"33.10000000","longitude":"95.23333330","name":"Chaching"},{"id":"387894","latitude":"36.75000000","longitude":"95.10000000","name":"Chaerhhan"},{"id":"387904","latitude":"34.31666670","longitude":"94.96666670","name":"Chaggur"},{"id":"387906","latitude":"34.70000000","longitude":"101.60000000","name":"Chagmar"},{"id":"387916","latitude":"36.75000000","longitude":"99.10000000","name":"Chaha"},{"id":"387930","latitude":"36.16666670","longitude":"98.26666670","name":"Chahanwusu"},{"id":"388110","latitude":"36.75000000","longitude":"99.10000000","name":"Chaka"},{"id":"388152","latitude":"34.10000000","longitude":"97.60000000","name":"Chala Gou"},{"id":"388158","latitude":"34.13333330","longitude":"97.73333330","name":"Chalakou"},{"id":"388164","latitude":"34.13333330","longitude":"97.73333330","name":"Chalaping"},{"id":"388165","latitude":"34.13333330","longitude":"97.73333330","name":"Chalaxung"},{"id":"388167","latitude":"38.03333330","longitude":"93.90000000","name":"Chalengkou"},{"id":"388172","latitude":"35.08333330","longitude":"97.70000000","name":"Chaling"},{"id":"388185","latitude":"34.13333330","longitude":"97.73333330","name":"Chalopang"},{"id":"388210","latitude":"36.66972220","longitude":"101.42194440","name":"Chamalung"},{"id":"389116","latitude":"34.55000000","longitude":"99.30000000","name":"Changmaho"},{"id":"389599","latitude":"38.31666670","longitude":"92.11666670","name":"Changweiliang"},{"id":"390206","latitude":"36.21055560","longitude":"102.02777780","name":"Chapa"},{"id":"390241","latitude":"36.95000000","longitude":"97.65000000","name":"Chapusakahsiu"},{"id":"390255","latitude":"37.23416670","longitude":"100.41277780","name":"Chargi"},{"id":"390723","latitude":"33.36666670","longitude":"97.13333330","name":"Chendo"},{"id":"391176","latitude":"33.36666670","longitude":"97.13333330","name":"Chengto"},{"id":"391177","latitude":"33.36666670","longitude":"97.13333330","name":"Chengtohsien"},{"id":"391923","latitude":"33.90000000","longitude":"95.60000000","name":"Chiachipoloko"},{"id":"391938","latitude":"37.23416670","longitude":"100.41277780","name":"Chiaerhchi"},{"id":"392135","latitude":"36.63333330","longitude":"100.26666670","name":"Chianghsikou"},{"id":"392232","latitude":"33.85000000","longitude":"94.95000000","name":"Chiangsai"},{"id":"392508","latitude":"36.93500000","longitude":"101.67361110","name":"Chiaotouchen"},{"id":"392514","latitude":"36.93500000","longitude":"101.67361110","name":"Chiaotou"},{"id":"392572","latitude":"36.28138890","longitude":"100.61305560","name":"Chiapaitaleng"},{"id":"392581","latitude":"36.28138890","longitude":"100.61305560","name":"Chiapuchiachen"},{"id":"392582","latitude":"36.28138890","longitude":"100.61305560","name":"Chiapuchia"},{"id":"392583","latitude":"36.28138890","longitude":"100.61305560","name":"Chiapuchiakou"},{"id":"392805","latitude":"33.05000000","longitude":"95.45000000","name":"Chiehcha"},{"id":"392852","latitude":"33.01666670","longitude":"96.73333330","name":"Chiehkuchen"},{"id":"392853","latitude":"33.01666670","longitude":"96.73333330","name":"Chiehku"},{"id":"392854","latitude":"33.01666670","longitude":"96.73333330","name":"Chiehkushih"},{"id":"392856","latitude":"33.01666670","longitude":"96.73333330","name":"Chiehkuto"},{"id":"392948","latitude":"35.93805560","longitude":"102.02722220","name":"Chiencha"},{"id":"393407","latitude":"33.43333330","longitude":"101.43333330","name":"Chihchingsungto"},{"id":"393498","latitude":"33.00000000","longitude":"97.10000000","name":"Chihmenta"},{"id":"393601","latitude":"33.90000000","longitude":"95.60000000","name":"Chihto"},{"id":"393734","latitude":"38.18055560","longitude":"100.24027780","name":"Chilien"},{"id":"393736","latitude":"38.18055560","longitude":"100.24027780","name":"Chilienshechihch\u00fc"},{"id":"393811","latitude":"33.80000000","longitude":"99.86666670","name":"Chimai"},{"id":"393993","latitude":"33.36666670","longitude":"97.13333330","name":"Chindu"},{"id":"394421","latitude":"37.46666670","longitude":"101.43333330","name":"Chingshihtsui"},{"id":"394440","latitude":"33.80000000","longitude":"97.11666670","name":"Chingshuiho"},{"id":"394455","latitude":"35.83638890","longitude":"102.55555560","name":"Chingshuikung"},{"id":"394471","latitude":"33.80000000","longitude":"97.11666670","name":"Ching SuiHo"},{"id":"394887","latitude":"33.36666670","longitude":"97.13333330","name":"Chinto"},{"id":"395007","latitude":"35.84777780","longitude":"102.48361110","name":"Chishih"},{"id":"395087","latitude":"33.80000000","longitude":"99.86666670","name":"Chitien"},{"id":"395124","latitude":"34.45000000","longitude":"95.23333330","name":"Chitukou"},{"id":"395210","latitude":"33.43333330","longitude":"101.43333330","name":"Chiuchih"},{"id":"395445","latitude":"37.83333330","longitude":"91.76666670","name":"Chiumangyai"},{"id":"395538","latitude":"33.83333330","longitude":"99.26666670","name":"Chiutajih"},{"id":"395929","latitude":"33.36666670","longitude":"97.13333330","name":"Chouch\u00fcn"},{"id":"396008","latitude":"35.86666670","longitude":"101.60000000","name":"Choutun"},{"id":"396026","latitude":"33.36666670","longitude":"97.13333330","name":"Chouy\u00fcn"},{"id":"396034","latitude":"33.36666670","longitude":"97.13333330","name":"Chowkin"},{"id":"396192","latitude":"36.33583330","longitude":"102.81972220","name":"Chuankou"},{"id":"396322","latitude":"35.56666670","longitude":"98.56666670","name":"Chubxi"},{"id":"396431","latitude":"33.45000000","longitude":"97.00000000","name":"Chuchiehssu"},{"id":"396517","latitude":"33.43333330","longitude":"101.43333330","name":"Chugq\u00eansumdo"},{"id":"396639","latitude":"36.13722220","longitude":"100.81888890","name":"Ch\u00fckou"},{"id":"396661","latitude":"37.16666670","longitude":"102.33333330","name":"Chukussu"},{"id":"396712","latitude":"35.30000000","longitude":"93.30000000","name":"Ch\u00fcmaerhhoyen"},{"id":"396713","latitude":"34.80000000","longitude":"94.88333330","name":"Chumaerhlapoteng"},{"id":"396723","latitude":"33.00000000","longitude":"97.10000000","name":"Chumda"},{"id":"397241","latitude":"33.36666670","longitude":"97.13333330","name":"Chuqung"},{"id":"397282","latitude":"36.35555560","longitude":"102.29555560","name":"Ch\u00fctanssu"},{"id":"397355","latitude":"33.83333330","longitude":"92.56666670","name":"Chuxi"},{"id":"397583","latitude":"34.83333330","longitude":"97.33333330","name":"Cowargarz\u00ea"},{"id":"397874","latitude":"36.90000000","longitude":"95.40000000","name":"Dabsan"},{"id":"397918","latitude":"39.00000000","longitude":"92.96666670","name":"Dachaigou"},{"id":"398201","latitude":"38.23333330","longitude":"92.05000000","name":"Dafengshan"},{"id":"398267","latitude":"38.63333330","longitude":"99.23333330","name":"Dageda"},{"id":"398275","latitude":"33.00000000","longitude":"100.05000000","name":"Dagkar"},{"id":"398299","latitude":"35.06666670","longitude":"99.83333330","name":"Dagtang"},{"id":"398300","latitude":"33.96666670","longitude":"99.06666670","name":"Dagtog"},{"id":"398356","latitude":"36.41666670","longitude":"95.73333330","name":"Dagur"},{"id":"398383","latitude":"35.83333330","longitude":"99.98333330","name":"Daheba"},{"id":"398792","latitude":"36.60000000","longitude":"94.10000000","name":"Da Juh"},{"id":"398828","latitude":"33.98333330","longitude":"95.66666670","name":"Dakog"},{"id":"398930","latitude":"37.86666670","longitude":"101.16666670","name":"Daliang"},{"id":"399144","latitude":"35.58333330","longitude":"100.50000000","name":"Dalung"},{"id":"399221","latitude":"37.50000000","longitude":"96.16666670","name":"Dameigou"},{"id":"399286","latitude":"33.66666670","longitude":"95.85000000","name":"Damjong"},{"id":"399308","latitude":"33.13333330","longitude":"94.30000000","name":"Damxung"},{"id":"399602","latitude":"36.39888890","longitude":"100.96527780","name":"Daotanghe"},{"id":"399742","latitude":"37.83333330","longitude":"95.30000000","name":"Da Qaidam"},{"id":"399743","latitude":"37.83333330","longitude":"95.30000000","name":"Da Qaidamzhen"},{"id":"399841","latitude":"32.56666670","longitude":"95.98333330","name":"Daraka"},{"id":"399861","latitude":"33.80000000","longitude":"99.86666670","name":"Darlag"},{"id":"400065","latitude":"36.61666670","longitude":"99.40000000","name":"Dashuiqiao"},{"id":"400123","latitude":"32.40000000","longitude":"96.70000000","name":"Da Surmang"},{"id":"400126","latitude":"36.48000000","longitude":"102.19916670","name":"Dasya"},{"id":"400263","latitude":"37.78333330","longitude":"95.50000000","name":"Datouyang"},{"id":"400407","latitude":"34.40000000","longitude":"100.10000000","name":"Dawo"},{"id":"400424","latitude":"34.40000000","longitude":"100.10000000","name":"Dawu"},{"id":"400448","latitude":"37.91666670","longitude":"91.20000000","name":"Dawusi"},{"id":"400458","latitude":"36.48000000","longitude":"102.19916670","name":"Daxia"},{"id":"400986","latitude":"35.98333330","longitude":"102.20000000","name":"Dehenglong"},{"id":"401003","latitude":"33.98333330","longitude":"92.60000000","name":"Deliechuka"},{"id":"401005","latitude":"37.38333330","longitude":"97.38333330","name":"Delingha"},{"id":"401006","latitude":"37.31666670","longitude":"97.21666670","name":"Delingha Nongchang"},{"id":"401142","latitude":"33.90000000","longitude":"96.43333330","name":"D\u00earlagsumdo"},{"id":"401143","latitude":"33.43333330","longitude":"100.16666670","name":"D\u00earnang"},{"id":"401392","latitude":"38.80000000","longitude":"97.86666670","name":"Diguojiadang"},{"id":"401432","latitude":"32.70000000","longitude":"100.91666670","name":"Dimda"},{"id":"401693","latitude":"38.90000000","longitude":"93.43333330","name":"Dingzikou"},{"id":"401779","latitude":"35.18333330","longitude":"101.83333330","name":"Dobdain"},{"id":"401785","latitude":"35.08333330","longitude":"101.83333330","name":"Dogarmo"},{"id":"401787","latitude":"38.16666670","longitude":"98.35000000","name":"Dogy\u00fcquka"},{"id":"401788","latitude":"33.83333330","longitude":"95.46666670","name":"Doic\u00ea"},{"id":"401800","latitude":"37.65000000","longitude":"101.20000000","name":"Dolon"},{"id":"401808","latitude":"32.30000000","longitude":"95.61666670","name":"Domba"},{"id":"401810","latitude":"33.80000000","longitude":"97.11666670","name":"Domda"},{"id":"401811","latitude":"34.51666670","longitude":"99.98333330","name":"Domkog"},{"id":"401812","latitude":"33.33333330","longitude":"100.50000000","name":"Domta"},{"id":"401955","latitude":"37.33333330","longitude":"101.83333330","name":"Dongchuan"},{"id":"402127","latitude":"35.96666670","longitude":"101.50000000","name":"Donggou"},{"id":"403268","latitude":"32.91666670","longitude":"96.63333330","name":"Doramarkog"},{"id":"403376","latitude":"36.65500000","longitude":"101.55611110","name":"Dowa"},{"id":"403386","latitude":"36.75000000","longitude":"99.10000000","name":"Dsacha"},{"id":"403611","latitude":"37.00472220","longitude":"98.60944440","name":"Dulaan Hiid"},{"id":"403612","latitude":"36.16666670","longitude":"98.26666670","name":"Dulan"},{"id":"403614","latitude":"37.00472220","longitude":"98.60944440","name":"Dulankit"},{"id":"403615","latitude":"37.00472220","longitude":"98.60944440","name":"Dulankit Gompa"},{"id":"403616","latitude":"37.00472220","longitude":"98.60944440","name":"Dulankyt"},{"id":"403617","latitude":"37.00472220","longitude":"98.60944440","name":"Dulansi"},{"id":"403618","latitude":"37.00472220","longitude":"98.60944440","name":"Dulanssu"},{"id":"403744","latitude":"36.61666670","longitude":"92.65000000","name":"Duokake"},{"id":"403790","latitude":"34.40000000","longitude":"100.13333330","name":"Durngoi"},{"id":"403885","latitude":"36.75000000","longitude":"99.10000000","name":"Dzaha"},{"id":"403886","latitude":"33.01666670","longitude":"96.73333330","name":"Dzhekundo"},{"id":"403895","latitude":"37.95000000","longitude":"101.05000000","name":"Ebo"},{"id":"404017","latitude":"34.63333330","longitude":"92.83333330","name":"Erdaogou"},{"id":"404188","latitude":"36.66333330","longitude":"101.71027780","name":"Erhshihlipu"},{"id":"404208","latitude":"36.10000000","longitude":"100.45000000","name":"Erhtala"},{"id":"404230","latitude":"34.63333330","longitude":"92.83333330","name":"Erhtaokou"},{"id":"404360","latitude":"36.66333330","longitude":"101.71027780","name":"Ershilipu"},{"id":"404389","latitude":"36.10000000","longitude":"100.45000000","name":"Ertala"},{"id":"406835","latitude":"37.45000000","longitude":"101.81666670","name":"Fuyuan"},{"id":"406901","latitude":"36.28138890","longitude":"100.61305560","name":"Gabadalen"},{"id":"406902","latitude":"35.26666670","longitude":"100.53333330","name":"Gabasumdo"},{"id":"406904","latitude":"33.96666670","longitude":"99.86666670","name":"Gade"},{"id":"406905","latitude":"37.76666670","longitude":"100.53333330","name":"Gad\u00eagoinba"},{"id":"406909","latitude":"37.15611110","longitude":"97.56861110","name":"Gahai"},{"id":"406911","latitude":"38.80000000","longitude":"97.63333330","name":"Gahe"},{"id":"406913","latitude":"37.26666670","longitude":"99.85000000","name":"Gaidaingoinba"},{"id":"406918","latitude":"33.40000000","longitude":"97.06666670","name":"Gaisanggoin"},{"id":"406955","latitude":"37.06666670","longitude":"102.33333330","name":"Ganchansi"},{"id":"406975","latitude":"35.88972220","longitude":"102.32305560","name":"Gando"},{"id":"406977","latitude":"35.88972220","longitude":"102.32305560","name":"Ganducheng"},{"id":"406978","latitude":"35.88972220","longitude":"102.32305560","name":"Gandu"},{"id":"406980","latitude":"35.88972220","longitude":"102.32305560","name":"Gandutan"},{"id":"406991","latitude":"37.53916670","longitude":"100.08888890","name":"Gangca Dasi"},{"id":"406992","latitude":"37.32527780","longitude":"100.12750000","name":"Gangca"},{"id":"406993","latitude":"37.53916670","longitude":"100.08888890","name":"Gangcagonqen"},{"id":"406995","latitude":"37.26666670","longitude":"100.10000000","name":"Gangca Zhan"},{"id":"407055","latitude":"39.00000000","longitude":"97.06666670","name":"Gangou"},{"id":"407122","latitude":"37.12305560","longitude":"98.86361110","name":"Gangyur"},{"id":"407154","latitude":"37.16666670","longitude":"100.58333330","name":"Ganjig"},{"id":"407189","latitude":"37.46666670","longitude":"92.31666670","name":"Ganq"},{"id":"407210","latitude":"37.46666670","longitude":"92.31666670","name":"Gansi"},{"id":"407211","latitude":"37.46666670","longitude":"92.31666670","name":"Gans\u00f6"},{"id":"407212","latitude":"37.46666670","longitude":"92.31666670","name":"GansunKhoitu"},{"id":"407213","latitude":"37.46666670","longitude":"92.31666670","name":"Gansy"},{"id":"407238","latitude":"37.46666670","longitude":"92.31666670","name":"Gantsa"},{"id":"407670","latitude":"36.44500000","longitude":"102.53805560","name":"Gaomiao"},{"id":"407971","latitude":"36.51611110","longitude":"101.99222220","name":"Gaozhai"},{"id":"408016","latitude":"36.21305560","longitude":"101.55888890","name":"Garang"},{"id":"408017","latitude":"35.20000000","longitude":"101.90000000","name":"Garangsi"},{"id":"408025","latitude":"35.73333330","longitude":"100.23333330","name":"Garmoyangkyi"},{"id":"408027","latitude":"33.86666670","longitude":"92.35000000","name":"Garqu Yan"},{"id":"408040","latitude":"36.68333330","longitude":"98.80000000","name":"Gaxiugou"},{"id":"408041","latitude":"32.08333330","longitude":"95.66666670","name":"Gaxung"},{"id":"408043","latitude":"36.33333330","longitude":"95.30000000","name":"Gayahe"},{"id":"408156","latitude":"36.42555560","longitude":"102.62111110","name":"Gemingcheng"},{"id":"408303","latitude":"38.20388890","longitude":"100.01500000","name":"Gezidong"},{"id":"408315","latitude":"37.20000000","longitude":"97.00000000","name":"Gobi"},{"id":"408324","latitude":"33.83333330","longitude":"100.41666670","name":"Goincang"},{"id":"408326","latitude":"37.33333330","longitude":"100.58333330","name":"Goinkongma Si"},{"id":"408329","latitude":"31.98333330","longitude":"96.63333330","name":"Goinxab"},{"id":"408334","latitude":"36.36666670","longitude":"94.91666670","name":"Golmo"},{"id":"408335","latitude":"36.40000000","longitude":"95.13333330","name":"Golmud Dongnongchang"},{"id":"408336","latitude":"36.36666670","longitude":"94.91666670","name":"Golmud"},{"id":"408337","latitude":"36.36666670","longitude":"94.91666670","name":"Golmud Shi"},{"id":"408338","latitude":"36.40000000","longitude":"94.63333330","name":"Golmud Xinongchang"},{"id":"408339","latitude":"36.36666670","longitude":"94.91666670","name":"Golmu"},{"id":"408341","latitude":"35.20000000","longitude":"100.53333330","name":"Gomang"},{"id":"408342","latitude":"35.80000000","longitude":"101.15000000","name":"Gomangxung"},{"id":"408407","latitude":"36.28138890","longitude":"100.61305560","name":"Gonghe"},{"id":"409165","latitude":"35.88416670","longitude":"102.82027780","name":"Guanting"},{"id":"409497","latitude":"36.04472220","longitude":"101.42416670","name":"Guide"},{"id":"409572","latitude":"35.33333330","longitude":"100.83333330","name":"Guinan"},{"id":"410079","latitude":"37.66666670","longitude":"97.41666670","name":"Gurab Angir"},{"id":"410083","latitude":"37.66666670","longitude":"97.41666670","name":"Gurban Anggir"},{"id":"410084","latitude":"37.66666670","longitude":"97.41666670","name":"Gurban Angir"},{"id":"410088","latitude":"37.66666670","longitude":"97.41666670","name":"GurbuAngyr"},{"id":"410089","latitude":"37.66666670","longitude":"97.41666670","name":"Gurdt Angir"},{"id":"410090","latitude":"37.66666670","longitude":"97.41666670","name":"Gurdu Angir"},{"id":"410098","latitude":"37.66666670","longitude":"97.41666670","name":"G\u00fcrt\u00fc Angar"},{"id":"410099","latitude":"35.65000000","longitude":"102.66666670","name":"Gur\u00fc"},{"id":"410109","latitude":"36.11888890","longitude":"102.77750000","name":"Gushan"},{"id":"410223","latitude":"35.33333330","longitude":"100.83333330","name":"Guynan"},{"id":"410281","latitude":"33.90000000","longitude":"95.60000000","name":"Gyaij\u00eapozhangg\u00ea"},{"id":"410282","latitude":"33.30000000","longitude":"96.45000000","name":"Gyairong"},{"id":"410293","latitude":"34.16666670","longitude":"100.40000000","name":"Gyangqai"},{"id":"410300","latitude":"34.65000000","longitude":"95.45000000","name":"Gyaq\u00eansumdo"},{"id":"410303","latitude":"35.08333330","longitude":"97.70000000","name":"Gyaring"},{"id":"410305","latitude":"34.86666670","longitude":"94.95000000","name":"Gyatoisangxung"},{"id":"410309","latitude":"33.01666670","longitude":"96.73333330","name":"Gy\u00eagu"},{"id":"410317","latitude":"32.83333330","longitude":"100.30000000","name":"Gyimkar"},{"id":"410323","latitude":"33.05000000","longitude":"95.45000000","name":"Gyiza"},{"id":"410324","latitude":"32.61666670","longitude":"96.13333330","name":"Gyobrag"},{"id":"410327","latitude":"33.36666670","longitude":"99.60000000","name":"Gy\u00fcmai"},{"id":"410328","latitude":"34.66666670","longitude":"100.65000000","name":"Gyumgo"},{"id":"410337","latitude":"36.45361110","longitude":"101.14944440","name":"Hacheng"},{"id":"410358","latitude":"37.23416670","longitude":"100.41277780","name":"Haerhkai"},{"id":"410359","latitude":"37.23416670","longitude":"100.41277780","name":"Haerhkaihsiang"},{"id":"410361","latitude":"36.75000000","longitude":"95.10000000","name":"Haerhmakang"},{"id":"410438","latitude":"36.81916670","longitude":"100.77305560","name":"Haihu"},{"id":"410531","latitude":"37.23416670","longitude":"100.41277780","name":"Hairag"},{"id":"410547","latitude":"37.75000000","longitude":"97.63333330","name":"Haist"},{"id":"410613","latitude":"36.89083330","longitude":"100.99972220","name":"Haiyan"},{"id":"410624","latitude":"36.89083330","longitude":"100.99972220","name":"Haiyen"},{"id":"410921","latitude":"37.28333330","longitude":"96.00000000","name":"Hangya"},{"id":"411261","latitude":"37.45000000","longitude":"101.81666670","name":"Haomenchen"},{"id":"411262","latitude":"37.45000000","longitude":"101.81666670","name":"Haomen"},{"id":"411309","latitude":"37.45000000","longitude":"101.81666670","name":"Haowei"},{"id":"411370","latitude":"38.80000000","longitude":"97.73333330","name":"Hasafen"},{"id":"411403","latitude":"36.30000000","longitude":"93.83333330","name":"Haxat"},{"id":"411408","latitude":"33.40000000","longitude":"96.40000000","name":"Hax\u00fc"},{"id":"411410","latitude":"36.40000000","longitude":"96.13333330","name":"Hayan"},{"id":"411658","latitude":"38.46666670","longitude":"91.66666670","name":"Heiliangzi"},{"id":"411694","latitude":"36.73333330","longitude":"99.76666670","name":"Heimahe"},{"id":"411695","latitude":"36.73333330","longitude":"99.76666670","name":"Heimaho"},{"id":"411907","latitude":"35.81666670","longitude":"99.83333330","name":"Heka"},{"id":"412013","latitude":"34.70000000","longitude":"101.60000000","name":"Henan"},{"id":"412375","latitude":"36.34333330","longitude":"102.78111110","name":"Hengtang"},{"id":"412760","latitude":"36.04472220","longitude":"101.42416670","name":"Heyin"},{"id":"413007","latitude":"36.96583330","longitude":"102.07222220","name":"Hoerhchuan"},{"id":"413104","latitude":"37.33333330","longitude":"96.66666670","name":"Hoit Taria"},{"id":"413105","latitude":"35.21666670","longitude":"100.98333330","name":"Hojih"},{"id":"413109","latitude":"35.81666670","longitude":"99.83333330","name":"Hoka"},{"id":"413119","latitude":"34.25000000","longitude":"99.03333330","name":"HoKossu"},{"id":"413218","latitude":"34.70000000","longitude":"101.60000000","name":"Honan"},{"id":"413223","latitude":"34.70000000","longitude":"101.60000000","name":"Honanmengtsutzuchihhsien"},{"id":"413314","latitude":"37.40000000","longitude":"101.30000000","name":"Honggou"},{"id":"413317","latitude":"38.55000000","longitude":"90.95000000","name":"Honggouzi"},{"id":"413338","latitude":"37.20000000","longitude":"99.36666670","name":"Honghe"},{"id":"413343","latitude":"37.20000000","longitude":"99.36666670","name":"Honghekou"},{"id":"413452","latitude":"38.26666670","longitude":"90.76666670","name":"Hongliuquan"},{"id":"413614","latitude":"37.46666670","longitude":"100.46666670","name":"Hongshi"},{"id":"413805","latitude":"38.31666670","longitude":"94.85000000","name":"Hongyazi"},{"id":"413899","latitude":"34.25000000","longitude":"99.03333330","name":"Horgorgoinba"},{"id":"413901","latitude":"35.21666670","longitude":"100.98333330","name":"Hor"},{"id":"414533","latitude":"37.00000000","longitude":"98.06666670","name":"Houri"},{"id":"414645","latitude":"36.73777780","longitude":"101.76722220","name":"Houtzuho"},{"id":"414810","latitude":"36.73777780","longitude":"101.76722220","name":"Houzihe"},{"id":"414831","latitude":"36.04472220","longitude":"101.42416670","name":"Hoyinchen"},{"id":"414832","latitude":"36.04472220","longitude":"101.42416670","name":"Hoyin"},{"id":"415030","latitude":"36.40000000","longitude":"98.18333330","name":"Hsiajihcha"},{"id":"415031","latitude":"36.40000000","longitude":"98.18333330","name":"Hsiajihchia"},{"id":"415032","latitude":"36.40000000","longitude":"98.18333330","name":"Hsiajihha"},{"id":"415033","latitude":"33.86666670","longitude":"100.36666670","name":"Hsiajihhu"},{"id":"415170","latitude":"34.23333330","longitude":"101.55000000","name":"Hsiangchassu"},{"id":"415251","latitude":"36.00000000","longitude":"97.90000000","name":"Hsiangjih"},{"id":"415252","latitude":"36.01666670","longitude":"97.70000000","name":"Hsiangjihte"},{"id":"415290","latitude":"36.93500000","longitude":"101.67361110","name":"Hsiangshan"},{"id":"415318","latitude":"32.25000000","longitude":"96.21666670","name":"Hsiangta"},{"id":"415321","latitude":"36.34333330","longitude":"102.78111110","name":"Hsiangtangchen"},{"id":"415323","latitude":"36.34333330","longitude":"102.78111110","name":"Hsiangtang"},{"id":"415383","latitude":"36.01666670","longitude":"97.70000000","name":"Hsiangy\u00fcehtai"},{"id":"415414","latitude":"37.51666670","longitude":"95.41666670","name":"Hsiaochaitan"},{"id":"415782","latitude":"35.78333330","longitude":"94.33333330","name":"Hsiaonanchuan"},{"id":"415900","latitude":"32.35000000","longitude":"97.23333330","name":"Hsiaosumang"},{"id":"415964","latitude":"35.60000000","longitude":"99.35000000","name":"Hsiaotungliang"},{"id":"416365","latitude":"34.91666670","longitude":"91.83333330","name":"Hsichieh"},{"id":"416611","latitude":"37.22555560","longitude":"102.03194440","name":"Hsienmi"},{"id":"416887","latitude":"33.16666670","longitude":"95.08333330","name":"Hsila"},{"id":"416897","latitude":"33.16666670","longitude":"95.08333330","name":"Hsilate"},{"id":"416898","latitude":"33.16666670","longitude":"95.08333330","name":"Hsilatsung"},{"id":"416906","latitude":"38.90000000","longitude":"93.90000000","name":"Hsiliangtzu"},{"id":"416914","latitude":"36.91666670","longitude":"98.26666670","name":"Hsilikou"},{"id":"417191","latitude":"35.83333330","longitude":"101.36666670","name":"Hsinchieh"},{"id":"417369","latitude":"35.83333330","longitude":"99.98333330","name":"Hsinghaihsien"},{"id":"417370","latitude":"35.75000000","longitude":"100.25000000","name":"Hsinghai"},{"id":"417443","latitude":"36.89083330","longitude":"100.99972220","name":"Hsinglungchuang"},{"id":"417627","latitude":"36.61666670","longitude":"101.76666670","name":"Hsining"},{"id":"417631","latitude":"36.61666670","longitude":"101.76666670","name":"Hsiningshih"},{"id":"418000","latitude":"37.30000000","longitude":"99.00000000","name":"Hsiny\u00fcan"},{"id":"418171","latitude":"37.28333330","longitude":"95.51666670","name":"Hsitiehshan"},{"id":"418228","latitude":"33.90000000","longitude":"97.38333330","name":"Hsiumatan"},{"id":"418319","latitude":"33.11666670","longitude":"97.35000000","name":"Hsiwu"},{"id":"418647","latitude":"35.84777780","longitude":"102.48361110","name":"Hs\u00fcnhuahsien"},{"id":"418648","latitude":"35.84777780","longitude":"102.48361110","name":"Hs\u00fcnhua"},{"id":"418649","latitude":"35.84777780","longitude":"102.48361110","name":"Hs\u00fcnhuasalatsutzuchihhsien"},{"id":"418865","latitude":"38.65000000","longitude":"94.36666670","name":"Huahaitzu"},{"id":"418866","latitude":"38.65000000","longitude":"94.36666670","name":"Huahaizi"},{"id":"419026","latitude":"37.33333330","longitude":"96.66666670","name":"Huaitoutala"},{"id":"419162","latitude":"36.09555560","longitude":"102.26111110","name":"Hualong"},{"id":"419176","latitude":"36.09555560","longitude":"102.26111110","name":"Hualunghsien"},{"id":"419177","latitude":"36.09555560","longitude":"102.26111110","name":"Hualung"},{"id":"419178","latitude":"36.09555560","longitude":"102.26111110","name":"Hualunghuitsutzuchihhsien"},{"id":"419428","latitude":"36.49555560","longitude":"101.59722220","name":"Huangchunghsien"},{"id":"419430","latitude":"36.49555560","longitude":"101.59722220","name":"Huangchung"},{"id":"419507","latitude":"37.61666670","longitude":"92.21666670","name":"Huangfengshan"},{"id":"419535","latitude":"38.10000000","longitude":"91.90000000","name":"Huanggualiang"},{"id":"419554","latitude":"34.56666670","longitude":"98.31666670","name":"Huanghe"},{"id":"419555","latitude":"35.08333330","longitude":"96.03333330","name":"Huanghetan"},{"id":"419557","latitude":"34.90000000","longitude":"98.20000000","name":"Huangheyan"},{"id":"419568","latitude":"34.90000000","longitude":"98.20000000","name":"Huanghoyen"},{"id":"420594","latitude":"36.68722220","longitude":"101.26361110","name":"Huangy\u00fcanhsien"},{"id":"420597","latitude":"36.68722220","longitude":"101.26361110","name":"Huangyuan"},{"id":"420608","latitude":"38.24472220","longitude":"100.16833330","name":"Huangzangsi"},{"id":"420620","latitude":"36.49555560","longitude":"101.59722220","name":"Huangzhong"},{"id":"420790","latitude":"35.11666670","longitude":"98.80000000","name":"Huashihhsia"},{"id":"420809","latitude":"35.11666670","longitude":"98.80000000","name":"Huashixia"},{"id":"420865","latitude":"38.15000000","longitude":"90.86666670","name":"Huatugou"},{"id":"421117","latitude":"36.85000000","longitude":"102.05000000","name":"Huchuhsientutsutzuchihch\u00fc"},{"id":"421118","latitude":"36.85000000","longitude":"102.05000000","name":"Huchu"},{"id":"421122","latitude":"36.85000000","longitude":"102.05000000","name":"Huchututsutzuchihhsien"},{"id":"421446","latitude":"36.90000000","longitude":"100.83333330","name":"Huiten"},{"id":"421909","latitude":"38.26666670","longitude":"90.76666670","name":"Hungliuch\u00fcan"},{"id":"422320","latitude":"37.20000000","longitude":"96.53333330","name":"Hurleg"},{"id":"422540","latitude":"36.85000000","longitude":"102.05000000","name":"Huzhu"},{"id":"422583","latitude":"34.90000000","longitude":"98.20000000","name":"Hwanghoyen"},{"id":"422614","latitude":"36.68722220","longitude":"101.26361110","name":"Hwangyuan"},{"id":"422754","latitude":"37.83333330","longitude":"95.30000000","name":"Ihe Tsaydam"},{"id":"422802","latitude":"37.83333330","longitude":"95.30000000","name":"Ikachaitamu"},{"id":"422808","latitude":"37.83333330","longitude":"95.30000000","name":"Ike Tsaidam"},{"id":"422812","latitude":"37.83333330","longitude":"95.30000000","name":"Ikochaitamu"},{"id":"422844","latitude":"37.91666670","longitude":"93.33333330","name":"Iliping"},{"id":"422924","latitude":"38.03333330","longitude":"95.00000000","name":"Iqe"},{"id":"423023","latitude":"36.95000000","longitude":"97.65000000","name":"Jabsar Gaxun"},{"id":"423037","latitude":"35.93805560","longitude":"102.02722220","name":"Jainca"},{"id":"423048","latitude":"35.93805560","longitude":"102.02722220","name":"Janca"},{"id":"423053","latitude":"38.03333330","longitude":"99.66666670","name":"Jangcang"},{"id":"423064","latitude":"32.33333330","longitude":"96.41666670","name":"Jangkar"},{"id":"423067","latitude":"33.85000000","longitude":"94.95000000","name":"Jangsib"},{"id":"423119","latitude":"33.01666670","longitude":"96.73333330","name":"Jekundo"},{"id":"423241","latitude":"32.16666670","longitude":"97.25000000","name":"J\u00earikug"},{"id":"423244","latitude":"37.48333330","longitude":"100.51666670","name":"Jeshui"},{"id":"423853","latitude":"36.63333330","longitude":"100.26666670","name":"Jiangxigou"},{"id":"424017","latitude":"33.68333330","longitude":"99.40000000","name":"Jianshe"},{"id":"424285","latitude":"38.85000000","longitude":"94.30000000","name":"Jiarenpuli"},{"id":"424287","latitude":"36.63333330","longitude":"95.05000000","name":"Jiarsu"},{"id":"424420","latitude":"32.63333330","longitude":"95.33333330","name":"Jidoi"},{"id":"424539","latitude":"37.33333330","longitude":"99.33333330","name":"Jiesheng"},{"id":"424573","latitude":"39.00000000","longitude":"94.30000000","name":"Jietuoba"},{"id":"424626","latitude":"33.43333330","longitude":"101.43333330","name":"Jigzhi"},{"id":"425472","latitude":"36.21666670","longitude":"96.40000000","name":"Jinshuikou"},{"id":"425568","latitude":"32.06666670","longitude":"96.00000000","name":"Jinyinsib"},{"id":"425569","latitude":"37.13333330","longitude":"100.83333330","name":"Jinyintan"},{"id":"425655","latitude":"31.95000000","longitude":"96.11666670","name":"Jiqu"},{"id":"425661","latitude":"37.15166670","longitude":"99.56944440","name":"Jirmeng"},{"id":"425675","latitude":"35.84777780","longitude":"102.48361110","name":"Jishi"},{"id":"425678","latitude":"36.01666670","longitude":"89.96666670","name":"Jishilake"},{"id":"426249","latitude":"33.45000000","longitude":"97.00000000","name":"Juchieh Gomba"},{"id":"426287","latitude":"37.86666670","longitude":"96.33333330","name":"Juhongtu"},{"id":"426460","latitude":"33.83333330","longitude":"101.03333330","name":"Juning"},{"id":"426500","latitude":"37.50000000","longitude":"97.58333330","name":"Jun Ul"},{"id":"426536","latitude":"36.50000000","longitude":"99.80000000","name":"Jushike"},{"id":"426589","latitude":"33.01666670","longitude":"96.73333330","name":"Jyekundo"},{"id":"426593","latitude":"36.28138890","longitude":"100.61305560","name":"Kabatala"},{"id":"426594","latitude":"36.28138890","longitude":"100.61305560","name":"Kaba Talen"},{"id":"426600","latitude":"37.23416670","longitude":"100.41277780","name":"Kaerhchi"},{"id":"426601","latitude":"37.23416670","longitude":"100.41277780","name":"Kaerh"},{"id":"426604","latitude":"36.36666670","longitude":"94.91666670","name":"Kaerhmu"},{"id":"426609","latitude":"35.36666670","longitude":"100.21666670","name":"Kagang"},{"id":"426613","latitude":"38.80000000","longitude":"97.63333330","name":"Kaho"},{"id":"426617","latitude":"36.98333330","longitude":"98.50000000","name":"Kaiba"},{"id":"426618","latitude":"38.80000000","longitude":"97.75000000","name":"Kaibamardang"},{"id":"426683","latitude":"33.01666670","longitude":"96.73333330","name":"Kaikuto"},{"id":"426691","latitude":"33.16666670","longitude":"95.68333330","name":"Kaimar"},{"id":"426752","latitude":"36.21305560","longitude":"101.55888890","name":"Kajang"},{"id":"426781","latitude":"35.36666670","longitude":"100.21666670","name":"Kalikang"},{"id":"426872","latitude":"37.53916670","longitude":"100.08888890","name":"Kangcha"},{"id":"426873","latitude":"37.53916670","longitude":"100.08888890","name":"Kangchassu"},{"id":"426874","latitude":"37.53916670","longitude":"100.08888890","name":"Kangchatassu"},{"id":"426966","latitude":"33.71666670","longitude":"99.15000000","name":"Kanglong"},{"id":"426968","latitude":"33.83333330","longitude":"100.23333330","name":"Kanglung"},{"id":"427135","latitude":"37.46666670","longitude":"92.31666670","name":"Kansen"},{"id":"427149","latitude":"37.46666670","longitude":"92.31666670","name":"Kanssu"},{"id":"427165","latitude":"33.96666670","longitude":"99.86666670","name":"Kanteh"},{"id":"427166","latitude":"33.96666670","longitude":"99.86666670","name":"Kante"},{"id":"427181","latitude":"35.88972220","longitude":"102.32305560","name":"Kantoutang"},{"id":"427195","latitude":"35.88972220","longitude":"102.32305560","name":"Kantu"},{"id":"427197","latitude":"35.88972220","longitude":"102.32305560","name":"Kantussu"},{"id":"427198","latitude":"35.88972220","longitude":"102.32305560","name":"Kantutang"},{"id":"427478","latitude":"36.44500000","longitude":"102.53805560","name":"Kaomiaochen"},{"id":"427482","latitude":"36.44500000","longitude":"102.53805560","name":"Kaomiao"},{"id":"427487","latitude":"36.44500000","longitude":"102.53805560","name":"Kaomiaotzu"},{"id":"427672","latitude":"36.28138890","longitude":"100.61305560","name":"Kapaitala"},{"id":"427673","latitude":"35.26666670","longitude":"100.53333330","name":"Kapasungtu"},{"id":"427677","latitude":"36.28138890","longitude":"100.61305560","name":"Kapuka"},{"id":"427738","latitude":"37.36250000","longitude":"98.83611110","name":"Karmar"},{"id":"427739","latitude":"36.36666670","longitude":"94.91666670","name":"Karmu"},{"id":"427742","latitude":"33.65000000","longitude":"96.66666670","name":"Karrong Goukou"},{"id":"427763","latitude":"37.26666670","longitude":"99.85000000","name":"Katanssu"},{"id":"427796","latitude":"37.07833330","longitude":"97.68583330","name":"Kecheng"},{"id":"427804","latitude":"36.36666670","longitude":"94.91666670","name":"Ke Erh Mu"},{"id":"427972","latitude":"33.50000000","longitude":"90.41666670","name":"Ketian"},{"id":"427985","latitude":"38.65000000","longitude":"95.96666670","name":"Keziletuobie"},{"id":"428015","latitude":"37.23416670","longitude":"100.41277780","name":"Khargi"},{"id":"428016","latitude":"37.23416670","longitude":"100.41277780","name":"Kharg"},{"id":"428065","latitude":"36.09555560","longitude":"102.26111110","name":"Khualun"},{"id":"428088","latitude":"36.85000000","longitude":"102.05000000","name":"Khuchzhu"},{"id":"428430","latitude":"37.50000000","longitude":"99.90000000","name":"Koc\u00eagoinba"},{"id":"428481","latitude":"36.36666670","longitude":"94.91666670","name":"Koerhmu"},{"id":"428482","latitude":"36.36666670","longitude":"94.91666670","name":"Koerhmushih"},{"id":"428509","latitude":"36.91666670","longitude":"98.26666670","name":"Kokobeli"},{"id":"428582","latitude":"37.38333330","longitude":"97.38333330","name":"Kolu"},{"id":"428587","latitude":"37.38333330","longitude":"97.38333330","name":"Kolutelingha"},{"id":"428590","latitude":"33.16666670","longitude":"95.68333330","name":"Koma"},{"id":"428593","latitude":"36.42555560","longitude":"102.62111110","name":"Komingcheng"},{"id":"428665","latitude":"32.33333330","longitude":"97.00000000","name":"Kongzakug"},{"id":"428678","latitude":"37.20000000","longitude":"97.00000000","name":"Kopi"},{"id":"428767","latitude":"38.20388890","longitude":"100.01500000","name":"Kotzutung"},{"id":"428815","latitude":"35.88333330","longitude":"98.50000000","name":"Kouli"},{"id":"429341","latitude":"35.88416670","longitude":"102.82027780","name":"Kuanting"},{"id":"429624","latitude":"35.33333330","longitude":"100.83333330","name":"Kueinan"},{"id":"429649","latitude":"36.04472220","longitude":"101.42416670","name":"Kueitehsien"},{"id":"429650","latitude":"36.04472220","longitude":"101.42416670","name":"Kueite"},{"id":"429691","latitude":"37.66666670","longitude":"97.41666670","name":"Kuerhpanankoerh"},{"id":"429692","latitude":"37.66666670","longitude":"97.41666670","name":"Kuerhpuankoerh"},{"id":"429694","latitude":"37.66666670","longitude":"97.41666670","name":"Kuerhtuanko\u00earh"},{"id":"429710","latitude":"35.88333330","longitude":"98.50000000","name":"Kugri"},{"id":"429769","latitude":"36.04472220","longitude":"101.42416670","name":"Kuit\u00f6"},{"id":"429812","latitude":"36.91666670","longitude":"98.26666670","name":"Kukubeli"},{"id":"429994","latitude":"36.28138890","longitude":"100.61305560","name":"Kunghohsien"},{"id":"429995","latitude":"36.28138890","longitude":"100.61305560","name":"Kungho"},{"id":"430093","latitude":"31.98333330","longitude":"96.63333330","name":"Kungyassu"},{"id":"430262","latitude":"35.80000000","longitude":"101.15000000","name":"Kuomaying"},{"id":"430340","latitude":"32.98333330","longitude":"95.03333330","name":"Kurkung"},{"id":"430350","latitude":"36.11888890","longitude":"102.77750000","name":"Kushanchen"},{"id":"430354","latitude":"36.11888890","longitude":"102.77750000","name":"Kushani"},{"id":"430359","latitude":"36.11888890","longitude":"102.77750000","name":"Kushan"},{"id":"430367","latitude":"36.11888890","longitude":"102.77750000","name":"Kushanpao"},{"id":"430594","latitude":"36.04472220","longitude":"101.42416670","name":"Kweiteh"},{"id":"430596","latitude":"36.04472220","longitude":"101.42416670","name":"Kweitehting"},{"id":"430597","latitude":"36.04472220","longitude":"101.42416670","name":"Kweithting"},{"id":"430619","latitude":"32.50000000","longitude":"96.33333330","name":"Kyamronggag"},{"id":"430625","latitude":"36.13722220","longitude":"100.81888890","name":"Kyikug"},{"id":"430626","latitude":"35.28333330","longitude":"100.13333330","name":"Kyiling"},{"id":"430630","latitude":"34.10000000","longitude":"100.10000000","name":"Kyinzhi"},{"id":"430645","latitude":"33.28333330","longitude":"97.15000000","name":"Lab"},{"id":"430652","latitude":"34.70000000","longitude":"100.66666670","name":"Lachiassu"},{"id":"431480","latitude":"35.10000000","longitude":"100.25000000","name":"Laohupo"},{"id":"431851","latitude":"34.70000000","longitude":"100.66666670","name":"Latszyas\u00f6"},{"id":"431902","latitude":"36.48000000","longitude":"102.41638890","name":"Ledu"},{"id":"432091","latitude":"38.81666670","longitude":"93.38333330","name":"Lenghuchen"},{"id":"432092","latitude":"38.81666670","longitude":"93.38333330","name":"Lenghu"},{"id":"432093","latitude":"38.81666670","longitude":"93.38333330","name":"Lenghushih"},{"id":"432191","latitude":"36.48000000","longitude":"102.41638890","name":"Letu"},{"id":"432230","latitude":"36.13333330","longitude":"101.20000000","name":"Lhakangtang"},{"id":"432241","latitude":"33.53333330","longitude":"96.50000000","name":"Lhaz\u00ea"},{"id":"432859","latitude":"37.20000000","longitude":"96.80000000","name":"Lianhu"},{"id":"434047","latitude":"36.96583330","longitude":"102.07222220","name":"Linchuan"},{"id":"436685","latitude":"35.03333330","longitude":"100.30000000","name":"Logpung"},{"id":"437558","latitude":"35.26666670","longitude":"100.53333330","name":"Lopasungtu"},{"id":"437649","latitude":"36.48000000","longitude":"102.41638890","name":"Lotuhsien"},{"id":"437651","latitude":"36.48000000","longitude":"102.41638890","name":"Lotu"},{"id":"437856","latitude":"34.70000000","longitude":"92.88333330","name":"Luanhaitzu"},{"id":"437857","latitude":"34.70000000","longitude":"92.88333330","name":"Luanhaizi"},{"id":"437935","latitude":"37.65000000","longitude":"95.75000000","name":"L\u00fccaoshan"},{"id":"438951","latitude":"35.50888890","longitude":"102.01083330","name":"Lungwuchen"},{"id":"438952","latitude":"35.50888890","longitude":"102.01083330","name":"Lungwu"},{"id":"438955","latitude":"35.50888890","longitude":"102.01083330","name":"Lungwussu"},{"id":"438981","latitude":"38.81666670","longitude":"93.38333330","name":"Lunhu"},{"id":"439140","latitude":"36.07194440","longitude":"101.26083330","name":"Luohantang"},{"id":"439542","latitude":"36.49555560","longitude":"101.59722220","name":"Lushaerhchen"},{"id":"439543","latitude":"36.49555560","longitude":"101.59722220","name":"Lushaerh"},{"id":"439544","latitude":"36.49555560","longitude":"101.59722220","name":"Lushaer"},{"id":"439568","latitude":"36.49555560","longitude":"101.59722220","name":"Lushar"},{"id":"439572","latitude":"36.46666670","longitude":"99.56666670","name":"Lushigemo"},{"id":"439672","latitude":"37.65000000","longitude":"95.75000000","name":"L\u00fctsaoshan"},{"id":"439914","latitude":"34.93333330","longitude":"98.23333330","name":"Machali"},{"id":"439929","latitude":"32.83333330","longitude":"97.01666670","name":"Machang"},{"id":"440096","latitude":"34.40000000","longitude":"100.10000000","name":"Machin"},{"id":"440190","latitude":"34.93333330","longitude":"98.23333330","name":"Madoi"},{"id":"440241","latitude":"35.93805560","longitude":"102.02722220","name":"Magitang"},{"id":"440265","latitude":"38.10000000","longitude":"94.50000000","name":"Mahai"},{"id":"440266","latitude":"38.01666670","longitude":"94.56666670","name":"Mahai Nongchang"},{"id":"440308","latitude":"37.38333330","longitude":"95.48333330","name":"Mahuanggou"},{"id":"440310","latitude":"37.38333330","longitude":"95.48333330","name":"Mahuangkou"},{"id":"440334","latitude":"35.64388890","longitude":"102.07277780","name":"Maiba"},{"id":"440335","latitude":"35.64388890","longitude":"102.07277780","name":"Maiba Xiang"},{"id":"440565","latitude":"35.93805560","longitude":"102.02722220","name":"Makaitang"},{"id":"440582","latitude":"35.93805560","longitude":"102.02722220","name":"Mako"},{"id":"440584","latitude":"35.93805560","longitude":"102.02722220","name":"Makotang"},{"id":"440613","latitude":"34.95000000","longitude":"98.45000000","name":"Malaiwan"},{"id":"440640","latitude":"34.95000000","longitude":"98.45000000","name":"Malayiwan"},{"id":"440886","latitude":"35.33333330","longitude":"100.83333330","name":"Mangla"},{"id":"440889","latitude":"37.83333330","longitude":"91.76666670","name":"Mangnai"},{"id":"440890","latitude":"38.40000000","longitude":"90.25000000","name":"Mangnai Zhen"},{"id":"440896","latitude":"35.33333330","longitude":"100.83333330","name":"Mangra"},{"id":"440912","latitude":"38.40000000","longitude":"90.25000000","name":"Mangyachen"},{"id":"440913","latitude":"38.35000000","longitude":"90.93333330","name":"Mangyaichen"},{"id":"440914","latitude":"38.35000000","longitude":"90.93333330","name":"Mangyaikungtsoweiy\u00fcanhui"},{"id":"440915","latitude":"37.83333330","longitude":"91.76666670","name":"Mangyai"},{"id":"440916","latitude":"37.83333330","longitude":"91.76666670","name":"Mangya"},{"id":"441031","latitude":"37.03333330","longitude":"101.55000000","name":"Maobosheng"},{"id":"441116","latitude":"35.33333330","longitude":"100.15000000","name":"Maoduo"},{"id":"441277","latitude":"36.86666670","longitude":"97.88333330","name":"Maoniushan"},{"id":"441280","latitude":"37.03333330","longitude":"101.55000000","name":"Maopaisheng"},{"id":"441310","latitude":"37.03333330","longitude":"101.55000000","name":"Maoposheng"},{"id":"441474","latitude":"35.64388890","longitude":"102.07277780","name":"Mapa"},{"id":"441518","latitude":"36.98444440","longitude":"100.81944440","name":"Mapisi"},{"id":"441534","latitude":"34.40000000","longitude":"100.10000000","name":"Maq\u00ean"},{"id":"441570","latitude":"33.06666670","longitude":"100.46666670","name":"Markog"},{"id":"441576","latitude":"33.30000000","longitude":"100.40000000","name":"Marzhing"},{"id":"441734","latitude":"34.90000000","longitude":"98.20000000","name":"Mato"},{"id":"441934","latitude":"36.04250000","longitude":"102.83361110","name":"Maying"},{"id":"441944","latitude":"36.63333330","longitude":"102.63333330","name":"Mayingsi"},{"id":"442045","latitude":"35.86666670","longitude":"101.63333330","name":"M\u00eagyai"},{"id":"442728","latitude":"35.61666670","longitude":"100.40000000","name":"Menhe"},{"id":"442773","latitude":"37.45000000","longitude":"101.81666670","name":"Meny\u00fcanhuitsutzuchihhsien"},{"id":"442788","latitude":"35.25000000","longitude":"98.90000000","name":"Miancaowan"},{"id":"443142","latitude":"35.25000000","longitude":"98.90000000","name":"Mientsaowan"},{"id":"443395","latitude":"36.33583330","longitude":"102.81972220","name":"Minhe"},{"id":"443397","latitude":"36.33583330","longitude":"102.81972220","name":"Minhohsien"},{"id":"443398","latitude":"36.11888890","longitude":"102.77750000","name":"Minho"},{"id":"443418","latitude":"36.33583330","longitude":"102.81972220","name":"Minkhe"},{"id":"443441","latitude":"33.80000000","longitude":"101.03333330","name":"Mintang"},{"id":"443548","latitude":"37.03333330","longitude":"101.55000000","name":"Mobaishun"},{"id":"443549","latitude":"37.03333330","longitude":"101.55000000","name":"Mobayshun"},{"id":"443670","latitude":"38.13333330","longitude":"99.06666670","name":"Moli"},{"id":"443719","latitude":"33.55000000","longitude":"99.78333330","name":"Mopa"},{"id":"443854","latitude":"32.30000000","longitude":"96.80000000","name":"Mozhong"},{"id":"443978","latitude":"33.23333330","longitude":"94.35000000","name":"Mugxung"},{"id":"443980","latitude":"36.83333330","longitude":"98.91666670","name":"Muhar"},{"id":"443983","latitude":"36.83333330","longitude":"98.91666670","name":"Muho"},{"id":"443984","latitude":"36.38333330","longitude":"99.63333330","name":"Muhor"},{"id":"444075","latitude":"37.70000000","longitude":"100.70000000","name":"Muli"},{"id":"444115","latitude":"37.03333330","longitude":"101.55000000","name":"Mupaihsin"},{"id":"444136","latitude":"37.70000000","longitude":"100.70000000","name":"Muri"},{"id":"444286","latitude":"38.58333330","longitude":"98.05000000","name":"Nabzain"},{"id":"444295","latitude":"35.88333330","longitude":"94.50000000","name":"Nachih"},{"id":"444298","latitude":"35.88333330","longitude":"94.50000000","name":"Nachihtai"},{"id":"444339","latitude":"38.63333330","longitude":"97.08333330","name":"Nagza"},{"id":"444354","latitude":"35.88333330","longitude":"94.50000000","name":"Naichih"},{"id":"444355","latitude":"35.88333330","longitude":"94.50000000","name":"Naichi"},{"id":"444356","latitude":"35.88333330","longitude":"94.50000000","name":"Naichu"},{"id":"444358","latitude":"35.88333330","longitude":"94.50000000","name":"Naij Tal"},{"id":"444377","latitude":"35.88333330","longitude":"94.50000000","name":"Naitschu"},{"id":"444495","latitude":"32.80000000","longitude":"95.60000000","name":"Namsai"},{"id":"444496","latitude":"35.20000000","longitude":"99.66666670","name":"Namtang"},{"id":"444561","latitude":"38.00000000","longitude":"94.33333330","name":"Nanbaxian"},{"id":"444919","latitude":"32.25000000","longitude":"96.21666670","name":"Nangchien"},{"id":"444920","latitude":"36.16888890","longitude":"102.05361110","name":"Nangdoi"},{"id":"444944","latitude":"32.25000000","longitude":"96.21666670","name":"Nangq\u00ean"},{"id":"445495","latitude":"38.00000000","longitude":"94.33333330","name":"Nanpahsien"},{"id":"445782","latitude":"36.21666670","longitude":"101.43333330","name":"Nantan"},{"id":"446223","latitude":"38.63333330","longitude":"97.08333330","name":"Naokocha"},{"id":"446358","latitude":"35.88333330","longitude":"94.50000000","name":"Nechhu"},{"id":"446494","latitude":"37.96666670","longitude":"99.90000000","name":"Ngaza"},{"id":"446504","latitude":"35.50000000","longitude":"99.43333330","name":"Ngola Shankou"},{"id":"446508","latitude":"35.00000000","longitude":"96.80000000","name":"Ngoring"},{"id":"446514","latitude":"36.48000000","longitude":"102.41638890","name":"Nianbai"},{"id":"446686","latitude":"36.48000000","longitude":"102.41638890","name":"Nienpaihsien"},{"id":"446687","latitude":"36.48000000","longitude":"102.41638890","name":"Nienpochen"},{"id":"446688","latitude":"36.48000000","longitude":"102.41638890","name":"Nienpo"},{"id":"447041","latitude":"38.73333330","longitude":"92.20000000","name":"Niubiziliang"},{"id":"447236","latitude":"38.73333330","longitude":"92.20000000","name":"Niupitzuliang"},{"id":"447402","latitude":"38.70000000","longitude":"94.76666670","name":"Nohoit"},{"id":"447404","latitude":"36.38333330","longitude":"96.43333330","name":"Nomhom"},{"id":"447405","latitude":"36.40000000","longitude":"96.01666670","name":"Nomhon"},{"id":"447406","latitude":"36.48333330","longitude":"96.40000000","name":"Nomhon Nongchang"},{"id":"447410","latitude":"36.38333330","longitude":"96.43333330","name":"Nomochonchoto"},{"id":"447411","latitude":"36.38333330","longitude":"96.43333330","name":"Nomohunghoto"},{"id":"447412","latitude":"36.38333330","longitude":"96.43333330","name":"Nomohung"},{"id":"447413","latitude":"36.38333330","longitude":"96.43333330","name":"Nomokhan Khoto"},{"id":"447414","latitude":"36.40000000","longitude":"96.01666670","name":"Nomuhung"},{"id":"447543","latitude":"36.90000000","longitude":"93.46666670","name":"Nur Turu"},{"id":"447546","latitude":"36.90000000","longitude":"93.46666670","name":"Nutule"},{"id":"447550","latitude":"32.06666670","longitude":"96.83333330","name":"Nyagla"},{"id":"447558","latitude":"36.48000000","longitude":"102.41638890","name":"Nyanbo"},{"id":"447570","latitude":"33.05000000","longitude":"99.40000000","name":"Nyilag"},{"id":"447580","latitude":"35.20000000","longitude":"100.83333330","name":"Nyinqug"},{"id":"447589","latitude":"38.83333330","longitude":"92.70000000","name":"Obo Liang"},{"id":"447591","latitude":"37.95000000","longitude":"101.05000000","name":"Obo"},{"id":"447593","latitude":"37.83333330","longitude":"94.31666670","name":"Obson Jah"},{"id":"447626","latitude":"33.61666670","longitude":"99.80000000","name":"Ois\u00ear"},{"id":"447642","latitude":"35.50000000","longitude":"99.43333330","name":"Ola Shankou"},{"id":"447649","latitude":"35.00000000","longitude":"96.80000000","name":"Oling"},{"id":"447690","latitude":"37.95000000","longitude":"101.05000000","name":"Opocheng"},{"id":"447691","latitude":"38.83333330","longitude":"92.70000000","name":"Opoliang"},{"id":"447692","latitude":"37.95000000","longitude":"101.05000000","name":"Opo"},{"id":"447848","latitude":"36.19500000","longitude":"102.73166670","name":"Pachou"},{"id":"447875","latitude":"33.96666670","longitude":"99.86666670","name":"Pagq\u00ean"},{"id":"448653","latitude":"33.25000000","longitude":"100.70000000","name":"Paiy\u00fcssu"},{"id":"448663","latitude":"38.96666670","longitude":"94.31666670","name":"Pakanalin"},{"id":"448664","latitude":"33.96666670","longitude":"96.43333330","name":"Pakan"},{"id":"448754","latitude":"36.16666670","longitude":"97.33333330","name":"Palung"},{"id":"448845","latitude":"32.78333330","longitude":"100.63333330","name":"Panchien"},{"id":"449126","latitude":"32.96666670","longitude":"100.70000000","name":"Panma"},{"id":"449155","latitude":"37.60000000","longitude":"101.40000000","name":"Panpo"},{"id":"449322","latitude":"35.61750000","longitude":"102.07083330","name":"Paoan"},{"id":"449562","latitude":"38.18055560","longitude":"100.24027780","name":"Papao"},{"id":"449566","latitude":"38.18055560","longitude":"100.24027780","name":"Papaossu"},{"id":"449584","latitude":"36.46666670","longitude":"99.26666670","name":"Parxixingka"},{"id":"449613","latitude":"32.91666670","longitude":"97.05000000","name":"Patang"},{"id":"449656","latitude":"35.70000000","longitude":"100.50000000","name":"Patsang"},{"id":"449701","latitude":"36.09555560","longitude":"102.26111110","name":"Payenchen"},{"id":"449708","latitude":"36.09555560","longitude":"102.26111110","name":"Payenjungko"},{"id":"449709","latitude":"36.09555560","longitude":"102.26111110","name":"Payenjung"},{"id":"449719","latitude":"36.76611110","longitude":"101.13194440","name":"Payen"},{"id":"449729","latitude":"37.31666670","longitude":"97.21666670","name":"Payinho"},{"id":"449768","latitude":"37.45000000","longitude":"101.81666670","name":"Pehtatung"},{"id":"450065","latitude":"34.96666670","longitude":"92.95000000","name":"Peiluhoyen"},{"id":"450185","latitude":"37.45000000","longitude":"101.81666670","name":"Peitatung"},{"id":"450315","latitude":"36.01666670","longitude":"98.20000000","name":"Pencuodarjihelang"},{"id":"450755","latitude":"36.49694440","longitude":"102.12472220","name":"Pinganchen"},{"id":"450759","latitude":"36.49694440","longitude":"102.12472220","name":"Pingani"},{"id":"450764","latitude":"36.49694440","longitude":"102.12472220","name":"Pingan"},{"id":"450773","latitude":"36.49694440","longitude":"102.12472220","name":"Pinganyi"},{"id":"450857","latitude":"36.49694440","longitude":"102.12472220","name":"Pingchungyi"},{"id":"451017","latitude":"36.49694440","longitude":"102.12472220","name":"Pingjungi"},{"id":"451018","latitude":"36.49694440","longitude":"102.12472220","name":"Pingjungpao"},{"id":"451438","latitude":"36.49694440","longitude":"102.12472220","name":"Pingyungi"},{"id":"451494","latitude":"36.49694440","longitude":"102.12472220","name":"Pinzhuni"},{"id":"451642","latitude":"35.30000000","longitude":"101.40000000","name":"Poingya"},{"id":"451654","latitude":"36.76666670","longitude":"91.70000000","name":"Pokaliko"},{"id":"451725","latitude":"36.38333330","longitude":"96.43333330","name":"Pomohunghoto"},{"id":"452142","latitude":"36.48333330","longitude":"92.40000000","name":"Pulunpo"},{"id":"452143","latitude":"36.48333330","longitude":"92.40000000","name":"Puluntai"},{"id":"452305","latitude":"35.53333330","longitude":"93.90000000","name":"Putungch\u00fcan"},{"id":"452402","latitude":"36.28138890","longitude":"100.61305560","name":"Qabqa"},{"id":"452413","latitude":"36.96666670","longitude":"98.86666670","name":"Qagan Nur"},{"id":"452423","latitude":"35.91666670","longitude":"94.80000000","name":"Qagan Tohoi"},{"id":"452427","latitude":"36.16666670","longitude":"98.26666670","name":"Qagan Us"},{"id":"452441","latitude":"37.53333330","longitude":"100.23333330","name":"Qaidar"},{"id":"452449","latitude":"34.55000000","longitude":"99.30000000","name":"Qamalung"},{"id":"452459","latitude":"34.10000000","longitude":"96.26666670","name":"Qangrimdo"},{"id":"452482","latitude":"36.75000000","longitude":"95.10000000","name":"Qarhan"},{"id":"452535","latitude":"36.38333330","longitude":"100.46666670","name":"Qianbulusi"},{"id":"453211","latitude":"36.93500000","longitude":"101.67361110","name":"Qiaotou"},{"id":"453332","latitude":"34.45000000","longitude":"95.23333330","name":"Qidukou"},{"id":"453373","latitude":"38.38333330","longitude":"90.66666670","name":"Qigequan"},{"id":"453384","latitude":"34.50000000","longitude":"95.90000000","name":"Qigzhi"},{"id":"453474","latitude":"38.18055560","longitude":"100.24027780","name":"Qilian"},{"id":"453715","latitude":"36.83833330","longitude":"100.82083330","name":"Qinghaihu"},{"id":"453972","latitude":"37.46666670","longitude":"101.43333330","name":"Qingshizui"},{"id":"453982","latitude":"33.80000000","longitude":"97.11666670","name":"Qingshuihe"},{"id":"454004","latitude":"35.83638890","longitude":"102.55555560","name":"Qingshui"},{"id":"454518","latitude":"37.36666670","longitude":"99.90000000","name":"Qogorgoinba"},{"id":"454524","latitude":"34.60000000","longitude":"101.30000000","name":"Qoigargoinba"},{"id":"454526","latitude":"36.38333330","longitude":"99.63333330","name":"Qoiji\u00ea"},{"id":"454541","latitude":"37.26666670","longitude":"99.87833330","name":"Qonj"},{"id":"454730","latitude":"35.30000000","longitude":"93.30000000","name":"Qumar Heyan"},{"id":"454731","latitude":"34.80000000","longitude":"94.88333330","name":"Qumarrabd\u00fcn"},{"id":"454748","latitude":"36.05027780","longitude":"101.95777780","name":"Qunke"},{"id":"454786","latitude":"36.35555560","longitude":"102.29555560","name":"Qutan"},{"id":"454836","latitude":"35.98333330","longitude":"100.66666670","name":"Rabyog"},{"id":"454838","latitude":"34.70000000","longitude":"100.66666670","name":"Rachzhagompa"},{"id":"454844","latitude":"34.70000000","longitude":"100.66666670","name":"Ragyagoinba"},{"id":"454845","latitude":"34.70000000","longitude":"100.66666670","name":"Ragya Gomba"},{"id":"455048","latitude":"37.45194440","longitude":"100.47277780","name":"Reshui"},{"id":"455116","latitude":"38.18333330","longitude":"90.30000000","name":"Rodnik Timurlik"},{"id":"455186","latitude":"35.50888890","longitude":"102.01083330","name":"Rongwo"},{"id":"455305","latitude":"33.83333330","longitude":"101.03333330","name":"Runying"},{"id":"455398","latitude":"32.96666670","longitude":"100.70000000","name":"Sailaitang"},{"id":"455415","latitude":"36.98333330","longitude":"98.40000000","name":"Saishihko"},{"id":"455476","latitude":"35.48333330","longitude":"99.98333330","name":"Sanag"},{"id":"455562","latitude":"35.88333330","longitude":"94.50000000","name":"Sanchakou"},{"id":"455643","latitude":"36.89083330","longitude":"100.99972220","name":"Sanchiaocheng"},{"id":"455918","latitude":"33.65000000","longitude":"99.20000000","name":"Sangjihma"},{"id":"455966","latitude":"33.65000000","longitude":"99.20000000","name":"Sangruma"},{"id":"455968","latitude":"36.76555560","longitude":"102.13916670","name":"Sangshige"},{"id":"456237","latitude":"36.89083330","longitude":"100.99972220","name":"Sanjiaocheng"},{"id":"456703","latitude":"36.00000000","longitude":"100.21666670","name":"Santala"},{"id":"457077","latitude":"36.28333330","longitude":"100.28333330","name":"Sazhubxi"},{"id":"457080","latitude":"36.01666670","longitude":"97.70000000","name":"Schang"},{"id":"457109","latitude":"33.43333330","longitude":"96.85000000","name":"S\u00eakog"},{"id":"457111","latitude":"33.16666670","longitude":"95.08333330","name":"Selatsung"},{"id":"457114","latitude":"37.22555560","longitude":"102.03194440","name":"S\u00eamnyi"},{"id":"457115","latitude":"35.73333330","longitude":"101.98333330","name":"S\u00eanag"},{"id":"457123","latitude":"37.33333330","longitude":"98.40000000","name":"S\u00eangg\u00ea"},{"id":"457141","latitude":"33.16666670","longitude":"95.08333330","name":"Seradzong"},{"id":"457142","latitude":"32.96666670","longitude":"100.70000000","name":"S\u00earaitang"},{"id":"457143","latitude":"33.16666670","longitude":"95.08333330","name":"Sera"},{"id":"457149","latitude":"36.98333330","longitude":"98.40000000","name":"Serh"},{"id":"457154","latitude":"35.30000000","longitude":"99.80000000","name":"S\u00eartang"},{"id":"457321","latitude":"35.93333330","longitude":"100.93333330","name":"Shagou"},{"id":"457598","latitude":"37.90000000","longitude":"93.51666670","name":"Shaliangtzu"},{"id":"457601","latitude":"37.90000000","longitude":"93.51666670","name":"Shaliangzi"},{"id":"457628","latitude":"37.32527780","longitude":"100.12750000","name":"Shaliuhe"},{"id":"457633","latitude":"37.32527780","longitude":"100.12750000","name":"Shaliuho"},{"id":"457865","latitude":"32.90000000","longitude":"99.58333330","name":"Shang Boingor"},{"id":"457935","latitude":"36.01666670","longitude":"97.70000000","name":"Shangchia"},{"id":"457993","latitude":"36.33583330","longitude":"102.81972220","name":"Shangchuankouchen"},{"id":"457994","latitude":"36.33583330","longitude":"102.81972220","name":"Shangchuankou"},{"id":"458078","latitude":"36.53722220","longitude":"101.16250000","name":"Shangen"},{"id":"458141","latitude":"33.83333330","longitude":"99.66666670","name":"Shang Gongma"},{"id":"458327","latitude":"36.01666670","longitude":"97.70000000","name":"Shangjih"},{"id":"458383","latitude":"36.01666670","longitude":"97.70000000","name":"Shangko"},{"id":"458400","latitude":"33.83333330","longitude":"99.66666670","name":"Shangkungma"},{"id":"458421","latitude":"32.90000000","longitude":"96.56666670","name":"Shanglaxiu"},{"id":"458697","latitude":"36.01666670","longitude":"97.70000000","name":"Shang"},{"id":"458968","latitude":"36.79777780","longitude":"101.55500000","name":"Shangwuzhuang"},{"id":"458992","latitude":"36.44777780","longitude":"101.53833330","name":"Shangxinzhuang"},{"id":"459124","latitude":"34.16666670","longitude":"100.23333330","name":"Shang Zanggor"},{"id":"459299","latitude":"36.53722220","longitude":"101.16250000","name":"Shanken"},{"id":"459443","latitude":"36.01666670","longitude":"97.70000000","name":"Shan"},{"id":"459927","latitude":"36.40000000","longitude":"98.18333330","name":"Sharha"},{"id":"460482","latitude":"37.58333330","longitude":"95.40000000","name":"Shenglikou"},{"id":"460858","latitude":"36.72444440","longitude":"101.18666670","name":"Shenzhong"},{"id":"463195","latitude":"35.83638890","longitude":"102.55555560","name":"Shixiang"},{"id":"463210","latitude":"34.38333330","longitude":"100.23333330","name":"Shixia"},{"id":"463536","latitude":"33.90000000","longitude":"99.10000000","name":"Shouyizhan"},{"id":"464263","latitude":"35.73333330","longitude":"95.55000000","name":"Shuerhkan"},{"id":"464334","latitude":"38.01666670","longitude":"91.78333330","name":"Shuichan"},{"id":"464482","latitude":"33.46666670","longitude":"91.23333330","name":"Shuijingkuang"},{"id":"464797","latitude":"38.70000000","longitude":"93.33333330","name":"Shuiyazidun"},{"id":"464832","latitude":"38.01666670","longitude":"91.78333330","name":"Shuizhan"},{"id":"464863","latitude":"35.71666670","longitude":"95.96666670","name":"Shukuei"},{"id":"464952","latitude":"35.84777780","longitude":"102.48361110","name":"Shunhwa"},{"id":"464953","latitude":"35.84777780","longitude":"102.48361110","name":"Shunhwating"},{"id":"465109","latitude":"36.34333330","longitude":"102.78111110","name":"Siangtang"},{"id":"465563","latitude":"36.61666670","longitude":"101.76666670","name":"Siningfu"},{"id":"465564","latitude":"36.61666670","longitude":"101.76666670","name":"Sininghsien"},{"id":"465565","latitude":"36.61666670","longitude":"101.76666670","name":"Sining"},{"id":"465811","latitude":"37.18333330","longitude":"99.70000000","name":"Sixin"},{"id":"465885","latitude":"35.00000000","longitude":"101.58333330","name":"Sognag"},{"id":"465887","latitude":"33.41666670","longitude":"100.80000000","name":"Sogruma"},{"id":"465915","latitude":"35.00000000","longitude":"101.58333330","name":"Sonag"},{"id":"465916","latitude":"35.00000000","longitude":"101.58333330","name":"Sonaihai"},{"id":"466367","latitude":"37.18333330","longitude":"99.70000000","name":"Ssuhsin"},{"id":"466719","latitude":"38.96666670","longitude":"94.01666670","name":"Suhai Hu"},{"id":"466733","latitude":"38.35000000","longitude":"94.63333330","name":"Suhsiko"},{"id":"466737","latitude":"33.41666670","longitude":"100.80000000","name":"Suhujihma"},{"id":"466943","latitude":"35.53333330","longitude":"100.86666670","name":"Sumdo"},{"id":"467135","latitude":"37.16666670","longitude":"102.33333330","name":"Sungkussu"},{"id":"467259","latitude":"35.84777780","longitude":"102.48361110","name":"Sunhwa"},{"id":"467479","latitude":"38.70000000","longitude":"95.70000000","name":"Suorsu"},{"id":"467515","latitude":"32.60000000","longitude":"95.20000000","name":"Surug"},{"id":"467574","latitude":"38.35000000","longitude":"94.63333330","name":"Suxik"},{"id":"467630","latitude":"36.34333330","longitude":"102.78111110","name":"Syandan"},{"id":"467659","latitude":"35.84777780","longitude":"102.48361110","name":"Syunkhua"},{"id":"467750","latitude":"37.83333330","longitude":"95.30000000","name":"Tachaitanchen"},{"id":"467751","latitude":"37.83333330","longitude":"95.30000000","name":"Tachaitanshih"},{"id":"467752","latitude":"37.83333330","longitude":"95.30000000","name":"Tachaitan"},{"id":"468045","latitude":"36.49555560","longitude":"101.59722220","name":"Taerhssu"},{"id":"468047","latitude":"37.08333330","longitude":"92.88333330","name":"Taerhting"},{"id":"468153","latitude":"35.83333330","longitude":"99.98333330","name":"Tahopa"},{"id":"468185","latitude":"36.48000000","longitude":"102.19916670","name":"Tahsia"},{"id":"469016","latitude":"33.80000000","longitude":"99.86666670","name":"Tajih"},{"id":"469062","latitude":"36.41666670","longitude":"95.73333330","name":"Takole"},{"id":"469188","latitude":"37.86666670","longitude":"101.16666670","name":"Taliang"},{"id":"469193","latitude":"37.86666670","longitude":"101.16666670","name":"Taliangtien"},{"id":"469510","latitude":"36.68722220","longitude":"101.26361110","name":"Tangar"},{"id":"469571","latitude":"33.66666670","longitude":"95.85000000","name":"Tangchiang"},{"id":"469690","latitude":"36.08333330","longitude":"100.10000000","name":"Tanggarma Nongchang"},{"id":"469691","latitude":"36.23333330","longitude":"99.83333330","name":"Tanggarma"},{"id":"469692","latitude":"36.08333330","longitude":"100.10000000","name":"Tanggarmo"},{"id":"469708","latitude":"34.18333330","longitude":"92.40000000","name":"Tanggulashanqu"},{"id":"469709","latitude":"34.18333330","longitude":"92.40000000","name":"Tanggulashan"},{"id":"469853","latitude":"36.08333330","longitude":"100.10000000","name":"Tangkomu"},{"id":"469870","latitude":"34.18333330","longitude":"92.40000000","name":"Tangkulashankungtsoweiy\u00fcanhui"},{"id":"469871","latitude":"34.18333330","longitude":"92.40000000","name":"Tangkulashan"},{"id":"469878","latitude":"34.05000000","longitude":"99.46666670","name":"Tanglag"},{"id":"469897","latitude":"34.05000000","longitude":"99.46666670","name":"Tanglo"},{"id":"469913","latitude":"35.56666670","longitude":"100.10000000","name":"Tangnag"},{"id":"469914","latitude":"35.56666670","longitude":"100.10000000","name":"Tangnaihai"},{"id":"470152","latitude":"33.90000000","longitude":"99.53333330","name":"Tangxung"},{"id":"470269","latitude":"36.68722220","longitude":"101.26361110","name":"Tankaerh"},{"id":"470767","latitude":"36.39888890","longitude":"100.96527780","name":"Taotangho"},{"id":"471065","latitude":"37.08333330","longitude":"92.88333330","name":"Tardin"},{"id":"471084","latitude":"37.08333330","longitude":"92.88333330","name":"Tar\u00f6n"},{"id":"471086","latitude":"33.83333330","longitude":"99.26666670","name":"Tarsumdo"},{"id":"471087","latitude":"37.08333330","longitude":"92.88333330","name":"Tartin"},{"id":"471088","latitude":"37.08333330","longitude":"92.88333330","name":"Tart"},{"id":"471089","latitude":"37.08333330","longitude":"92.88333330","name":"Tartyn"},{"id":"471218","latitude":"36.61666670","longitude":"99.40000000","name":"Tashuichiao"},{"id":"471255","latitude":"32.40000000","longitude":"96.70000000","name":"Tasumang"},{"id":"471352","latitude":"37.83333330","longitude":"95.30000000","name":"Ta Tsaidam"},{"id":"471353","latitude":"37.83333330","longitude":"95.30000000","name":"Tatsaitan"},{"id":"471359","latitude":"36.60000000","longitude":"94.10000000","name":"Tatsaoho"},{"id":"471411","latitude":"36.93500000","longitude":"101.67361110","name":"Tatunghsien"},{"id":"471422","latitude":"36.93500000","longitude":"101.67361110","name":"Tatung"},{"id":"471439","latitude":"35.66666670","longitude":"98.18333330","name":"Tatu"},{"id":"471493","latitude":"37.16666670","longitude":"101.26666670","name":"Tawan"},{"id":"471546","latitude":"37.91666670","longitude":"91.20000000","name":"Tawussu"},{"id":"471548","latitude":"34.40000000","longitude":"100.10000000","name":"Tawu"},{"id":"471733","latitude":"36.36666670","longitude":"97.60000000","name":"Tebh"},{"id":"471820","latitude":"37.31666670","longitude":"97.21666670","name":"Telingha"},{"id":"471828","latitude":"37.53333330","longitude":"101.33333330","name":"Teme"},{"id":"471830","latitude":"38.18333330","longitude":"90.30000000","name":"Temirlik"},{"id":"471835","latitude":"37.17972220","longitude":"99.25277780","name":"T\u00eampung"},{"id":"471839","latitude":"33.36666670","longitude":"97.13333330","name":"Tendu"},{"id":"472013","latitude":"36.68722220","longitude":"101.26361110","name":"Thangkar"},{"id":"472210","latitude":"36.45361110","longitude":"101.79333330","name":"Tianjiazhai"},{"id":"472237","latitude":"37.30000000","longitude":"99.00000000","name":"Tianjun"},{"id":"472238","latitude":"37.22527780","longitude":"99.00750000","name":"Tianjunzhan"},{"id":"472613","latitude":"35.93333330","longitude":"100.60000000","name":"Tiegai"},{"id":"472667","latitude":"37.53333330","longitude":"101.33333330","name":"Tiehmai"},{"id":"472673","latitude":"38.18333330","longitude":"90.30000000","name":"Tiehmuliko"},{"id":"472851","latitude":"37.30000000","longitude":"99.00000000","name":"Tiench\u00fcn"},{"id":"472899","latitude":"37.30000000","longitude":"99.00000000","name":"Tienhs\u00fcn"},{"id":"472979","latitude":"37.17972220","longitude":"99.25277780","name":"Tienpeng"},{"id":"473199","latitude":"38.18333330","longitude":"90.30000000","name":"Timuerhliko"},{"id":"473200","latitude":"38.18333330","longitude":"90.30000000","name":"Timurlik"},{"id":"473404","latitude":"38.90000000","longitude":"93.43333330","name":"Tingtzukou"},{"id":"473519","latitude":"35.18333330","longitude":"101.83333330","name":"Tofutun"},{"id":"473570","latitude":"38.81222220","longitude":"98.40583330","name":"Tolai"},{"id":"473571","latitude":"32.91666670","longitude":"96.63333330","name":"Tolamakang"},{"id":"473573","latitude":"38.81222220","longitude":"98.40583330","name":"Tole"},{"id":"473591","latitude":"38.18333330","longitude":"90.30000000","name":"Tomorlog"},{"id":"473597","latitude":"38.18333330","longitude":"90.30000000","name":"T\u00f6m\u00fcrlik"},{"id":"473636","latitude":"33.45000000","longitude":"97.00000000","name":"Tongchigompa"},{"id":"473651","latitude":"35.26666670","longitude":"100.53333330","name":"Tongde"},{"id":"473857","latitude":"35.50888890","longitude":"102.01083330","name":"Tongren"},{"id":"473888","latitude":"33.85000000","longitude":"92.30000000","name":"Tongtianheyan"},{"id":"473996","latitude":"36.65500000","longitude":"101.55611110","name":"Topa"},{"id":"474020","latitude":"34.18333330","longitude":"92.40000000","name":"Totohoyen"},{"id":"474243","latitude":"36.75000000","longitude":"99.10000000","name":"Tsahawusu"},{"id":"474338","latitude":"36.75000000","longitude":"99.10000000","name":"Tsaka"},{"id":"474464","latitude":"36.61666670","longitude":"102.03333330","name":"Tsaochiapu"},{"id":"474673","latitude":"33.16666670","longitude":"95.08333330","name":"Tsatohsien"},{"id":"474674","latitude":"33.16666670","longitude":"95.08333330","name":"Tsato"},{"id":"474721","latitude":"35.00000000","longitude":"101.58333330","name":"Tseku"},{"id":"474723","latitude":"37.32555560","longitude":"97.83111110","name":"TselingKou"},{"id":"474983","latitude":"34.83333330","longitude":"97.33333330","name":"Tsopajihlotse"},{"id":"475101","latitude":"36.30000000","longitude":"97.05000000","name":"Tsungchiafangtzu"},{"id":"475663","latitude":"38.81222220","longitude":"98.40583330","name":"Tulai"},{"id":"475665","latitude":"36.91666670","longitude":"98.26666670","name":"Tulanhsien"},{"id":"475666","latitude":"37.00472220","longitude":"98.60944440","name":"Tulanssu"},{"id":"475668","latitude":"37.00472220","longitude":"98.60944440","name":"Tulan"},{"id":"475722","latitude":"36.38305560","longitude":"100.80777780","name":"Tumba"},{"id":"475799","latitude":"34.70000000","longitude":"100.66666670","name":"Tunde"},{"id":"476265","latitude":"35.50888890","longitude":"102.01083330","name":"Tungjenhsien"},{"id":"476268","latitude":"35.50888890","longitude":"102.01083330","name":"Tungjen"},{"id":"476546","latitude":"36.38305560","longitude":"100.80777780","name":"Tungpa"},{"id":"476715","latitude":"34.70000000","longitude":"100.66666670","name":"Tungtehsien"},{"id":"476717","latitude":"34.70000000","longitude":"100.66666670","name":"Tungte"},{"id":"476720","latitude":"33.85000000","longitude":"92.30000000","name":"Tungtienhoyen"},{"id":"476972","latitude":"35.50888890","longitude":"102.01083330","name":"Tunzhen"},{"id":"477011","latitude":"38.81222220","longitude":"98.40583330","name":"Tuole"},{"id":"477026","latitude":"34.18333330","longitude":"92.40000000","name":"Tuotuohe"},{"id":"477027","latitude":"34.18333330","longitude":"92.40000000","name":"Tuotuoheyan"},{"id":"477304","latitude":"33.03333330","longitude":"95.86666670","name":"Tzuch\u00fctuKou"},{"id":"477340","latitude":"35.75000000","longitude":"100.25000000","name":"Tzukotan"},{"id":"477436","latitude":"37.91666670","longitude":"91.20000000","name":"Uerten"},{"id":"477437","latitude":"36.85000000","longitude":"102.05000000","name":"Ugampu"},{"id":"477442","latitude":"36.85000000","longitude":"102.05000000","name":"Ujambu"},{"id":"477477","latitude":"36.91666670","longitude":"98.26666670","name":"Ulan"},{"id":"477509","latitude":"35.13333330","longitude":"91.83333330","name":"Unuli Horog"},{"id":"477525","latitude":"37.91666670","longitude":"91.20000000","name":"Urteng"},{"id":"477526","latitude":"36.90000000","longitude":"93.03333330","name":"Urt Moron"},{"id":"478329","latitude":"36.70000000","longitude":"98.80000000","name":"Wang Gaxun"},{"id":"478639","latitude":"36.70000000","longitude":"98.80000000","name":"Wangkahsiu"},{"id":"479990","latitude":"36.85000000","longitude":"102.05000000","name":"Weiyuanbu"},{"id":"479992","latitude":"36.85000000","longitude":"102.05000000","name":"Weiy\u00fcanchen"},{"id":"479995","latitude":"37.45000000","longitude":"101.81666670","name":"Weiy\u00fcanhsien"},{"id":"479998","latitude":"37.45000000","longitude":"101.81666670","name":"Weiy\u00fcanhuitsutzuchihhsien"},{"id":"480001","latitude":"36.85000000","longitude":"102.05000000","name":"Weiy\u00fcanpao"},{"id":"480005","latitude":"36.85000000","longitude":"102.05000000","name":"Weiyuan"},{"id":"480130","latitude":"33.23333330","longitude":"91.83333330","name":"Wench\u00fcan"},{"id":"480171","latitude":"35.78333330","longitude":"102.38333330","name":"Wendu"},{"id":"480415","latitude":"33.23333330","longitude":"91.83333330","name":"Wenquan"},{"id":"480567","latitude":"36.85000000","longitude":"102.05000000","name":"Weyyuan"},{"id":"480934","latitude":"35.20000000","longitude":"93.05000000","name":"Wudaoliang"},{"id":"480994","latitude":"37.91666670","longitude":"91.20000000","name":"Wuerhteng"},{"id":"481437","latitude":"36.91666670","longitude":"98.26666670","name":"Wulan"},{"id":"481561","latitude":"34.33333330","longitude":"92.73333330","name":"Wuli"},{"id":"481747","latitude":"37.83333330","longitude":"94.31666670","name":"Wupusuichala"},{"id":"481870","latitude":"36.76555560","longitude":"102.13916670","name":"Wushih"},{"id":"481899","latitude":"36.76555560","longitude":"102.13916670","name":"Wushi"},{"id":"481924","latitude":"38.50000000","longitude":"95.88333330","name":"Wusituobie"},{"id":"481980","latitude":"35.20000000","longitude":"93.05000000","name":"Wutaoliang"},{"id":"482031","latitude":"35.55805560","longitude":"102.05083330","name":"Wutong"},{"id":"482071","latitude":"36.90000000","longitude":"93.03333330","name":"Wutumeijen"},{"id":"482094","latitude":"35.55805560","longitude":"102.05083330","name":"Wutun"},{"id":"482311","latitude":"35.55000000","longitude":"101.90000000","name":"Xabrang"},{"id":"482335","latitude":"32.25000000","longitude":"96.21666670","name":"Xangda"},{"id":"482341","latitude":"35.96666670","longitude":"97.90000000","name":"Xang"},{"id":"482344","latitude":"36.40000000","longitude":"98.18333330","name":"Xarag"},{"id":"482357","latitude":"33.86666670","longitude":"100.36666670","name":"Xaroi"},{"id":"482360","latitude":"35.58333330","longitude":"97.43333330","name":"Xar Tolgoin Belqir"},{"id":"482439","latitude":"32.80000000","longitude":"99.70000000","name":"Xia Boingor"},{"id":"482519","latitude":"35.00000000","longitude":"99.23333330","name":"Xia Dawo"},{"id":"482606","latitude":"33.83333330","longitude":"100.08333330","name":"Xia Gongma"},{"id":"482810","latitude":"32.70000000","longitude":"96.60000000","name":"Xialaxiu"},{"id":"483180","latitude":"36.01666670","longitude":"97.70000000","name":"Xiangride Nongchang"},{"id":"483181","latitude":"36.00000000","longitude":"97.90000000","name":"Xiangride"},{"id":"483229","latitude":"36.34333330","longitude":"102.78111110","name":"Xiangtang"},{"id":"483672","latitude":"35.60000000","longitude":"99.35000000","name":"Xiaodongliang"},{"id":"484153","latitude":"35.78333330","longitude":"94.33333330","name":"Xiaonanchuan"},{"id":"484215","latitude":"37.51666670","longitude":"95.41666670","name":"Xiao Qaidam"},{"id":"484259","latitude":"38.80000000","longitude":"98.90000000","name":"Xiaoshalong"},{"id":"484329","latitude":"32.35000000","longitude":"97.23333330","name":"Xiao Surmang"},{"id":"485041","latitude":"33.90000000","longitude":"100.80000000","name":"Xia Zanggor"},{"id":"485702","latitude":"34.91666670","longitude":"91.83333330","name":"Xijir"},{"id":"485786","latitude":"38.90000000","longitude":"93.90000000","name":"Xiliangzi"},{"id":"485795","latitude":"36.91666670","longitude":"98.26666670","name":"Xiligou"},{"id":"486308","latitude":"35.75000000","longitude":"100.25000000","name":"Xinghai"},{"id":"486455","latitude":"34.23333330","longitude":"101.55000000","name":"Xingsagoinba"},{"id":"486625","latitude":"36.61666670","longitude":"101.76666670","name":"Xining Shi"},{"id":"486627","latitude":"36.61666670","longitude":"101.76666670","name":"Xining"},{"id":"486680","latitude":"35.83333330","longitude":"101.36666670","name":"Xinjie"},{"id":"487220","latitude":"37.30000000","longitude":"99.00000000","name":"Xinyuan"},{"id":"487310","latitude":"37.06666670","longitude":"101.58333330","name":"Xinzhuang"},{"id":"487372","latitude":"36.26666670","longitude":"101.78333330","name":"Xiongxian"},{"id":"487450","latitude":"36.91666670","longitude":"98.26666670","name":"Xireg"},{"id":"487620","latitude":"37.28333330","longitude":"95.51666670","name":"Xitieshan"},{"id":"487775","latitude":"33.11666670","longitude":"97.35000000","name":"Xiwu"},{"id":"488046","latitude":"34.90000000","longitude":"100.63333330","name":"Xoima"},{"id":"488051","latitude":"37.16666670","longitude":"102.16666670","name":"Xolungtang"},{"id":"488183","latitude":"38.70000000","longitude":"98.06666670","name":"Xueheli"},{"id":"488242","latitude":"34.80000000","longitude":"99.73333330","name":"Xueshan"},{"id":"488310","latitude":"35.71666670","longitude":"95.96666670","name":"Xugui"},{"id":"488441","latitude":"33.90000000","longitude":"97.38333330","name":"X\u00fcmatang"},{"id":"488463","latitude":"35.84777780","longitude":"102.48361110","name":"Xunhua"},{"id":"488513","latitude":"35.76666670","longitude":"95.60000000","name":"Xurgan"},{"id":"488516","latitude":"35.73333330","longitude":"95.55000000","name":"Xur"},{"id":"488687","latitude":"38.80000000","longitude":"97.63333330","name":"Yaho"},{"id":"488800","latitude":"37.08333330","longitude":"101.80000000","name":"Yamenchuang"},{"id":"488807","latitude":"37.08333330","longitude":"101.80000000","name":"Yamenzhuang"},{"id":"488990","latitude":"34.41666670","longitude":"100.36666670","name":"Yangchang"},{"id":"489641","latitude":"37.67888890","longitude":"98.62722220","name":"Yangkang"},{"id":"490375","latitude":"37.20000000","longitude":"95.21666670","name":"Yanhu"},{"id":"490594","latitude":"33.58333330","longitude":"92.01666670","name":"Yanshiping"},{"id":"491237","latitude":"35.26666670","longitude":"100.53333330","name":"Yapasungtu"},{"id":"491260","latitude":"33.01666670","longitude":"96.73333330","name":"Yarg\u00fcndo"},{"id":"491272","latitude":"32.80000000","longitude":"100.80000000","name":"Yartang"},{"id":"491400","latitude":"34.70000000","longitude":"101.60000000","name":"Yegainnyin"},{"id":"491460","latitude":"37.30361110","longitude":"98.33972220","name":"Yehmatan"},{"id":"491464","latitude":"34.41666670","longitude":"97.93333330","name":"YehniuKou"},{"id":"491565","latitude":"37.30361110","longitude":"98.33972220","name":"Yematan"},{"id":"491654","latitude":"36.75000000","longitude":"99.10000000","name":"Yenchih"},{"id":"491750","latitude":"34.41666670","longitude":"97.93333330","name":"Yeniugou"},{"id":"491825","latitude":"33.58333330","longitude":"92.01666670","name":"Yenshihping"},{"id":"492156","latitude":"38.08333330","longitude":"92.58333330","name":"Yiligou"},{"id":"492159","latitude":"37.91666670","longitude":"93.33333330","name":"Yiliping"},{"id":"492728","latitude":"36.65000000","longitude":"102.36666670","name":"Yinsheng"},{"id":"492929","latitude":"36.58333330","longitude":"100.90000000","name":"Yoinru"},{"id":"493279","latitude":"38.05000000","longitude":"91.91666670","name":"Youdunzi"},{"id":"493319","latitude":"38.33333330","longitude":"99.80000000","name":"Youhulutang"},{"id":"493366","latitude":"38.20000000","longitude":"91.40000000","name":"Youquanzi"},{"id":"493371","latitude":"38.35000000","longitude":"90.93333330","name":"Youshashan"},{"id":"493971","latitude":"38.03333330","longitude":"95.00000000","name":"Y\u00fcchia"},{"id":"494024","latitude":"38.05000000","longitude":"91.91666670","name":"Yuchuantzu"},{"id":"494355","latitude":"34.51666670","longitude":"95.41666670","name":"Yug\u00ea"},{"id":"494562","latitude":"34.70000000","longitude":"101.60000000","name":"Yukantan"},{"id":"495366","latitude":"38.35000000","longitude":"90.93333330","name":"Yushashan"},{"id":"495391","latitude":"33.01666670","longitude":"96.73333330","name":"Y\u00fcshuhsien"},{"id":"495422","latitude":"33.01666670","longitude":"96.73333330","name":"Yushu"},{"id":"495526","latitude":"38.05000000","longitude":"91.91666670","name":"Yutuntzu"},{"id":"495634","latitude":"33.16666670","longitude":"95.08333330","name":"Y\u00fcy\u00fcjihpen"},{"id":"495638","latitude":"33.16666670","longitude":"95.08333330","name":"Yuyuriben"},{"id":"495675","latitude":"36.21055560","longitude":"102.02777780","name":"Zaba"},{"id":"495678","latitude":"33.16666670","longitude":"95.08333330","name":"Zadoi"},{"id":"495679","latitude":"33.20000000","longitude":"94.55000000","name":"Zagarnagsumdo"},{"id":"495680","latitude":"37.91666670","longitude":"98.41666670","name":"Zag\u00eamarchai"},{"id":"495701","latitude":"38.20388890","longitude":"100.01500000","name":"Zamashi"},{"id":"495712","latitude":"34.70000000","longitude":"100.90000000","name":"Zanggoinba"},{"id":"495831","latitude":"33.10000000","longitude":"95.23333330","name":"Zaq\u00ean"},{"id":"495838","latitude":"36.21055560","longitude":"102.02777780","name":"Zawa"},{"id":"495841","latitude":"33.30000000","longitude":"100.75000000","name":"Zayis\u00earchab"},{"id":"495853","latitude":"35.00000000","longitude":"101.58333330","name":"Z\u00eakog"},{"id":"495859","latitude":"37.32555560","longitude":"97.83111110","name":"Zelinggou"},{"id":"495935","latitude":"37.51750000","longitude":"99.12972220","name":"Zhachasi"},{"id":"497230","latitude":"33.16666670","longitude":"94.76666670","name":"Zhaxilhapugoin"},{"id":"497685","latitude":"33.96666670","longitude":"92.75000000","name":"Zhidamsumdo"},{"id":"497690","latitude":"33.90000000","longitude":"95.60000000","name":"Zhidoi"},{"id":"497770","latitude":"33.75000000","longitude":"100.98333330","name":"Zhingda"},{"id":"497779","latitude":"34.33333330","longitude":"95.50000000","name":"Zhiqu"},{"id":"497830","latitude":"33.20000000","longitude":"97.01666670","name":"Zhoinda"},{"id":"498049","latitude":"36.75000000","longitude":"93.75000000","name":"Zhong Juh"},{"id":"498297","latitude":"34.30000000","longitude":"99.20000000","name":"Zhongxinzhan"},{"id":"498423","latitude":"35.25000000","longitude":"102.28333330","name":"Zhorongwo"},{"id":"498659","latitude":"35.86666670","longitude":"101.60000000","name":"Zhoutun"},{"id":"498885","latitude":"33.45000000","longitude":"97.00000000","name":"Zhubgy\u00fcgoin"},{"id":"498966","latitude":"37.66666670","longitude":"99.50000000","name":"Zhugkyung"},{"id":"498980","latitude":"37.16666670","longitude":"102.33333330","name":"Zhugusi"},{"id":"499329","latitude":"35.38333330","longitude":"98.33333330","name":"Zhutuokalun"},{"id":"499497","latitude":"35.75000000","longitude":"100.25000000","name":"Ziketan"},{"id":"499507","latitude":"37.83333330","longitude":"91.73333330","name":"Ziliujing"},{"id":"499533","latitude":"33.03333330","longitude":"95.86666670","name":"Ziqudukou"},{"id":"499601","latitude":"35.11666670","longitude":"98.80000000","name":"Zogainrawar"},{"id":"499619","latitude":"36.30000000","longitude":"97.05000000","name":"Zongjiafangzi"},{"id":"499621","latitude":"36.20000000","longitude":"97.01666670","name":"Zongjia"},{"id":"499641","latitude":"36.53333330","longitude":"101.68333330","name":"Zongzhai"}]