[{"id":"382711","latitude":"37.93611110","longitude":"107.22694440","name":"Andingpu"},{"id":"383136","latitude":"37.93611110","longitude":"107.22694440","name":"Antingpu"},{"id":"383546","latitude":"36.70000000","longitude":"106.06666670","name":"Babaihu"},{"id":"383723","latitude":"36.08166670","longitude":"105.87055560","name":"Baiai"},{"id":"384001","latitude":"39.10000000","longitude":"106.15000000","name":"Baijigou"},{"id":"384010","latitude":"37.03333330","longitude":"105.35000000","name":"Baijuanzi"},{"id":"384140","latitude":"37.60000000","longitude":"105.90000000","name":"Baima"},{"id":"384483","latitude":"38.66666670","longitude":"105.95000000","name":"Baisikou"},{"id":"384514","latitude":"37.55000000","longitude":"106.53333330","name":"Baitashui"},{"id":"384527","latitude":"37.81888890","longitude":"106.35333330","name":"Baitougangzi"},{"id":"384542","latitude":"37.80000000","longitude":"106.30000000","name":"Baitugang"},{"id":"384543","latitude":"37.80000000","longitude":"106.30000000","name":"Baitugangzi"},{"id":"384595","latitude":"36.08166670","longitude":"105.87055560","name":"Baiya"},{"id":"384664","latitude":"36.40972220","longitude":"105.84916670","name":"Baiyazi"},{"id":"385333","latitude":"39.01666670","longitude":"106.70000000","name":"Baofeng"},{"id":"385338","latitude":"39.01666670","longitude":"106.70000000","name":"Baofon"},{"id":"385340","latitude":"39.01666670","longitude":"106.70000000","name":"Baofyn"},{"id":"385519","latitude":"38.12777780","longitude":"106.82638890","name":"Baota"},{"id":"385621","latitude":"37.53333330","longitude":"106.13333330","name":"Baquan"},{"id":"385865","latitude":"37.43333330","longitude":"106.45000000","name":"Bazhuang"},{"id":"385934","latitude":"37.35000000","longitude":"104.80000000","name":"Beichangtan"},{"id":"386238","latitude":"35.36666670","longitude":"106.41666670","name":"Beimianhe"},{"id":"387184","latitude":"36.60805560","longitude":"105.85972220","name":"Buzitai"},{"id":"387188","latitude":"35.91666670","longitude":"106.66666670","name":"Buziyaoxian"},{"id":"387263","latitude":"38.03333330","longitude":"106.96666670","name":"Caijialiang"},{"id":"387557","latitude":"36.03333330","longitude":"106.10000000","name":"Caohe"},{"id":"387611","latitude":"36.41861110","longitude":"105.74472220","name":"Caojiawa"},{"id":"387648","latitude":"36.03638890","longitude":"106.69722220","name":"Caomiao"},{"id":"388617","latitude":"37.72277780","longitude":"105.95055560","name":"Changenpu"},{"id":"388780","latitude":"38.67472220","longitude":"106.32972220","name":"Changhsinpu"},{"id":"388964","latitude":"37.46472220","longitude":"105.11305560","name":"Changle"},{"id":"388980","latitude":"37.46472220","longitude":"105.11305560","name":"Changlepu"},{"id":"389065","latitude":"37.45000000","longitude":"104.91666670","name":"Changliushui"},{"id":"389334","latitude":"37.33333330","longitude":"105.70000000","name":"Changshantou"},{"id":"389449","latitude":"37.53333330","longitude":"105.83333330","name":"Changtan"},{"id":"389629","latitude":"38.67472220","longitude":"106.32972220","name":"Changxin"},{"id":"389645","latitude":"38.67472220","longitude":"106.32972220","name":"Changxingpu"},{"id":"389782","latitude":"37.45000000","longitude":"104.91666670","name":"Chanlyushuy"},{"id":"389984","latitude":"38.93333330","longitude":"106.36666670","name":"Chaohu Nongchang"},{"id":"389985","latitude":"39.00000000","longitude":"106.31666670","name":"Chaohupu"},{"id":"390068","latitude":"37.68333330","longitude":"105.38333330","name":"Chaopishan"},{"id":"390898","latitude":"36.06666670","longitude":"106.31666670","name":"Chengershan"},{"id":"391267","latitude":"35.81666670","longitude":"106.78333330","name":"Chengyang"},{"id":"391471","latitude":"35.56666670","longitude":"106.15000000","name":"Chenjin"},{"id":"391528","latitude":"37.51666670","longitude":"105.26666670","name":"Chenlopao"},{"id":"391529","latitude":"37.51666670","longitude":"105.26666670","name":"Chenlopu"},{"id":"391546","latitude":"37.25000000","longitude":"105.70000000","name":"Chenmajing"},{"id":"391581","latitude":"38.61500000","longitude":"106.06722220","name":"Chenpeichen"},{"id":"391582","latitude":"38.61500000","longitude":"106.06722220","name":"Chenpeipao"},{"id":"391583","latitude":"38.61500000","longitude":"106.06722220","name":"Chenpeipu"},{"id":"391937","latitude":"36.50611110","longitude":"105.86277780","name":"Chiachung"},{"id":"392250","latitude":"35.78333330","longitude":"105.85000000","name":"Chiangtaipu"},{"id":"393935","latitude":"37.93333330","longitude":"106.12305560","name":"Chinchi"},{"id":"393943","latitude":"37.93333330","longitude":"106.12305560","name":"Chinchihsien"},{"id":"394422","latitude":"35.81666670","longitude":"106.25000000","name":"Chingshihtsui"},{"id":"394466","latitude":"38.16666670","longitude":"106.71666670","name":"Chingshuiying"},{"id":"394532","latitude":"37.93333330","longitude":"106.12305560","name":"Chingtsih"},{"id":"394548","latitude":"37.88333330","longitude":"105.90000000","name":"Chingtunghsiachan"},{"id":"394549","latitude":"37.89666670","longitude":"106.01000000","name":"Chingtunghsiachen"},{"id":"394550","latitude":"37.89666670","longitude":"106.01000000","name":"Chingtunghsia"},{"id":"394551","latitude":"37.89666670","longitude":"106.01000000","name":"Chingtunghsiashih"},{"id":"394606","latitude":"35.48333330","longitude":"106.33333330","name":"Chingy\u00fcan"},{"id":"394616","latitude":"35.48333330","longitude":"106.33333330","name":"Chingyuanhsienhuitsutzuchihch\u00fc"},{"id":"394617","latitude":"35.48333330","longitude":"106.33333330","name":"Chingy\u00fcanhuitsutzuchihhsien"},{"id":"395443","latitude":"36.41666670","longitude":"106.45000000","name":"Chiulungshan"},{"id":"395595","latitude":"38.25000000","longitude":"106.20000000","name":"Chiuwanghungpao"},{"id":"395617","latitude":"37.78694440","longitude":"107.39944440","name":"Chiuyenchih"},{"id":"395671","latitude":"36.54638890","longitude":"106.13250000","name":"Chiying"},{"id":"395745","latitude":"38.88333330","longitude":"106.23333330","name":"Chonggangpu"},{"id":"395821","latitude":"38.03333330","longitude":"106.30000000","name":"Chongxingzhai"},{"id":"395832","latitude":"35.55000000","longitude":"106.33333330","name":"Chongyicun"},{"id":"396195","latitude":"35.93333330","longitude":"106.48333330","name":"Chuankou"},{"id":"396646","latitude":"37.64888890","longitude":"105.87416670","name":"Ch\u00fckoupao"},{"id":"396984","latitude":"37.49416670","longitude":"105.66722220","name":"Chungning"},{"id":"396987","latitude":"37.49416670","longitude":"105.66722220","name":"Chungninghsien"},{"id":"397101","latitude":"37.51916670","longitude":"105.17972220","name":"Chungwei"},{"id":"397103","latitude":"37.51916670","longitude":"105.17972220","name":"Chungweihsien"},{"id":"397424","latitude":"38.61500000","longitude":"106.06722220","name":"Chzhenbeypu"},{"id":"397448","latitude":"37.49416670","longitude":"105.66722220","name":"Chzhunnin"},{"id":"397452","latitude":"37.51916670","longitude":"105.17972220","name":"Chzhunvey"},{"id":"397529","latitude":"38.05000000","longitude":"106.68333330","name":"Ciyaopu"},{"id":"397764","latitude":"38.00000000","longitude":"106.03333330","name":"Daba"},{"id":"397833","latitude":"38.01666670","longitude":"105.91666670","name":"Dabazhan"},{"id":"398053","latitude":"39.20000000","longitude":"106.36666670","name":"Dadenggou"},{"id":"398627","latitude":"37.44916670","longitude":"104.30083330","name":"Dainpanshuy"},{"id":"399216","latitude":"35.95000000","longitude":"106.25000000","name":"Damazhuang"},{"id":"399265","latitude":"37.93333330","longitude":"106.10000000","name":"Damiaoqiao"},{"id":"399683","latitude":"35.93333330","longitude":"105.46666670","name":"Daping"},{"id":"400056","latitude":"37.44305560","longitude":"106.96222220","name":"Dashuikeng"},{"id":"400320","latitude":"35.71666670","longitude":"106.28333330","name":"Dawan"},{"id":"400437","latitude":"39.04194440","longitude":"106.39583330","name":"Dawukou"},{"id":"401095","latitude":"35.66666670","longitude":"106.25000000","name":"Dengta"},{"id":"401373","latitude":"35.45000000","longitude":"106.13333330","name":"Didianzhen"},{"id":"401546","latitude":"37.01666670","longitude":"105.83333330","name":"Dingjiatang"},{"id":"402172","latitude":"36.27861110","longitude":"105.69416670","name":"Donghaiba"},{"id":"402276","latitude":"36.67861110","longitude":"105.57944440","name":"Dongjiabu"},{"id":"402859","latitude":"37.96666670","longitude":"107.38333330","name":"Dongtang"},{"id":"402923","latitude":"38.11666670","longitude":"106.78333330","name":"Dongwan"},{"id":"403136","latitude":"37.55000000","longitude":"105.20000000","name":"Dongyuan"},{"id":"403412","latitude":"36.93333330","longitude":"105.85833330","name":"Duanjiagou"},{"id":"403653","latitude":"38.03333330","longitude":"106.33333330","name":"Dumuqiao"},{"id":"403969","latitude":"37.49666670","longitude":"105.76166670","name":"Enhe"},{"id":"403970","latitude":"37.49666670","longitude":"105.76166670","name":"Enhepu"},{"id":"403972","latitude":"37.49666670","longitude":"105.76166670","name":"Enhopu"},{"id":"404081","latitude":"36.09000000","longitude":"105.57555560","name":"Erfuying"},{"id":"404535","latitude":"37.53333330","longitude":"105.70000000","name":"Fandi"},{"id":"404857","latitude":"36.76166670","longitude":"105.71583330","name":"Fanjiawan"},{"id":"405181","latitude":"37.68055560","longitude":"106.85750000","name":"Fengchiakou"},{"id":"405247","latitude":"38.53333330","longitude":"106.23333330","name":"Fengdeng"},{"id":"405452","latitude":"37.68055560","longitude":"106.85750000","name":"Fengjigou"},{"id":"405545","latitude":"35.55000000","longitude":"106.00000000","name":"Fengling"},{"id":"405887","latitude":"36.06666670","longitude":"106.81666670","name":"Fengzhuang"},{"id":"405926","latitude":"37.80000000","longitude":"105.86666670","name":"Fenshouling"},{"id":"406680","latitude":"37.66666670","longitude":"106.10000000","name":"Fushuilaoba"},{"id":"406795","latitude":"37.28333330","longitude":"105.55000000","name":"Fuxingpo"},{"id":"406959","latitude":"36.56666670","longitude":"106.33333330","name":"Ganchengzi"},{"id":"407152","latitude":"37.28333330","longitude":"107.23333330","name":"Ganjiapan"},{"id":"407222","latitude":"37.46194440","longitude":"104.52138890","name":"Gantang"},{"id":"407260","latitude":"36.65000000","longitude":"105.28027780","name":"Ganyanchi"},{"id":"407293","latitude":"36.83361110","longitude":"105.97500000","name":"Gaoai"},{"id":"407547","latitude":"38.56666670","longitude":"106.03333330","name":"Gaojiazha"},{"id":"407754","latitude":"38.73333330","longitude":"106.63333330","name":"Gaorenzhen"},{"id":"407785","latitude":"38.01666670","longitude":"107.03333330","name":"Gaoshawo"},{"id":"407916","latitude":"36.83361110","longitude":"105.97500000","name":"Gaoya"},{"id":"407968","latitude":"37.88333330","longitude":"106.18333330","name":"Gaozha"},{"id":"407993","latitude":"38.96666670","longitude":"106.58333330","name":"Gaozhuang"},{"id":"408537","latitude":"35.70000000","longitude":"105.71666670","name":"Gongyibu"},{"id":"408608","latitude":"35.80000000","longitude":"106.53333330","name":"Goukou"},{"id":"408639","latitude":"37.63888890","longitude":"106.58138890","name":"Goutai"},{"id":"408649","latitude":"36.73333330","longitude":"106.21666670","name":"Gouxi"},{"id":"408942","latitude":"37.79000000","longitude":"105.90027780","name":"Guangwu"},{"id":"409057","latitude":"36.42777780","longitude":"105.55611110","name":"Guanmenshan"},{"id":"409084","latitude":"36.77583330","longitude":"105.78916670","name":"Guanqiaobu"},{"id":"409172","latitude":"36.18333330","longitude":"106.36666670","name":"Guanting"},{"id":"409309","latitude":"35.71666670","longitude":"106.10000000","name":"Guanzhuang"},{"id":"409387","latitude":"35.85694440","longitude":"106.45805560","name":"Gucheng"},{"id":"409907","latitude":"37.96666670","longitude":"106.25000000","name":"Guojiaqiao"},{"id":"409920","latitude":"36.91666670","longitude":"106.25000000","name":"Guojiayangwa"},{"id":"410049","latitude":"37.79722220","longitude":"106.94888890","name":"Guozhuangzi"},{"id":"410233","latitude":"36.00666670","longitude":"106.28083330","name":"Guyuan"},{"id":"410396","latitude":"36.55944440","longitude":"105.64361110","name":"Haicheng"},{"id":"410445","latitude":"36.73500000","longitude":"105.75666670","name":"Haijiawan"},{"id":"410585","latitude":"37.66111110","longitude":"106.71833330","name":"Haitzuching"},{"id":"410634","latitude":"36.55944440","longitude":"105.64361110","name":"Haiyuan"},{"id":"410635","latitude":"36.55944440","longitude":"105.64361110","name":"Haiy\u00fcanhsien"},{"id":"410655","latitude":"37.66111110","longitude":"106.71833330","name":"Haizijing"},{"id":"410784","latitude":"37.06666670","longitude":"105.61666670","name":"Hanchiaoshui"},{"id":"410816","latitude":"38.00000000","longitude":"106.03333330","name":"Hanch\u00fcpu"},{"id":"410853","latitude":"36.58333330","longitude":"106.13333330","name":"Hanfuwan"},{"id":"410972","latitude":"37.06666670","longitude":"105.61666670","name":"Hanjiaoshui"},{"id":"411028","latitude":"38.00000000","longitude":"106.03333330","name":"Hanpapao"},{"id":"411191","latitude":"35.66666670","longitude":"106.40000000","name":"Haodian"},{"id":"411219","latitude":"36.93333330","longitude":"105.20333330","name":"Haojiaji"},{"id":"411226","latitude":"38.01666670","longitude":"106.28333330","name":"Haojiaqiao"},{"id":"411228","latitude":"37.64194440","longitude":"107.26472220","name":"Haojiatai"},{"id":"411305","latitude":"36.79527780","longitude":"105.49083330","name":"Haotzuchuan"},{"id":"411327","latitude":"36.79527780","longitude":"105.49083330","name":"Haozichuan"},{"id":"411478","latitude":"35.98333330","longitude":"106.43333330","name":"Hechuan"},{"id":"411589","latitude":"36.36666670","longitude":"106.10000000","name":"Heichengchen"},{"id":"411594","latitude":"36.36666670","longitude":"106.10000000","name":"Heichengzhen"},{"id":"411944","latitude":"38.58333330","longitude":"106.26666670","name":"Helan"},{"id":"411945","latitude":"38.50000000","longitude":"106.10000000","name":"Helanshan"},{"id":"412035","latitude":"38.43333330","longitude":"106.43333330","name":"Hengcheng"},{"id":"412323","latitude":"38.28777780","longitude":"106.50000000","name":"Hengshanpu"},{"id":"412528","latitude":"35.70000000","longitude":"106.25000000","name":"Heshangpu"},{"id":"413167","latitude":"38.58333330","longitude":"106.26666670","name":"Holan"},{"id":"413168","latitude":"38.58333330","longitude":"106.26666670","name":"Holanhsien"},{"id":"413254","latitude":"37.22361110","longitude":"106.41416670","name":"Hongchengshui"},{"id":"413291","latitude":"38.41666670","longitude":"106.53333330","name":"Hongdunzi"},{"id":"413327","latitude":"38.73333330","longitude":"106.31666670","name":"Hongguangying"},{"id":"413333","latitude":"36.95000000","longitude":"106.00000000","name":"Honggu"},{"id":"413335","latitude":"39.16666670","longitude":"106.66666670","name":"Hongguozi"},{"id":"413340","latitude":"35.76666670","longitude":"106.70000000","name":"Honghe"},{"id":"413405","latitude":"37.45000000","longitude":"107.15000000","name":"Hongjingzi"},{"id":"413568","latitude":"37.30000000","longitude":"105.21666670","name":"Hongquan"},{"id":"413657","latitude":"37.39916670","longitude":"106.06027780","name":"Hongsipu"},{"id":"413693","latitude":"35.65000000","longitude":"106.10000000","name":"Hongtulu"},{"id":"413697","latitude":"37.83333330","longitude":"106.31666670","name":"Hongtupo"},{"id":"413736","latitude":"38.71666670","longitude":"106.30000000","name":"Hongxi"},{"id":"413777","latitude":"36.20055560","longitude":"105.55666670","name":"Hongyangfang"},{"id":"413801","latitude":"36.00972220","longitude":"105.49083330","name":"Hongyao"},{"id":"413808","latitude":"39.03333330","longitude":"106.90000000","name":"Hongyazi"},{"id":"413832","latitude":"35.90000000","longitude":"106.10000000","name":"Hongzhuang"},{"id":"413924","latitude":"35.70000000","longitude":"106.25000000","name":"Hoshangpu"},{"id":"414142","latitude":"37.56916670","longitude":"107.17444440","name":"Houchiaho"},{"id":"414341","latitude":"37.56916670","longitude":"107.17444440","name":"Houjiahe"},{"id":"414647","latitude":"37.21666670","longitude":"107.20000000","name":"Houwa"},{"id":"415131","latitude":"37.11916670","longitude":"106.44611110","name":"Hsiamakuan"},{"id":"415164","latitude":"36.55722220","longitude":"105.50583330","name":"Hsianchou"},{"id":"415291","latitude":"37.28333330","longitude":"104.91666670","name":"Hsiangshan"},{"id":"415577","latitude":"35.88333330","longitude":"105.85000000","name":"Hsiaohocheng"},{"id":"415581","latitude":"35.88333330","longitude":"105.85000000","name":"Hsiaohochen"},{"id":"415647","latitude":"37.51500000","longitude":"104.44916670","name":"Hsiaohungshan"},{"id":"415794","latitude":"38.03333330","longitude":"106.05000000","name":"Hsiaopa"},{"id":"415815","latitude":"38.03333330","longitude":"106.05000000","name":"Hsiaopapao"},{"id":"416373","latitude":"35.96777780","longitude":"105.72000000","name":"Hsichi"},{"id":"416376","latitude":"35.96777780","longitude":"105.72000000","name":"Hsichihsien"},{"id":"416494","latitude":"38.58333330","longitude":"106.26666670","name":"Hsiehkangpao"},{"id":"416549","latitude":"35.48333330","longitude":"106.33333330","name":"Hsiencheng"},{"id":"416816","latitude":"38.58333330","longitude":"106.26666670","name":"Hsikang"},{"id":"417116","latitude":"38.49111110","longitude":"106.18277780","name":"Hsincheng"},{"id":"417255","latitude":"37.28333330","longitude":"106.20000000","name":"Hsinchuangchi"},{"id":"417407","latitude":"36.93666670","longitude":"105.26611110","name":"Hsingjenpao"},{"id":"417409","latitude":"36.93666670","longitude":"105.26611110","name":"Hsingjenpu"},{"id":"417437","latitude":"35.70000000","longitude":"105.81666670","name":"Hsinglungchen"},{"id":"417453","latitude":"35.70000000","longitude":"105.81666670","name":"Hsinglung"},{"id":"417483","latitude":"35.85000000","longitude":"105.63333330","name":"Hsingping"},{"id":"417630","latitude":"37.36638890","longitude":"106.68750000","name":"Hsiningpu"},{"id":"417748","latitude":"37.49416670","longitude":"105.66722220","name":"Hsinninganpao"},{"id":"417993","latitude":"36.03611110","longitude":"105.61972220","name":"Hsinying"},{"id":"418162","latitude":"38.84666670","longitude":"106.37250000","name":"Hsitatan"},{"id":"418413","latitude":"37.46666670","longitude":"105.43333330","name":"Hs\u00fcanhopu"},{"id":"419179","latitude":"37.78694440","longitude":"107.39944440","name":"Huamachih"},{"id":"419421","latitude":"39.01611110","longitude":"106.68138890","name":"Huangch\u00fcchiao"},{"id":"419499","latitude":"36.30000000","longitude":"106.06666670","name":"Huangduobu"},{"id":"419698","latitude":"37.31666670","longitude":"105.10000000","name":"Huangjiataozi"},{"id":"420127","latitude":"37.25000000","longitude":"104.83333330","name":"Huangquan"},{"id":"420131","latitude":"39.01611110","longitude":"106.68138890","name":"Huangquqiao"},{"id":"420561","latitude":"38.25000000","longitude":"105.98333330","name":"Huangyangtan"},{"id":"420562","latitude":"38.26666670","longitude":"106.01666670","name":"Huangyangtanzhan"},{"id":"420564","latitude":"37.51666670","longitude":"105.51666670","name":"Huangyangwan"},{"id":"420734","latitude":"35.48333330","longitude":"106.33333330","name":"Huaping"},{"id":"420738","latitude":"35.48333330","longitude":"106.33333330","name":"Huapingtschuanting"},{"id":"420788","latitude":"38.98333330","longitude":"106.20000000","name":"Huashigou"},{"id":"420920","latitude":"36.85250000","longitude":"105.29638890","name":"Huayawan"},{"id":"421209","latitude":"37.45944440","longitude":"106.66222220","name":"Huianbu"},{"id":"421214","latitude":"37.45944440","longitude":"106.66222220","name":"Huian"},{"id":"421215","latitude":"37.45944440","longitude":"106.66222220","name":"Huianpao"},{"id":"421216","latitude":"37.45944440","longitude":"106.66222220","name":"Huianpu"},{"id":"421218","latitude":"38.98333330","longitude":"106.65000000","name":"Huibei"},{"id":"421306","latitude":"35.56666670","longitude":"106.30000000","name":"Huijiatai"},{"id":"421393","latitude":"38.11666670","longitude":"106.66666670","name":"Huiminhsiang"},{"id":"421396","latitude":"38.11666670","longitude":"106.66666670","name":"Huiminxiang"},{"id":"421407","latitude":"39.09444440","longitude":"106.60805560","name":"Huinong"},{"id":"421408","latitude":"39.09444440","longitude":"106.60805560","name":"Huinong Zhan"},{"id":"421409","latitude":"39.09444440","longitude":"106.60805560","name":"Huinungchan"},{"id":"421410","latitude":"39.01666670","longitude":"106.70000000","name":"Huinunghsien"},{"id":"421411","latitude":"39.01611110","longitude":"106.68138890","name":"Huinung"},{"id":"421565","latitude":"37.63333330","longitude":"106.43333330","name":"Hujiaxiaojing"},{"id":"421895","latitude":"36.95000000","longitude":"106.00000000","name":"Hungkucheng"},{"id":"421993","latitude":"37.39916670","longitude":"106.06027780","name":"Hungssupao"},{"id":"421994","latitude":"37.39916670","longitude":"106.06027780","name":"Hungssupu"},{"id":"422048","latitude":"36.20055560","longitude":"105.55666670","name":"Hungyangfang"},{"id":"422057","latitude":"39.03333330","longitude":"106.90000000","name":"Hungyatzu"},{"id":"422104","latitude":"38.96055560","longitude":"106.46833330","name":"Huochezhan"},{"id":"422244","latitude":"36.12694440","longitude":"105.77333330","name":"Huoshizhai"},{"id":"422579","latitude":"39.01611110","longitude":"106.68138890","name":"Hwangchukiao"},{"id":"422996","latitude":"37.41666670","longitude":"104.66666670","name":"Ivantsyuan"},{"id":"422998","latitude":"37.41666670","longitude":"104.66666670","name":"Iwanch\u00fcan"},{"id":"423272","latitude":"36.50611110","longitude":"105.86277780","name":"Jiachong"},{"id":"423748","latitude":"37.68333330","longitude":"105.56666670","name":"Jiangoushan"},{"id":"423787","latitude":"35.78333330","longitude":"105.85000000","name":"Jiangtaibu"},{"id":"423991","latitude":"39.08333330","longitude":"106.53333330","name":"Jianquan"},{"id":"424316","latitude":"36.52083330","longitude":"105.83222220","name":"Jiatang"},{"id":"424681","latitude":"37.13333330","longitude":"105.93333330","name":"Jijiazhuang"},{"id":"425104","latitude":"38.50000000","longitude":"106.41666670","name":"Jingui"},{"id":"425151","latitude":"35.48333330","longitude":"106.33333330","name":"Jingyuan"},{"id":"425171","latitude":"37.25000000","longitude":"104.88333330","name":"Jingzhuang"},{"id":"425288","latitude":"37.93333330","longitude":"106.12305560","name":"Jinji"},{"id":"425433","latitude":"38.70000000","longitude":"106.13333330","name":"Jinshan"},{"id":"425505","latitude":"38.40000000","longitude":"105.90000000","name":"Jintaquan"},{"id":"425727","latitude":"36.46666670","longitude":"106.31666670","name":"Jiucaiping"},{"id":"425932","latitude":"36.41666670","longitude":"106.45000000","name":"Jiulongshan"},{"id":"426251","latitude":"39.03333330","longitude":"106.15000000","name":"Juchikou"},{"id":"426626","latitude":"35.83333330","longitude":"106.23333330","name":"Kaicheng"},{"id":"427010","latitude":"37.51666670","longitude":"105.63333330","name":"Kangtan"},{"id":"427160","latitude":"37.46194440","longitude":"104.52138890","name":"Kantang"},{"id":"427164","latitude":"37.46194440","longitude":"104.52138890","name":"Kantangtzu"},{"id":"427218","latitude":"36.65000000","longitude":"105.28027780","name":"Kanyenchih"},{"id":"427385","latitude":"38.73333330","longitude":"106.63333330","name":"Kaojenchen"},{"id":"427553","latitude":"38.01666670","longitude":"107.03333330","name":"Kaoshawo"},{"id":"427641","latitude":"36.83361110","longitude":"105.97500000","name":"Kaoya"},{"id":"428009","latitude":"38.00000000","longitude":"106.03333330","name":"Khantszyuypu"},{"id":"428017","latitude":"36.55944440","longitude":"105.64361110","name":"Khaychen"},{"id":"428018","latitude":"36.55944440","longitude":"105.64361110","name":"Khayyuan"},{"id":"428028","latitude":"38.43333330","longitude":"106.43333330","name":"Khenchen"},{"id":"428076","latitude":"35.48333330","longitude":"106.33333330","name":"Khuapin"},{"id":"428108","latitude":"37.45944440","longitude":"106.66222220","name":"Khuyanpu"},{"id":"428280","latitude":"37.93333330","longitude":"106.12305560","name":"Kingchihhsien"},{"id":"428873","latitude":"37.96666670","longitude":"106.51666670","name":"Kouzigou"},{"id":"428979","latitude":"36.77583330","longitude":"105.78916670","name":"Kuanchiaopu"},{"id":"429169","latitude":"37.79000000","longitude":"105.90027780","name":"Kuangwucheng"},{"id":"429174","latitude":"37.79000000","longitude":"105.90027780","name":"Kuangwu"},{"id":"429345","latitude":"36.18333330","longitude":"106.36666670","name":"Kuanting"},{"id":"429487","latitude":"35.85694440","longitude":"106.45805560","name":"Kucheng"},{"id":"430480","latitude":"36.00666670","longitude":"106.28083330","name":"Kuy\u00fcanhsien"},{"id":"430483","latitude":"36.00666670","longitude":"106.28083330","name":"Kuy\u00fcan"},{"id":"430909","latitude":"37.27000000","longitude":"106.78583330","name":"Langbuzhang"},{"id":"431306","latitude":"36.13333330","longitude":"106.48333330","name":"Laobatan"},{"id":"431726","latitude":"37.51666670","longitude":"106.65000000","name":"Laoyanchi"},{"id":"432260","latitude":"35.55777780","longitude":"105.83888890","name":"Liancai"},{"id":"432261","latitude":"35.55777780","longitude":"105.83888890","name":"Liancaipu"},{"id":"432665","latitude":"37.26666670","longitude":"104.91666670","name":"Liangshuiyuanzi"},{"id":"432685","latitude":"38.46666670","longitude":"106.20000000","name":"Liangtian"},{"id":"433043","latitude":"37.91666670","longitude":"106.21666670","name":"Liaoqiao"},{"id":"433300","latitude":"36.22722220","longitude":"105.87722220","name":"Lich\u00fcnpu"},{"id":"433490","latitude":"35.55777780","longitude":"105.83888890","name":"Lientsaipu"},{"id":"433531","latitude":"38.80000000","longitude":"106.41666670","name":"Ligangpu"},{"id":"433571","latitude":"39.06666670","longitude":"106.78333330","name":"Lihe"},{"id":"433630","latitude":"36.82111110","longitude":"105.64916670","name":"Lihuaping"},{"id":"433691","latitude":"37.86666670","longitude":"107.51666670","name":"Lijiajuan"},{"id":"433793","latitude":"36.22722220","longitude":"105.87722220","name":"Lijunbu"},{"id":"433794","latitude":"38.18333330","longitude":"106.13333330","name":"Lijunpu"},{"id":"433802","latitude":"38.80000000","longitude":"106.41666670","name":"LiKangpu"},{"id":"434040","latitude":"38.09833330","longitude":"106.32944440","name":"Linchow"},{"id":"434059","latitude":"38.09833330","longitude":"106.32944440","name":"Linchzhou"},{"id":"434151","latitude":"38.09833330","longitude":"106.32944440","name":"Lingchou"},{"id":"434335","latitude":"38.98333330","longitude":"106.76666670","name":"Lingsha"},{"id":"434425","latitude":"38.09833330","longitude":"106.32944440","name":"Lingwuhsien"},{"id":"434426","latitude":"38.09833330","longitude":"106.32944440","name":"Lingwu"},{"id":"434427","latitude":"38.13333330","longitude":"106.30000000","name":"Lingwu Nongchang"},{"id":"434516","latitude":"38.31666670","longitude":"106.36666670","name":"Linhepu"},{"id":"434808","latitude":"38.09833330","longitude":"106.32944440","name":"Linu"},{"id":"434816","latitude":"38.09833330","longitude":"106.32944440","name":"Linwu"},{"id":"435652","latitude":"36.83222220","longitude":"105.44861110","name":"Liujialaozhuang"},{"id":"435695","latitude":"37.08333330","longitude":"106.53333330","name":"Liujiatan"},{"id":"435716","latitude":"36.18333330","longitude":"106.66666670","name":"Liujiayaoxian"},{"id":"436119","latitude":"36.64555560","longitude":"105.45166670","name":"Liutao"},{"id":"436247","latitude":"37.88333330","longitude":"107.40000000","name":"Liuyangpu"},{"id":"436341","latitude":"36.68305560","longitude":"106.09250000","name":"Liwangbu"},{"id":"436345","latitude":"36.68305560","longitude":"106.09250000","name":"Liwang"},{"id":"436349","latitude":"36.68305560","longitude":"106.09250000","name":"Liwangpu"},{"id":"436410","latitude":"37.91666670","longitude":"105.96666670","name":"Lixin"},{"id":"436560","latitude":"37.93333330","longitude":"106.85000000","name":"Lizhuangzi"},{"id":"436853","latitude":"35.61250000","longitude":"106.11666670","name":"Longde"},{"id":"438221","latitude":"38.56166670","longitude":"106.17138890","name":"Luhuatai"},{"id":"438222","latitude":"38.60000000","longitude":"106.21666670","name":"Luhuataizhan"},{"id":"438476","latitude":"35.61250000","longitude":"106.11666670","name":"Lunde"},{"id":"438870","latitude":"35.61250000","longitude":"106.11666670","name":"Lungteh"},{"id":"438871","latitude":"35.61250000","longitude":"106.11666670","name":"Lungtehsien"},{"id":"438872","latitude":"35.61250000","longitude":"106.11666670","name":"Lungte"},{"id":"439069","latitude":"36.61666670","longitude":"106.00000000","name":"Luochuan"},{"id":"439310","latitude":"37.20000000","longitude":"105.28333330","name":"Luoquanwan"},{"id":"439386","latitude":"36.26666670","longitude":"106.56666670","name":"Luowa"},{"id":"439992","latitude":"37.19194440","longitude":"105.79194440","name":"Machiahowan"},{"id":"440043","latitude":"37.78333330","longitude":"106.83333330","name":"Machiatan"},{"id":"440134","latitude":"36.67000000","longitude":"105.57111110","name":"Machunbu"},{"id":"440196","latitude":"37.15000000","longitude":"106.06666670","name":"Maduantou"},{"id":"440206","latitude":"37.56305560","longitude":"106.84111110","name":"Maerzhuang"},{"id":"440210","latitude":"37.46666670","longitude":"107.26666670","name":"Mafang"},{"id":"440316","latitude":"37.18333330","longitude":"107.10000000","name":"Mahuangshan"},{"id":"440428","latitude":"35.75000000","longitude":"106.10000000","name":"Majiadazhuang"},{"id":"440443","latitude":"36.76666670","longitude":"106.43333330","name":"Majiagaozhuang"},{"id":"440451","latitude":"37.19194440","longitude":"105.79194440","name":"Majiahewan"},{"id":"440453","latitude":"37.88333330","longitude":"106.15000000","name":"Majiahu"},{"id":"440485","latitude":"37.16666670","longitude":"106.08333330","name":"Majiaqu"},{"id":"440492","latitude":"36.94388890","longitude":"105.65472220","name":"Majiatang"},{"id":"440493","latitude":"37.78333330","longitude":"106.83333330","name":"Majiatan"},{"id":"440502","latitude":"36.71611110","longitude":"105.73472220","name":"Majiawan"},{"id":"440642","latitude":"35.80000000","longitude":"105.93333330","name":"Malianchuan"},{"id":"440661","latitude":"37.91666670","longitude":"106.18333330","name":"Malianqu"},{"id":"440663","latitude":"38.25166670","longitude":"106.56444440","name":"Maliantai"},{"id":"440664","latitude":"39.15000000","longitude":"106.36666670","name":"Maliantan"},{"id":"440681","latitude":"35.80000000","longitude":"105.93333330","name":"Malienchuan"},{"id":"441185","latitude":"35.90000000","longitude":"105.58333330","name":"Maojiaping"},{"id":"441655","latitude":"38.79666670","longitude":"106.67222220","name":"Mataigou"},{"id":"441656","latitude":"38.79666670","longitude":"106.67222220","name":"Mataikou"},{"id":"441687","latitude":"38.79666670","longitude":"106.67222220","name":"Mataygou"},{"id":"442431","latitude":"37.16666670","longitude":"106.76666670","name":"Mengcheng"},{"id":"442509","latitude":"35.83333330","longitude":"105.51666670","name":"Menghs\u00fcan"},{"id":"442542","latitude":"37.43333330","longitude":"104.91666670","name":"Mengjiawan"},{"id":"442687","latitude":"35.83333330","longitude":"105.51666670","name":"Mengxuan"},{"id":"442703","latitude":"35.96666670","longitude":"106.81666670","name":"Mengyuan"},{"id":"443016","latitude":"39.10000000","longitude":"106.75000000","name":"Miaotai"},{"id":"443315","latitude":"37.55611110","longitude":"105.86666670","name":"Mingshachou"},{"id":"443326","latitude":"37.55611110","longitude":"105.86666670","name":"Mingshazhou"},{"id":"443642","latitude":"37.48333330","longitude":"105.26666670","name":"Mojialou"},{"id":"443804","latitude":"35.96777780","longitude":"105.72000000","name":"Mouchiaying"},{"id":"443901","latitude":"35.96777780","longitude":"105.72000000","name":"Muchiaying"},{"id":"444039","latitude":"35.96777780","longitude":"105.72000000","name":"Mukiapu"},{"id":"444184","latitude":"35.96777780","longitude":"105.72000000","name":"Mutszyapu"},{"id":"444368","latitude":"38.38333330","longitude":"106.03333330","name":"Nainiuchang"},{"id":"444629","latitude":"37.28472220","longitude":"104.62166670","name":"Nanchangtan"},{"id":"445317","latitude":"38.66666670","longitude":"106.20000000","name":"Nanliang Nongchang"},{"id":"445585","latitude":"37.48333330","longitude":"105.76666670","name":"Nanqiao"},{"id":"446779","latitude":"37.49416670","longitude":"105.66722220","name":"NinAnpu"},{"id":"446780","latitude":"37.49416670","longitude":"105.66722220","name":"NinAnspu"},{"id":"446786","latitude":"37.49416670","longitude":"105.66722220","name":"Ningan"},{"id":"446787","latitude":"37.49416670","longitude":"105.66722220","name":"Ninganpao"},{"id":"446788","latitude":"37.49416670","longitude":"105.66722220","name":"Ninganpto"},{"id":"446789","latitude":"37.49416670","longitude":"105.66722220","name":"Ninganpu"},{"id":"446852","latitude":"38.46805560","longitude":"106.27305560","name":"Ninghsia"},{"id":"446902","latitude":"37.93333330","longitude":"106.12305560","name":"Ningling"},{"id":"446903","latitude":"37.93333330","longitude":"106.12305560","name":"Ninglingting"},{"id":"446915","latitude":"37.93333330","longitude":"106.12305560","name":"Ningping"},{"id":"446924","latitude":"38.03333330","longitude":"106.05000000","name":"Ningshuohsien"},{"id":"446925","latitude":"38.03333330","longitude":"106.05000000","name":"Ningshuo"},{"id":"446926","latitude":"38.46805560","longitude":"106.27305560","name":"Ningsiafu"},{"id":"446927","latitude":"38.46805560","longitude":"106.27305560","name":"Ningsiahsien"},{"id":"446931","latitude":"38.46805560","longitude":"106.27305560","name":"Ningsia"},{"id":"446993","latitude":"37.93333330","longitude":"106.12305560","name":"Ninpin"},{"id":"447211","latitude":"37.87972220","longitude":"107.17805560","name":"Niumaojing"},{"id":"447461","latitude":"38.81888890","longitude":"106.19777780","name":"Nuanch\u00fcan"},{"id":"447473","latitude":"38.81888890","longitude":"106.19777780","name":"Nuanquan"},{"id":"447476","latitude":"38.75000000","longitude":"106.26666670","name":"Nuanquanzhan"},{"id":"448005","latitude":"37.03333330","longitude":"105.35000000","name":"Paich\u00fcantzu"},{"id":"448511","latitude":"37.81888890","longitude":"106.35333330","name":"Paitoukangtzu"},{"id":"448545","latitude":"37.80000000","longitude":"106.30000000","name":"Paitukang"},{"id":"448609","latitude":"36.08166670","longitude":"105.87055560","name":"Paiya"},{"id":"448781","latitude":"38.53333330","longitude":"106.40000000","name":"Panchang"},{"id":"448997","latitude":"36.35000000","longitude":"106.13333330","name":"Panjiabu"},{"id":"449384","latitude":"39.01666670","longitude":"106.70000000","name":"Paofengchen"},{"id":"449388","latitude":"39.01666670","longitude":"106.70000000","name":"Paofeng"},{"id":"449480","latitude":"38.12777780","longitude":"106.82638890","name":"Paota"},{"id":"450071","latitude":"35.36666670","longitude":"106.41666670","name":"Peimienho"},{"id":"450320","latitude":"36.08333330","longitude":"106.11666670","name":"Pengbu"},{"id":"450355","latitude":"37.72277780","longitude":"105.95055560","name":"Pengenpu"},{"id":"450435","latitude":"36.08333330","longitude":"106.11666670","name":"Pengpu"},{"id":"450491","latitude":"35.85000000","longitude":"106.65000000","name":"Pengyang"},{"id":"450554","latitude":"35.95000000","longitude":"105.93333330","name":"Piancheng"},{"id":"450632","latitude":"35.95000000","longitude":"105.93333330","name":"Pienchengpao"},{"id":"450633","latitude":"35.95000000","longitude":"105.93333330","name":"Piencheng"},{"id":"450693","latitude":"36.79277780","longitude":"105.39611110","name":"Pijiachuan"},{"id":"450815","latitude":"38.41666670","longitude":"106.01666670","name":"Pingchiangpao"},{"id":"450818","latitude":"38.41666670","longitude":"106.01666670","name":"Pingchiangpu"},{"id":"450833","latitude":"38.41666670","longitude":"106.01666670","name":"Pingchipao"},{"id":"450836","latitude":"38.35000000","longitude":"106.08333330","name":"Pingchipuchan"},{"id":"450837","latitude":"38.41666670","longitude":"106.01666670","name":"Pingchipu"},{"id":"450922","latitude":"35.73333330","longitude":"105.55000000","name":"Pingfeng"},{"id":"451015","latitude":"38.41666670","longitude":"106.01666670","name":"Pingjipu"},{"id":"451016","latitude":"38.35000000","longitude":"106.08333330","name":"Pingjipuzhan"},{"id":"451097","latitude":"38.96055560","longitude":"106.46833330","name":"Pinglochan"},{"id":"451102","latitude":"38.90694440","longitude":"106.54555560","name":"Pinglo"},{"id":"451109","latitude":"38.96055560","longitude":"106.46833330","name":"Pingluohuochezhan"},{"id":"451115","latitude":"38.90694440","longitude":"106.54555560","name":"Pingluo"},{"id":"451117","latitude":"38.96055560","longitude":"106.46833330","name":"Pingluozhan"},{"id":"451485","latitude":"38.41666670","longitude":"106.01666670","name":"Pintsyanpu"},{"id":"452739","latitude":"38.78333330","longitude":"106.35000000","name":"Qianjin Nongchang"},{"id":"452750","latitude":"38.81666670","longitude":"106.51666670","name":"Qianjin"},{"id":"453855","latitude":"37.26666670","longitude":"106.61666670","name":"Qinglongshan"},{"id":"453973","latitude":"35.81666670","longitude":"106.25000000","name":"Qingshizui"},{"id":"454025","latitude":"38.16666670","longitude":"106.71666670","name":"Qingshuiying"},{"id":"454068","latitude":"37.89666670","longitude":"106.01000000","name":"Qingtongxia"},{"id":"454069","latitude":"37.88333330","longitude":"105.90000000","name":"Qingtongxia Zhan"},{"id":"454486","latitude":"36.54638890","longitude":"106.13250000","name":"Qiying"},{"id":"454564","latitude":"35.85000000","longitude":"105.43333330","name":"Quanhe"},{"id":"454708","latitude":"38.08333330","longitude":"106.05000000","name":"Qujingpu"},{"id":"454712","latitude":"37.64888890","longitude":"105.87416670","name":"Qukoupu"},{"id":"454713","latitude":"37.70000000","longitude":"105.83333330","name":"Qukoupuzhan"},{"id":"454902","latitude":"38.15000000","longitude":"106.21666670","name":"Rencundu"},{"id":"455205","latitude":"37.51666670","longitude":"105.25000000","name":"Rouyuanpu"},{"id":"455283","latitude":"38.93333330","longitude":"106.25000000","name":"Rujigoukou"},{"id":"455284","latitude":"39.03333330","longitude":"106.15000000","name":"Rujigou"},{"id":"456105","latitude":"35.80000000","longitude":"105.51666670","name":"Sanhezhen"},{"id":"456644","latitude":"37.76666670","longitude":"106.10000000","name":"Sanshiligeta"},{"id":"456650","latitude":"35.88333330","longitude":"106.26666670","name":"Sanshilipu"},{"id":"456664","latitude":"38.28333330","longitude":"105.91666670","name":"Sanshizi"},{"id":"456937","latitude":"37.10000000","longitude":"105.08333330","name":"Sanyanjing"},{"id":"456951","latitude":"37.10000000","longitude":"105.08333330","name":"Sanyenching"},{"id":"456959","latitude":"36.30194440","longitude":"106.14416670","name":"Sanying"},{"id":"457188","latitude":"39.28333330","longitude":"106.56666670","name":"Shabatai"},{"id":"457263","latitude":"38.05000000","longitude":"106.50000000","name":"Shaconggou"},{"id":"457316","latitude":"36.68666670","longitude":"105.36194440","name":"Shagouhe"},{"id":"457325","latitude":"36.16861110","longitude":"105.92527780","name":"Shagou"},{"id":"457672","latitude":"35.45000000","longitude":"106.41666670","name":"Shanan"},{"id":"458162","latitude":"37.63361110","longitude":"106.07805560","name":"Shanggunquan"},{"id":"458205","latitude":"37.43333330","longitude":"105.08333330","name":"Shangheyan"},{"id":"458399","latitude":"37.63361110","longitude":"106.07805560","name":"Shangkunch\u00fcan"},{"id":"458431","latitude":"35.51666670","longitude":"106.10000000","name":"Shangliang"},{"id":"458530","latitude":"36.54777780","longitude":"105.80833330","name":"Shangmaying"},{"id":"458742","latitude":"37.31666670","longitude":"105.16666670","name":"Shangshipeng"},{"id":"459163","latitude":"37.08333330","longitude":"105.85000000","name":"Shangzhoujiahewan"},{"id":"459209","latitude":"35.51666670","longitude":"106.15000000","name":"Shanhe"},{"id":"459216","latitude":"35.51666670","longitude":"106.15000000","name":"Shanho"},{"id":"459365","latitude":"36.07722220","longitude":"105.69472220","name":"Shanmacha"},{"id":"459383","latitude":"36.49861110","longitude":"105.61694440","name":"Shanmen"},{"id":"459739","latitude":"38.16666670","longitude":"106.06666670","name":"Shaogangpu"},{"id":"459786","latitude":"38.16666670","longitude":"106.06666670","name":"Shaokangpu"},{"id":"459789","latitude":"35.88333330","longitude":"105.85000000","name":"Shaokocheng"},{"id":"459902","latitude":"37.50000000","longitude":"104.96666670","name":"Shapotou"},{"id":"459959","latitude":"35.58194440","longitude":"105.99277780","name":"Shatangpu"},{"id":"459965","latitude":"35.58194440","longitude":"105.99277780","name":"Shatang"},{"id":"460321","latitude":"37.46666670","longitude":"105.30000000","name":"Shenchiatan"},{"id":"460469","latitude":"37.50000000","longitude":"105.43333330","name":"Shengjingguan"},{"id":"460498","latitude":"38.30000000","longitude":"106.21666670","name":"Shengli"},{"id":"460651","latitude":"37.46666670","longitude":"105.30000000","name":"Shenjiatan"},{"id":"460670","latitude":"37.15000000","longitude":"104.96666670","name":"Shenjing"},{"id":"460698","latitude":"35.58333330","longitude":"105.91666670","name":"Shenlinpu"},{"id":"461048","latitude":"36.08333330","longitude":"106.21666670","name":"Shibei"},{"id":"461164","latitude":"36.52972220","longitude":"105.68527780","name":"Shidian"},{"id":"461187","latitude":"37.60000000","longitude":"105.38333330","name":"Shidunshui"},{"id":"461298","latitude":"37.71916670","longitude":"106.44972220","name":"Shigouyi"},{"id":"461703","latitude":"37.71916670","longitude":"106.44972220","name":"Shihkoui"},{"id":"461734","latitude":"37.51138890","longitude":"105.55361110","name":"Shihkungpao"},{"id":"461739","latitude":"37.51138890","longitude":"105.55361110","name":"Shihkung"},{"id":"462050","latitude":"39.23416670","longitude":"106.34388890","name":"Shihtanching"},{"id":"462132","latitude":"39.26666670","longitude":"106.68333330","name":"Shihtsuishanchan"},{"id":"462133","latitude":"39.23333330","longitude":"106.76944440","name":"Shihtsuishanshih"},{"id":"462134","latitude":"39.04194440","longitude":"106.39583330","name":"Shihtsuishan"},{"id":"462137","latitude":"39.23333330","longitude":"106.76944440","name":"Shihtsui"},{"id":"462143","latitude":"39.23333330","longitude":"106.76944440","name":"Shihtsuitzu"},{"id":"462194","latitude":"35.69083330","longitude":"106.30388890","name":"Shihtzulu"},{"id":"462220","latitude":"38.73333330","longitude":"105.93333330","name":"Shihuichang"},{"id":"462481","latitude":"37.51138890","longitude":"105.55361110","name":"Shikong"},{"id":"462482","latitude":"37.55000000","longitude":"105.66666670","name":"Shikongzhan"},{"id":"462574","latitude":"35.65000000","longitude":"106.16666670","name":"Shilipu"},{"id":"463042","latitude":"37.01666670","longitude":"106.16666670","name":"Shitangling"},{"id":"463053","latitude":"36.34083330","longitude":"105.58055560","name":"Shitang"},{"id":"463060","latitude":"39.23416670","longitude":"106.34388890","name":"Shitanjing"},{"id":"463127","latitude":"39.23333330","longitude":"106.76944440","name":"Shitszuyshan"},{"id":"463202","latitude":"37.11666670","longitude":"105.25000000","name":"Shixianzi"},{"id":"463399","latitude":"35.69083330","longitude":"106.30388890","name":"Shizilu"},{"id":"463423","latitude":"35.71666670","longitude":"106.01666670","name":"Shizi"},{"id":"463440","latitude":"39.04194440","longitude":"106.39583330","name":"Shizuishan"},{"id":"463441","latitude":"39.26666670","longitude":"106.68333330","name":"Shizuishanzhan"},{"id":"463763","latitude":"36.70000000","longitude":"105.90000000","name":"Shuanghe"},{"id":"463840","latitude":"36.58333330","longitude":"106.25000000","name":"Shuangjing"},{"id":"463990","latitude":"38.20000000","longitude":"106.58333330","name":"Shuangmiaozi"},{"id":"465041","latitude":"36.49527780","longitude":"105.48055560","name":"Shutai"},{"id":"465130","latitude":"35.88333330","longitude":"105.85000000","name":"Siaohocheng"},{"id":"465706","latitude":"38.65000000","longitude":"106.35000000","name":"Sishilidian"},{"id":"466620","latitude":"38.10000000","longitude":"107.18333330","name":"Subujing"},{"id":"466894","latitude":"36.75000000","longitude":"106.40000000","name":"Sujiatai"},{"id":"466962","latitude":"37.54750000","longitude":"106.25444440","name":"Sunbaotszyatan"},{"id":"467003","latitude":"37.54750000","longitude":"106.25444440","name":"Sunchiatan"},{"id":"467304","latitude":"37.54750000","longitude":"106.25444440","name":"Sunjiatan"},{"id":"467365","latitude":"37.54750000","longitude":"106.25444440","name":"Sunpaochiatan"},{"id":"467529","latitude":"35.48333330","longitude":"106.18333330","name":"Sutai"},{"id":"467601","latitude":"38.70000000","longitude":"105.98333330","name":"Suyukou"},{"id":"468946","latitude":"37.40000000","longitude":"106.51666670","name":"Taiyangshan"},{"id":"470354","latitude":"36.40000000","longitude":"106.33333330","name":"Tanshan"},{"id":"470669","latitude":"38.79666670","longitude":"106.67222220","name":"Taole"},{"id":"470695","latitude":"38.79666670","longitude":"106.67222220","name":"Taolo"},{"id":"470740","latitude":"35.50500000","longitude":"106.04833330","name":"Taoshan"},{"id":"470866","latitude":"35.63333330","longitude":"105.95000000","name":"Taoyuan"},{"id":"470950","latitude":"38.00000000","longitude":"106.03333330","name":"Tapapao"},{"id":"470957","latitude":"38.00000000","longitude":"106.03333330","name":"Tapa"},{"id":"471221","latitude":"37.44305560","longitude":"106.96222220","name":"Tashuikeng"},{"id":"471298","latitude":"39.20000000","longitude":"106.36666670","name":"Tatengkou"},{"id":"471456","latitude":"35.71666670","longitude":"106.28333330","name":"Tawanchen"},{"id":"471498","latitude":"35.71666670","longitude":"106.28333330","name":"Tawan"},{"id":"471512","latitude":"39.04194440","longitude":"106.39583330","name":"Taweikou"},{"id":"471541","latitude":"39.04194440","longitude":"106.39583330","name":"Tawukou"},{"id":"471640","latitude":"37.44916670","longitude":"104.30083330","name":"Tayingpanschui"},{"id":"471641","latitude":"37.44916670","longitude":"104.30083330","name":"Tayingpanshui"},{"id":"472069","latitude":"37.91666670","longitude":"107.11666670","name":"Tianchi"},{"id":"472186","latitude":"37.03333330","longitude":"106.31666670","name":"Tianjialaozhuang"},{"id":"472192","latitude":"36.00166670","longitude":"105.34388890","name":"Tianjiaping"},{"id":"472351","latitude":"38.16666670","longitude":"106.53333330","name":"Tianshuihe"},{"id":"472816","latitude":"37.91666670","longitude":"107.11666670","name":"Tienchih"},{"id":"473663","latitude":"38.73333330","longitude":"106.51666670","name":"Tongfupu"},{"id":"473677","latitude":"38.50000000","longitude":"106.46666670","name":"Tonggui"},{"id":"473711","latitude":"37.70000000","longitude":"107.33333330","name":"Tongjiajuan"},{"id":"473844","latitude":"38.36666670","longitude":"106.35000000","name":"Tongqiao"},{"id":"473926","latitude":"36.97527780","longitude":"105.90916670","name":"Tongxin"},{"id":"473941","latitude":"38.63333330","longitude":"106.48333330","name":"Tongyi"},{"id":"474055","latitude":"38.61666670","longitude":"106.56666670","name":"Toudaodun"},{"id":"474069","latitude":"39.36666670","longitude":"106.73333330","name":"Toudaokan"},{"id":"474085","latitude":"38.33333330","longitude":"105.85000000","name":"Touguan"},{"id":"474105","latitude":"38.33333330","longitude":"105.85000000","name":"Toukuan"},{"id":"474203","latitude":"36.16666670","longitude":"106.20000000","name":"Touying"},{"id":"474216","latitude":"38.93333330","longitude":"106.66666670","name":"Touzha"},{"id":"474583","latitude":"36.03638890","longitude":"106.69722220","name":"Tsaomiao"},{"id":"474663","latitude":"37.59222220","longitude":"105.78083330","name":"Tsaoy\u00fcanpu"},{"id":"474916","latitude":"38.16666670","longitude":"106.71666670","name":"Tsinshuin"},{"id":"474917","latitude":"38.16666670","longitude":"106.71666670","name":"Tsinshuyin"},{"id":"475212","latitude":"37.93333330","longitude":"106.12305560","name":"Tszintszi"},{"id":"475963","latitude":"36.67861110","longitude":"105.57944440","name":"Tungchiapu"},{"id":"476116","latitude":"36.27861110","longitude":"105.69416670","name":"Tunghaipa"},{"id":"476181","latitude":"36.97527780","longitude":"105.90916670","name":"Tunghsincheng"},{"id":"476205","latitude":"36.97527780","longitude":"105.90916670","name":"Tunghsinhsien"},{"id":"476211","latitude":"36.97527780","longitude":"105.90916670","name":"Tunghsin"},{"id":"476678","latitude":"36.97527780","longitude":"105.90916670","name":"Tungsin"},{"id":"476951","latitude":"36.97527780","longitude":"105.90916670","name":"Tunsin Chen"},{"id":"477054","latitude":"37.26666670","longitude":"105.81666670","name":"Tupo"},{"id":"477411","latitude":"38.05000000","longitude":"106.68333330","name":"Tzuyaopu"},{"id":"477430","latitude":"37.99194440","longitude":"106.20250000","name":"Uchzhunpu"},{"id":"478301","latitude":"37.40000000","longitude":"106.31666670","name":"Wangfutai"},{"id":"478387","latitude":"38.25000000","longitude":"106.20000000","name":"Wanghongpu"},{"id":"478418","latitude":"38.25000000","longitude":"106.20000000","name":"Wanghungpao"},{"id":"478419","latitude":"38.25000000","longitude":"106.20000000","name":"Wanghungpu"},{"id":"478692","latitude":"38.25000000","longitude":"106.20000000","name":"Wangkungpao"},{"id":"478715","latitude":"37.76666670","longitude":"107.15000000","name":"Wangleching"},{"id":"478716","latitude":"37.76666670","longitude":"107.15000000","name":"Wanglejing"},{"id":"478783","latitude":"35.80000000","longitude":"105.73333330","name":"Wangminbu"},{"id":"478914","latitude":"37.53888890","longitude":"107.01055560","name":"Wangsitan"},{"id":"479003","latitude":"36.86666670","longitude":"106.00000000","name":"Wangtuanchuang"},{"id":"479009","latitude":"36.85055560","longitude":"105.31777780","name":"Wangtuanzhuang"},{"id":"479038","latitude":"36.10500000","longitude":"106.63833330","name":"Wangwa"},{"id":"479130","latitude":"38.40000000","longitude":"106.26666670","name":"Wangy\u00fcanchiao"},{"id":"479131","latitude":"38.40000000","longitude":"106.26666670","name":"Wangyuanqiao"},{"id":"479238","latitude":"36.45583330","longitude":"105.87250000","name":"Wanjiawan"},{"id":"479252","latitude":"38.25000000","longitude":"106.20000000","name":"Wankhunpu"},{"id":"479539","latitude":"35.71944440","longitude":"106.35916670","name":"Wating"},{"id":"479557","latitude":"36.45638890","longitude":"105.78972220","name":"Wawujing"},{"id":"479636","latitude":"39.18333330","longitude":"106.73333330","name":"Weicha"},{"id":"479681","latitude":"37.28861110","longitude":"106.47555560","name":"Weichou"},{"id":"480019","latitude":"39.18333330","longitude":"106.73333330","name":"Weizha"},{"id":"480026","latitude":"37.28861110","longitude":"106.47555560","name":"Weizhou"},{"id":"480062","latitude":"35.45000000","longitude":"105.96666670","name":"Wenbu"},{"id":"480566","latitude":"37.28861110","longitude":"106.47555560","name":"Weychzhou"},{"id":"480884","latitude":"37.99194440","longitude":"106.20250000","name":"Wuchungpao"},{"id":"480885","latitude":"37.99194440","longitude":"106.20250000","name":"Wuchungpu"},{"id":"480886","latitude":"37.99194440","longitude":"106.20250000","name":"Wuchungshih"},{"id":"480887","latitude":"37.99194440","longitude":"106.20250000","name":"Wuchung"},{"id":"480977","latitude":"38.92694440","longitude":"106.80333330","name":"Wuduizi"},{"id":"481286","latitude":"36.61638890","longitude":"105.57416670","name":"Wujiayuan"},{"id":"481531","latitude":"37.80000000","longitude":"106.30000000","name":"Wulipo"},{"id":"482027","latitude":"38.18333330","longitude":"106.28333330","name":"Wutongshu"},{"id":"482129","latitude":"38.78333330","longitude":"106.58333330","name":"Wuxiangpu"},{"id":"482222","latitude":"36.45000000","longitude":"106.16666670","name":"Wuying"},{"id":"482294","latitude":"37.99194440","longitude":"106.20250000","name":"Wuzhong"},{"id":"482295","latitude":"37.99194440","longitude":"106.20250000","name":"Wuzhong Xian"},{"id":"482390","latitude":"36.15611110","longitude":"105.58500000","name":"Xiabaicheng"},{"id":"482669","latitude":"37.43333330","longitude":"105.08333330","name":"Xiaheyan"},{"id":"482791","latitude":"37.88333330","longitude":"106.08333330","name":"Xiakou"},{"id":"482846","latitude":"37.05000000","longitude":"105.45000000","name":"Xialiushui"},{"id":"482886","latitude":"37.11916670","longitude":"106.44611110","name":"Xiamaguan"},{"id":"482887","latitude":"37.40000000","longitude":"105.93333330","name":"Xiamahuanggou"},{"id":"483191","latitude":"37.28333330","longitude":"104.91666670","name":"Xiangshan"},{"id":"483383","latitude":"35.64083330","longitude":"106.44972220","name":"Xianmawan"},{"id":"483455","latitude":"37.25000000","longitude":"105.88333330","name":"Xiantuoshi"},{"id":"483507","latitude":"36.55722220","longitude":"105.50583330","name":"Xianzhou"},{"id":"483547","latitude":"38.03333330","longitude":"106.05000000","name":"Xiaoba"},{"id":"483591","latitude":"36.15000000","longitude":"106.76666670","name":"Xiaocha"},{"id":"483613","latitude":"38.14472220","longitude":"107.12972220","name":"Xiaochizi"},{"id":"483828","latitude":"36.61916670","longitude":"105.52111110","name":"Xiaohe"},{"id":"483840","latitude":"35.88333330","longitude":"105.85000000","name":"Xiaohezhen"},{"id":"483848","latitude":"37.51500000","longitude":"104.44916670","name":"Xiaohongshan"},{"id":"484009","latitude":"38.58333330","longitude":"105.93333330","name":"Xiaokouzi"},{"id":"484154","latitude":"36.35750000","longitude":"105.73111110","name":"Xiaonanchuan"},{"id":"484901","latitude":"37.18333330","longitude":"105.38333330","name":"Xiaxiaoyuchuan"},{"id":"484981","latitude":"36.29444440","longitude":"105.50194440","name":"Xiayao"},{"id":"485003","latitude":"39.15000000","longitude":"106.70000000","name":"Xiayingzi"},{"id":"485056","latitude":"35.95000000","longitude":"105.80000000","name":"Xiazhai"},{"id":"485082","latitude":"37.10000000","longitude":"105.83333330","name":"Xiazhoujiahewan"},{"id":"485250","latitude":"38.84666670","longitude":"106.37250000","name":"Xidatan"},{"id":"485496","latitude":"38.58333330","longitude":"106.26666670","name":"Xigang"},{"id":"485632","latitude":"38.56666670","longitude":"106.21666670","name":"Xihu Nongchang"},{"id":"485670","latitude":"36.01666670","longitude":"106.26666670","name":"Xijiao"},{"id":"485705","latitude":"35.88333330","longitude":"105.75000000","name":"Xijitan"},{"id":"485712","latitude":"35.96777780","longitude":"105.72000000","name":"Xiji"},{"id":"486062","latitude":"38.49111110","longitude":"106.18277780","name":"Xincheng"},{"id":"486404","latitude":"35.70000000","longitude":"105.81666670","name":"Xinglong"},{"id":"486415","latitude":"35.70000000","longitude":"105.81666670","name":"Xinglongzhen"},{"id":"486437","latitude":"35.85000000","longitude":"105.63333330","name":"Xingping"},{"id":"486448","latitude":"36.93666670","longitude":"105.26611110","name":"Xingrenbu"},{"id":"486453","latitude":"36.93666670","longitude":"105.26611110","name":"Xingren"},{"id":"486464","latitude":"35.45000000","longitude":"106.33333330","name":"Xingshengzhuang"},{"id":"486599","latitude":"38.06666670","longitude":"106.21666670","name":"Xinhuaqiao"},{"id":"486624","latitude":"37.36638890","longitude":"106.68750000","name":"Xiningpu"},{"id":"486707","latitude":"35.76666670","longitude":"106.46666670","name":"Xinji"},{"id":"486857","latitude":"35.31666670","longitude":"106.43333330","name":"Xinmin"},{"id":"486904","latitude":"37.45000000","longitude":"105.68333330","name":"Xinpu"},{"id":"486951","latitude":"37.33333330","longitude":"106.98333330","name":"Xinquanjing"},{"id":"487204","latitude":"36.03611110","longitude":"105.61972220","name":"Xinying"},{"id":"487302","latitude":"37.28333330","longitude":"106.20000000","name":"Xinzhuangji"},{"id":"487327","latitude":"37.25000000","longitude":"107.01666670","name":"Xinzhuangzi"},{"id":"487355","latitude":"37.23333330","longitude":"105.10000000","name":"Xiongjiashui"},{"id":"487737","latitude":"36.69305560","longitude":"105.90250000","name":"Xiwan"},{"id":"487944","latitude":"39.08333330","longitude":"106.61666670","name":"Xiyonggu"},{"id":"487958","latitude":"37.50000000","longitude":"105.11666670","name":"Xiyuan"},{"id":"488067","latitude":"37.46666670","longitude":"105.43333330","name":"Xuanhepu"},{"id":"488113","latitude":"37.13333330","longitude":"106.25000000","name":"Xubingshui"},{"id":"488255","latitude":"36.67000000","longitude":"105.40444440","name":"Xuetao"},{"id":"488303","latitude":"37.88333330","longitude":"106.83333330","name":"Xuguangtan"},{"id":"488374","latitude":"36.93277780","longitude":"105.57722220","name":"Xujiataozi"},{"id":"488503","latitude":"36.49583330","longitude":"105.71777780","name":"Xupingcun"},{"id":"488656","latitude":"37.83333330","longitude":"106.96666670","name":"Yaergou"},{"id":"488863","latitude":"37.78694440","longitude":"107.39944440","name":"Yanchi"},{"id":"489113","latitude":"37.91277780","longitude":"106.65694440","name":"Yangchiayao"},{"id":"489246","latitude":"36.62500000","longitude":"105.76027780","name":"Yangfangbu"},{"id":"489298","latitude":"35.41666670","longitude":"106.08333330","name":"Yanggou"},{"id":"489329","latitude":"38.28277780","longitude":"106.24861110","name":"Yanghe"},{"id":"489338","latitude":"38.28277780","longitude":"106.24861110","name":"Yanghopao"},{"id":"489346","latitude":"38.28277780","longitude":"106.24861110","name":"Yangho"},{"id":"489580","latitude":"37.91277780","longitude":"106.65694440","name":"Yangjiayao"},{"id":"489691","latitude":"36.23166670","longitude":"106.16333330","name":"Yanglangchen"},{"id":"489694","latitude":"36.23166670","longitude":"106.16333330","name":"Yanglang"},{"id":"489695","latitude":"36.23166670","longitude":"106.16333330","name":"Yanglangzhen"},{"id":"489800","latitude":"36.60000000","longitude":"106.16666670","name":"Yangluwa"},{"id":"489853","latitude":"36.25888890","longitude":"105.75888890","name":"Yangmingbu"},{"id":"490771","latitude":"39.05000000","longitude":"106.58333330","name":"Yanzidun"},{"id":"490876","latitude":"38.74638890","longitude":"106.46666670","name":"Yaofupu"},{"id":"490878","latitude":"38.74638890","longitude":"106.46666670","name":"Yaofu"},{"id":"491074","latitude":"36.96666670","longitude":"106.16666670","name":"Yaoshan"},{"id":"491474","latitude":"38.11111110","longitude":"106.16444440","name":"Yehshengpu"},{"id":"491657","latitude":"37.28861110","longitude":"106.47555560","name":"Yenchih"},{"id":"491944","latitude":"38.11111110","longitude":"106.16444440","name":"Yeshengpu"},{"id":"491946","latitude":"38.11111110","longitude":"106.16444440","name":"Yesheng"},{"id":"492252","latitude":"38.48333330","longitude":"106.15000000","name":"Yinchuanchan"},{"id":"492255","latitude":"38.46805560","longitude":"106.27305560","name":"Yinchuanshih"},{"id":"492256","latitude":"38.46805560","longitude":"106.27305560","name":"Yinchuan Shi"},{"id":"492257","latitude":"38.46805560","longitude":"106.27305560","name":"Yinchuan"},{"id":"492258","latitude":"38.48333330","longitude":"106.15000000","name":"Yinchuanzhan"},{"id":"492475","latitude":"37.44916670","longitude":"104.30083330","name":"Yingpanshui"},{"id":"492519","latitude":"37.50000000","longitude":"105.06666670","name":"Yingshuichiao"},{"id":"492520","latitude":"37.50000000","longitude":"105.06666670","name":"Yingshuiqiao"},{"id":"492774","latitude":"38.50000000","longitude":"106.10000000","name":"Yinxin Nongchang"},{"id":"492877","latitude":"37.41666670","longitude":"104.66666670","name":"Yiwanquan"},{"id":"493070","latitude":"37.47527780","longitude":"105.34055560","name":"Yongkangpu"},{"id":"493075","latitude":"37.47527780","longitude":"105.34055560","name":"Yongkang"},{"id":"493095","latitude":"37.93333330","longitude":"106.68333330","name":"Yongli"},{"id":"493123","latitude":"38.28277780","longitude":"106.24861110","name":"Yongning"},{"id":"493329","latitude":"37.01666670","longitude":"105.26666670","name":"Youjingzi"},{"id":"493779","latitude":"36.94277780","longitude":"105.63750000","name":"Yuantao"},{"id":"493852","latitude":"39.23333330","longitude":"106.78333330","name":"Yuanyi"},{"id":"494179","latitude":"38.55000000","longitude":"106.56666670","name":"Y\u00fcehyahu"},{"id":"494292","latitude":"38.55000000","longitude":"106.56666670","name":"Yueyahu"},{"id":"494946","latitude":"37.47527780","longitude":"105.34055560","name":"YungKangpu"},{"id":"494994","latitude":"38.28277780","longitude":"106.24861110","name":"Yungninghsien"},{"id":"495003","latitude":"38.28277780","longitude":"106.24861110","name":"Yungning"},{"id":"495538","latitude":"36.82555560","longitude":"106.37583330","name":"Yuwang"},{"id":"495816","latitude":"37.59222220","longitude":"105.78083330","name":"Zaoyuanpu"},{"id":"495872","latitude":"38.20000000","longitude":"106.15000000","name":"Zenggang"},{"id":"495988","latitude":"36.33027780","longitude":"106.38333330","name":"Zhaike"},{"id":"496223","latitude":"37.72277780","longitude":"105.95055560","name":"Zhangenpu"},{"id":"496224","latitude":"37.72277780","longitude":"105.95055560","name":"Zhangen"},{"id":"496377","latitude":"36.75000000","longitude":"106.61666670","name":"Zhangjiajing"},{"id":"496439","latitude":"36.76666670","longitude":"106.06666670","name":"Zhangjiawan"},{"id":"496467","latitude":"36.70000000","longitude":"106.33333330","name":"Zhangjiayuan"},{"id":"496778","latitude":"35.81666670","longitude":"106.08333330","name":"Zhangyi"},{"id":"496801","latitude":"38.40000000","longitude":"106.36666670","name":"Zhangzhengqiao"},{"id":"496900","latitude":"37.68333330","longitude":"105.38333330","name":"Zhaobishan"},{"id":"497003","latitude":"35.75000000","longitude":"106.73333330","name":"Zhaojiahe"},{"id":"497013","latitude":"37.16666670","longitude":"106.43333330","name":"Zhaojiamiao"},{"id":"497176","latitude":"37.59222220","longitude":"105.78083330","name":"Zhaoyuanpu"},{"id":"497307","latitude":"38.61500000","longitude":"106.06722220","name":"Zhenbeipu"},{"id":"497462","latitude":"36.44333330","longitude":"105.95166670","name":"Zhengqibu"},{"id":"497562","latitude":"37.51666670","longitude":"105.26666670","name":"Zhenluopu"},{"id":"498119","latitude":"37.49416670","longitude":"105.66722220","name":"Zhongning"},{"id":"498189","latitude":"36.05000000","longitude":"106.16666670","name":"Zhongshuihe"},{"id":"498213","latitude":"37.96666670","longitude":"106.06666670","name":"Zhongtan"},{"id":"498241","latitude":"37.51916670","longitude":"105.17972220","name":"Zhongwei"},{"id":"498436","latitude":"38.78333330","longitude":"106.48333330","name":"Zhoucheng"},{"id":"498487","latitude":"36.73722220","longitude":"105.68666670","name":"Zhoujiabao"}]