[{"id":"499805","latitude":"2.36666670","longitude":"-76.71666670","name":"Abrego"},{"id":"499824","latitude":"1.75055560","longitude":"-76.89166670","name":"Acevedo"},{"id":"499844","latitude":"1.85527780","longitude":"-77.18305560","name":"Adoretes"},{"id":"499851","latitude":"2.88333330","longitude":"-76.66666670","name":"Aganche"},{"id":"499859","latitude":"2.67694440","longitude":"-75.93722220","name":"Agua Blanca"},{"id":"499896","latitude":"2.30000000","longitude":"-77.76666670","name":"Aguaclara"},{"id":"499922","latitude":"2.79388890","longitude":"-77.61250000","name":"Agua Dulce"},{"id":"499957","latitude":"2.74611110","longitude":"-76.79416670","name":"Aguanegra"},{"id":"500092","latitude":"2.21666670","longitude":"-77.70000000","name":"Alfonso L\u00f3pez"},{"id":"500121","latitude":"2.25000000","longitude":"-76.86666670","name":"Alianza"},{"id":"500131","latitude":"1.91722220","longitude":"-76.85888890","name":"Almaguer"},{"id":"500153","latitude":"2.73388890","longitude":"-76.52222220","name":"Alta Buena Vista"},{"id":"500171","latitude":"2.08333330","longitude":"-76.76666670","name":"Altamira"},{"id":"500193","latitude":"2.69388890","longitude":"-76.77000000","name":"Alto"},{"id":"500210","latitude":"2.86666670","longitude":"-77.23333330","name":"Alto Chuar\u00e9"},{"id":"500228","latitude":"2.45000000","longitude":"-76.81666670","name":"Alto del Rey"},{"id":"500232","latitude":"1.69777780","longitude":"-77.29888890","name":"Alto de Mayo"},{"id":"500255","latitude":"1.75583330","longitude":"-77.18944440","name":"Alto La Campana"},{"id":"500256","latitude":"1.75583330","longitude":"-77.18944440","name":"Alto La Compana"},{"id":"500288","latitude":"2.88333330","longitude":"-77.18333330","name":"Alto Sig\u00fc\u00ed"},{"id":"500370","latitude":"3.05000000","longitude":"-76.66666670","name":"Anasu"},{"id":"500373","latitude":"2.52638890","longitude":"-76.79888890","name":"Anayas"},{"id":"500486","latitude":"1.77250000","longitude":"-77.23694440","name":"Aquatr\u00eda"},{"id":"500515","latitude":"2.47638890","longitude":"-75.91972220","name":"Aranzazu"},{"id":"500534","latitude":"2.57750000","longitude":"-75.83305560","name":"Araujo"},{"id":"500540","latitude":"2.15000000","longitude":"-76.78333330","name":"Arbela"},{"id":"500546","latitude":"1.70250000","longitude":"-77.20055560","name":"Arboleda"},{"id":"500550","latitude":"1.70250000","longitude":"-77.20055560","name":"Arboledas"},{"id":"500588","latitude":"2.82138890","longitude":"-76.70583330","name":"Arenales"},{"id":"500608","latitude":"2.24305560","longitude":"-77.27861110","name":"Argelia"},{"id":"500666","latitude":"2.68861110","longitude":"-76.81666670","name":"Arrayanal"},{"id":"500673","latitude":"2.69250000","longitude":"-76.80888890","name":"Arrayanes"},{"id":"500735","latitude":"3.05000000","longitude":"-76.66666670","name":"Asnazu"},{"id":"500780","latitude":"3.10000000","longitude":"-76.75000000","name":"Aures"},{"id":"500798","latitude":"2.66666670","longitude":"-76.00000000","name":"Avirama"},{"id":"500863","latitude":"2.86666670","longitude":"-77.18333330","name":"Bajo Sig\u00fc\u00ed"},{"id":"500875","latitude":"2.04361110","longitude":"-77.21972220","name":"Balboa"},{"id":"500913","latitude":"2.21666670","longitude":"-77.70000000","name":"Balsistas"},{"id":"500915","latitude":"2.21666670","longitude":"-77.70000000","name":"Balsitas"},{"id":"500952","latitude":"2.36666670","longitude":"-76.91666670","name":"Baraya"},{"id":"500998","latitude":"3.05611110","longitude":"-76.58027780","name":"Barrac\u00f3n"},{"id":"501038","latitude":"2.86888890","longitude":"-77.60305560","name":"Barranc\u00f3n"},{"id":"501127","latitude":"1.97222220","longitude":"-77.06472220","name":"Batatal"},{"id":"501173","latitude":"2.65472220","longitude":"-75.99277780","name":"Belalcazar"},{"id":"501175","latitude":"2.65472220","longitude":"-75.99277780","name":"Belalc\u00e1zer"},{"id":"501180","latitude":"2.46916670","longitude":"-76.03916670","name":"Bel\u00e9n"},{"id":"501237","latitude":"1.68777780","longitude":"-77.10333330","name":"Bellavista"},{"id":"501283","latitude":"2.31666670","longitude":"-77.76666670","name":"Benjam\u00edn Herrera"},{"id":"501314","latitude":"2.50166670","longitude":"-76.60055560","name":"Bernardino"},{"id":"501336","latitude":"2.58388890","longitude":"-76.75416670","name":"Betania"},{"id":"501362","latitude":"2.98027780","longitude":"-76.73166670","name":"Betulia"},{"id":"501409","latitude":"2.51388890","longitude":"-77.88055560","name":"Boca Chapet\u00f3n"},{"id":"501419","latitude":"2.51388890","longitude":"-77.88055560","name":"Boca de Chapet\u00f3n"},{"id":"501434","latitude":"2.81111110","longitude":"-77.63583330","name":"Boca de Lagartero"},{"id":"501483","latitude":"2.56111110","longitude":"-77.87000000","name":"Boca Penitente"},{"id":"501494","latitude":"3.26666670","longitude":"-76.45000000","name":"Bocas del Palo"},{"id":"501558","latitude":"1.97083330","longitude":"-76.96944440","name":"Bol\u00edvar"},{"id":"501586","latitude":"1.70000000","longitude":"-76.78333330","name":"Bombona"},{"id":"501654","latitude":"2.48333330","longitude":"-76.85000000","name":"Botas"},{"id":"501678","latitude":"1.78000000","longitude":"-77.23888890","name":"Brasilal"},{"id":"501691","latitude":"2.77444440","longitude":"-77.68583330","name":"Brazo Corto"},{"id":"501714","latitude":"2.25000000","longitude":"-77.08333330","name":"Brisas"},{"id":"501718","latitude":"2.68833330","longitude":"-76.72972220","name":"Brisas del Cauca"},{"id":"501748","latitude":"2.78805560","longitude":"-77.60500000","name":"Bubuey"},{"id":"501795","latitude":"2.08333330","longitude":"-77.23333330","name":"Buenavista"},{"id":"501796","latitude":"2.69666670","longitude":"-76.67916670","name":"Buena Vista"},{"id":"501797","latitude":"2.70083330","longitude":"-76.71638890","name":"Buenavista"},{"id":"501826","latitude":"2.60000000","longitude":"-76.84444440","name":"Buenavista Vergel"},{"id":"501838","latitude":"3.01888890","longitude":"-76.64361110","name":"Buenos Aires"},{"id":"501868","latitude":"3.00611110","longitude":"-77.48194440","name":"Bugnavisia"},{"id":"501902","latitude":"2.38333330","longitude":"-76.65000000","name":"Caba\u00f1a"},{"id":"501934","latitude":"2.83388890","longitude":"-76.55250000","name":"Cabujal"},{"id":"501941","latitude":"2.76416670","longitude":"-76.75027780","name":"Cabuyal"},{"id":"501955","latitude":"2.68833330","longitude":"-76.72500000","name":"Cacahual"},{"id":"501975","latitude":"2.96000000","longitude":"-76.53222220","name":"Cachimbal"},{"id":"502008","latitude":"2.63527780","longitude":"-76.74222220","name":"Cafetal"},{"id":"502045","latitude":"1.88722220","longitude":"-77.10000000","name":"Cajamarra"},{"id":"502049","latitude":"2.46666670","longitude":"-76.66666670","name":"Cajete"},{"id":"502050","latitude":"2.62555560","longitude":"-76.62611110","name":"Cajib\u00edo"},{"id":"502064","latitude":"2.46666670","longitude":"-77.83333330","name":"Cajumbi"},{"id":"502091","latitude":"2.94694440","longitude":"-76.73888890","name":"Calarca"},{"id":"502095","latitude":"1.94027780","longitude":"-77.14222220","name":"Calavernas"},{"id":"502107","latitude":"2.65000000","longitude":"-76.03333330","name":"Calderas"},{"id":"502112","latitude":"2.79972220","longitude":"-76.54027780","name":"Caldono"},{"id":"502117","latitude":"2.53750000","longitude":"-76.57277780","name":"Calib\u00edo"},{"id":"502122","latitude":"2.40000000","longitude":"-76.61666670","name":"Calicanto"},{"id":"502130","latitude":"2.51083330","longitude":"-76.91500000","name":"California"},{"id":"502151","latitude":"2.75500000","longitude":"-77.66388890","name":"Calle del Pueblo"},{"id":"502152","latitude":"2.51638890","longitude":"-77.75777780","name":"Calle Honda"},{"id":"502160","latitude":"2.50944440","longitude":"-77.69527780","name":"Calle Larga"},{"id":"502171","latitude":"2.53944440","longitude":"-77.78333330","name":"Calle Sola"},{"id":"502172","latitude":"3.20694440","longitude":"-77.40194440","name":"Calmanera"},{"id":"502174","latitude":"3.03694440","longitude":"-76.41166670","name":"Caloto"},{"id":"502187","latitude":"2.87194440","longitude":"-77.59361110","name":"Camarones"},{"id":"502206","latitude":"2.74472220","longitude":"-76.54972220","name":"Camilo Torres"},{"id":"502250","latitude":"1.66500000","longitude":"-77.12333330","name":"Campamentos"},{"id":"502290","latitude":"2.57138890","longitude":"-76.65250000","name":"Campo Alegre"},{"id":"502331","latitude":"2.50805560","longitude":"-76.73777780","name":"Campobello"},{"id":"502332","latitude":"2.51805560","longitude":"-76.65638890","name":"Campo Bello"},{"id":"502381","latitude":"2.33333330","longitude":"-76.71666670","name":"Camposano"},{"id":"502398","latitude":"1.69472220","longitude":"-77.31611110","name":"Canabrava"},{"id":"502450","latitude":"1.71194440","longitude":"-77.18361110","name":"Ca\u00f1averal"},{"id":"502494","latitude":"1.89388890","longitude":"-77.18833330","name":"Cangrejos"},{"id":"502560","latitude":"2.58833330","longitude":"-77.89222220","name":"Canta Deilcias"},{"id":"502561","latitude":"2.58833330","longitude":"-77.89222220","name":"Canta Delicias"},{"id":"502586","latitude":"2.62750000","longitude":"-77.86500000","name":"Cantil"},{"id":"502605","latitude":"1.92694440","longitude":"-77.08750000","name":"Capellan\u00edas"},{"id":"502606","latitude":"1.92694440","longitude":"-77.08750000","name":"Capellon\u00eda"},{"id":"502638","latitude":"1.90444440","longitude":"-76.78333330","name":"Caquiona"},{"id":"502678","latitude":"3.20000000","longitude":"-76.21666670","name":"Caraque\u00f1o"},{"id":"502694","latitude":"2.52555560","longitude":"-76.83222220","name":"Carb\u00f3n Catacorte"},{"id":"502695","latitude":"2.53694440","longitude":"-76.82666670","name":"Carb\u00f3n El Camarote"},{"id":"502697","latitude":"1.82777780","longitude":"-77.21527780","name":"Carbonera"},{"id":"502742","latitude":"2.63638890","longitude":"-77.76083330","name":"Carmelo"},{"id":"502750","latitude":"1.81777780","longitude":"-76.88083330","name":"Carmen"},{"id":"502768","latitude":"1.70333330","longitude":"-77.28083330","name":"Carne Gallina"},{"id":"502781","latitude":"2.76666670","longitude":"-76.58333330","name":"Carpintero"},{"id":"502814","latitude":"1.91027780","longitude":"-76.76194440","name":"Carrizal"},{"id":"502864","latitude":"2.50555560","longitude":"-76.86361110","name":"Casablanca"},{"id":"502911","latitude":"1.82388890","longitude":"-77.17833330","name":"Casafr\u00eda"},{"id":"502920","latitude":"2.77722220","longitude":"-76.73638890","name":"Casanueva"},{"id":"502930","latitude":"2.63916670","longitude":"-76.73305560","name":"Casas Bajas"},{"id":"502933","latitude":"2.54861110","longitude":"-76.70583330","name":"Casas Viejas"},{"id":"502938","latitude":"1.94361110","longitude":"-77.17750000","name":"Casateja"},{"id":"502955","latitude":"2.52888890","longitude":"-76.81027780","name":"Cascajal"},{"id":"502961","latitude":"2.46666670","longitude":"-77.65000000","name":"Cascajero"},{"id":"502983","latitude":"2.95333330","longitude":"-76.73638890","name":"Caser\u00edo Alejandr\u00eda"},{"id":"503103","latitude":"2.99138890","longitude":"-76.62166670","name":"Caser\u00edo de La Teta"},{"id":"503247","latitude":"2.58805560","longitude":"-76.62361110","name":"Caser\u00edo La Capilla"},{"id":"503270","latitude":"2.72000000","longitude":"-76.81472220","name":"Caser\u00edo La Isla"},{"id":"503660","latitude":"2.57111110","longitude":"-76.77916670","name":"Cauca"},{"id":"503796","latitude":"2.81666670","longitude":"-76.41666670","name":"Cerro Alto"},{"id":"503812","latitude":"1.77472220","longitude":"-77.02305560","name":"Cerro Pelado"},{"id":"503820","latitude":"2.55222220","longitude":"-76.73833330","name":"Cesteadero"},{"id":"503832","latitude":"2.78444440","longitude":"-77.72277780","name":"Chac\u00f3n"},{"id":"503847","latitude":"2.57138890","longitude":"-76.89805560","name":"Chaguayaco"},{"id":"503855","latitude":"1.76666670","longitude":"-76.95000000","name":"Chalbuayaco"},{"id":"503857","latitude":"1.76666670","longitude":"-76.95000000","name":"Chalguayaco"},{"id":"503873","latitude":"2.60638890","longitude":"-77.88166670","name":"Cham\u00f3n"},{"id":"503894","latitude":"2.25000000","longitude":"-76.56666670","name":"Chapa"},{"id":"503951","latitude":"2.46666670","longitude":"-76.70000000","name":"Charco"},{"id":"503955","latitude":"1.69944440","longitude":"-77.31305560","name":"Charco El Burro"},{"id":"503956","latitude":"2.56833330","longitude":"-77.68027780","name":"Charco el Mero"},{"id":"503961","latitude":"2.50944440","longitude":"-77.68722220","name":"Charcolargo"},{"id":"503979","latitude":"2.66333330","longitude":"-76.84861110","name":"Chaux"},{"id":"504005","latitude":"2.67083330","longitude":"-77.59361110","name":"Chet\u00e9"},{"id":"504052","latitude":"2.59361110","longitude":"-77.88944440","name":"Chimbilaquero"},{"id":"504053","latitude":"2.74361110","longitude":"-76.78611110","name":"Chimborazo"},{"id":"504116","latitude":"2.35000000","longitude":"-76.71666670","name":"Chirib\u00edo"},{"id":"504122","latitude":"2.82555560","longitude":"-76.77722220","name":"Chirriadero"},{"id":"504128","latitude":"2.48333330","longitude":"-76.86666670","name":"Chisqu\u00edo"},{"id":"504129","latitude":"2.48333330","longitude":"-76.86666670","name":"Chisquios"},{"id":"504174","latitude":"2.77861110","longitude":"-76.78500000","name":"Chorrea Blanca"},{"id":"504198","latitude":"2.50000000","longitude":"-77.65000000","name":"Chuar\u00e9"},{"id":"504211","latitude":"2.70111110","longitude":"-76.78500000","name":"Chuntillal"},{"id":"504226","latitude":"2.26666670","longitude":"-76.61666670","name":"Churo"},{"id":"504273","latitude":"1.74055560","longitude":"-76.82444440","name":"C\u00edmarronas"},{"id":"504284","latitude":"2.35000000","longitude":"-76.38333330","name":"Cinco D\u00edas"},{"id":"504287","latitude":"2.69833330","longitude":"-76.82361110","name":"Cinco Piedras"},{"id":"504304","latitude":"1.75194440","longitude":"-77.24388890","name":"Cirince"},{"id":"504348","latitude":"2.51666670","longitude":"-77.00000000","name":"Cocal"},{"id":"504356","latitude":"1.97750000","longitude":"-77.12194440","name":"Cocha Colorada"},{"id":"504369","latitude":"2.34805560","longitude":"-76.50083330","name":"Coconuco"},{"id":"504390","latitude":"2.58444440","longitude":"-75.98250000","name":"Cohetando"},{"id":"504465","latitude":"2.71666670","longitude":"-76.48333330","name":"Comefiambre"},{"id":"504487","latitude":"2.54583330","longitude":"-77.65111110","name":"Concepci\u00f3n"},{"id":"504587","latitude":"3.07388890","longitude":"-76.57638890","name":"Corcovada"},{"id":"504625","latitude":"3.17777780","longitude":"-76.26222220","name":"Corinto"},{"id":"504684","latitude":"2.44888890","longitude":"-76.16388890","name":"Corrales"},{"id":"505092","latitude":"2.64777780","longitude":"-77.55972220","name":"Coteje"},{"id":"505154","latitude":"2.75750000","longitude":"-76.55527780","name":"Crucero"},{"id":"505155","latitude":"2.80666670","longitude":"-76.54583330","name":"Crucero de Pescador"},{"id":"505156","latitude":"2.77500000","longitude":"-76.65027780","name":"Crucero El Almorzadero"},{"id":"505157","latitude":"2.72111110","longitude":"-76.59138890","name":"Crucero Playa Rica"},{"id":"505207","latitude":"2.31666670","longitude":"-76.81666670","name":"Cuatro Esquinas"},{"id":"505282","latitude":"2.70611110","longitude":"-77.74138890","name":"Cuerval Arriba"},{"id":"505283","latitude":"2.73166670","longitude":"-77.79166670","name":"Cuerval"},{"id":"505365","latitude":"3.08333330","longitude":"-76.48333330","name":"Cuprecia"},{"id":"505368","latitude":"1.77833330","longitude":"-77.11805560","name":"Curacas"},{"id":"505382","latitude":"1.68333330","longitude":"-76.58333330","name":"Curiaco"},{"id":"505395","latitude":"1.68333330","longitude":"-76.58333330","name":"Curiyaco"},{"id":"505405","latitude":"2.46666670","longitude":"-77.83333330","name":"Cusumb\u00ed"},{"id":"505431","latitude":"2.98388890","longitude":"-76.74888890","name":"Dami\u00e1n"},{"id":"505440","latitude":"2.51361110","longitude":"-75.96500000","name":"Danubio"},{"id":"505462","latitude":"2.65250000","longitude":"-75.81694440","name":"Del\u00edcias"},{"id":"505473","latitude":"2.18333330","longitude":"-76.83333330","name":"Depresi\u00f3n"},{"id":"505476","latitude":"2.23333330","longitude":"-76.71666670","name":"Derrumbo"},{"id":"505478","latitude":"1.45000000","longitude":"-76.56666670","name":"Descans\u00e9"},{"id":"505479","latitude":"1.45000000","longitude":"-76.56666670","name":"Descanso"},{"id":"505489","latitude":"1.73333330","longitude":"-77.23333330","name":"Despensa"},{"id":"505523","latitude":"2.69833330","longitude":"-76.75555560","name":"Dinde"},{"id":"505549","latitude":"2.26305560","longitude":"-76.74444440","name":"Dolores"},{"id":"505554","latitude":"1.90000000","longitude":"-76.78333330","name":"Dominguillo"},{"id":"505559","latitude":"2.25000000","longitude":"-77.06666670","name":"Don Alonso"},{"id":"505573","latitude":"2.65472220","longitude":"-77.76638890","name":"Don Joaqu\u00edn"},{"id":"505598","latitude":"2.65916670","longitude":"-76.74277780","name":"Dos Guaduas"},{"id":"505729","latitude":"2.79472220","longitude":"-77.60138890","name":"El Almorzadero"},{"id":"505735","latitude":"1.86722220","longitude":"-77.19500000","name":"El Alto"},{"id":"505748","latitude":"2.96472220","longitude":"-76.71083330","name":"El Amparo"},{"id":"505765","latitude":"1.81055560","longitude":"-77.14583330","name":"El Arbolito"},{"id":"505786","latitude":"2.70472220","longitude":"-76.72277780","name":"El Asomadero"},{"id":"505788","latitude":"2.86666670","longitude":"-77.61833330","name":"El Astillero"},{"id":"505791","latitude":"2.55055560","longitude":"-77.83416670","name":"El Atajo"},{"id":"505852","latitude":"2.56138890","longitude":"-76.84638890","name":"El Barrial"},{"id":"505886","latitude":"3.16666670","longitude":"-76.28333330","name":"El Blancal"},{"id":"505901","latitude":"1.90444440","longitude":"-76.99194440","name":"El Boquer\u00f3n"},{"id":"505910","latitude":"2.11555560","longitude":"-76.98916670","name":"El Bordo"},{"id":"505912","latitude":"4.55000000","longitude":"-71.68333330","name":"El Borracho"},{"id":"505919","latitude":"2.73833330","longitude":"-76.84277780","name":"El Bosque"},{"id":"505938","latitude":"2.16666670","longitude":"-77.75000000","name":"El Brazo"},{"id":"505988","latitude":"2.69666670","longitude":"-76.78694440","name":"El Caimito"},{"id":"506005","latitude":"1.70694440","longitude":"-76.82166670","name":"El Caj\u00f3n"},{"id":"506031","latitude":"2.58083330","longitude":"-76.70333330","name":"El Campito"},{"id":"506044","latitude":"2.59000000","longitude":"-76.84083330","name":"El Canelo"},{"id":"506054","latitude":"3.26666670","longitude":"-76.25000000","name":"El Ca\u00f1\u00f3n"},{"id":"506056","latitude":"2.90250000","longitude":"-77.60666670","name":"El Cantil"},{"id":"506058","latitude":"1.91305560","longitude":"-77.19750000","name":"El Canulo"},{"id":"506086","latitude":"1.75000000","longitude":"-76.56666670","name":"El Carmelo"},{"id":"506097","latitude":"1.63138890","longitude":"-76.91777780","name":"El Carmen"},{"id":"506125","latitude":"1.82055560","longitude":"-77.21388890","name":"El Caspi"},{"id":"506160","latitude":"2.59750000","longitude":"-76.86916670","name":"El Cedral"},{"id":"506213","latitude":"2.81388890","longitude":"-76.55416670","name":"El Cerrito"},{"id":"506223","latitude":"1.76861110","longitude":"-77.01555560","name":"El Cerro"},{"id":"506234","latitude":"3.21666670","longitude":"-76.36666670","name":"El Chamizo"},{"id":"506243","latitude":"2.46666670","longitude":"-76.70000000","name":"El Charco"},{"id":"506251","latitude":"1.87027780","longitude":"-77.18194440","name":"El Chaucho"},{"id":"506276","latitude":"2.74083330","longitude":"-77.67194440","name":"El Chocho"},{"id":"506281","latitude":"2.96722220","longitude":"-77.61833330","name":"El Chontaduro"},{"id":"506323","latitude":"2.54416670","longitude":"-76.89250000","name":"El Cipr\u00e9s"},{"id":"506381","latitude":"2.75250000","longitude":"-76.73777780","name":"El Conejo"},{"id":"506462","latitude":"2.69333330","longitude":"-76.82388890","name":"El Crisol"},{"id":"506469","latitude":"2.77527780","longitude":"-76.76444440","name":"El Crucento"},{"id":"506473","latitude":"2.03333330","longitude":"-77.23333330","name":"El Crucero"},{"id":"506484","latitude":"2.60250000","longitude":"-76.56583330","name":"El Cucharo"},{"id":"506491","latitude":"2.73166670","longitude":"-77.79166670","name":"El Cuerval"},{"id":"506493","latitude":"1.91805560","longitude":"-77.06444440","name":"El Cuervo"},{"id":"506494","latitude":"2.73166670","longitude":"-77.79166670","name":"El Cueval"},{"id":"506514","latitude":"2.67805560","longitude":"-76.71722220","name":"El Danubio"},{"id":"506646","latitude":"1.91305560","longitude":"-76.63444440","name":"El Diviso"},{"id":"506651","latitude":"2.92000000","longitude":"-76.78388890","name":"El Diviso Inquito"},{"id":"506669","latitude":"2.68861110","longitude":"-76.76333330","name":"El Duende"},{"id":"506710","latitude":"2.28333330","longitude":"-77.35000000","name":"El Encanto"},{"id":"506771","latitude":"1.84833330","longitude":"-77.25861110","name":"El Espino"},{"id":"506784","latitude":"1.96222220","longitude":"-77.12055560","name":"El Estrecho"},{"id":"506817","latitude":"1.72583330","longitude":"-77.26972220","name":"El Galembo"},{"id":"506844","latitude":"2.69194440","longitude":"-76.75055560","name":"El Guabal"},{"id":"506853","latitude":"2.51583330","longitude":"-76.74027780","name":"El Guadua"},{"id":"506860","latitude":"2.23333330","longitude":"-77.23333330","name":"El Gu\u00e1itara"},{"id":"506879","latitude":"2.70416670","longitude":"-75.98361110","name":"El Guamo"},{"id":"506905","latitude":"2.55305560","longitude":"-76.69694440","name":"El Guayabo"},{"id":"506933","latitude":"2.47083330","longitude":"-76.43250000","name":"El Hatico"},{"id":"506952","latitude":"1.70083330","longitude":"-77.08250000","name":"El Hato"},{"id":"506959","latitude":"2.61111110","longitude":"-76.84750000","name":"El Helechal"},{"id":"506961","latitude":"2.55638890","longitude":"-76.78833330","name":"El Helehcal"},{"id":"506969","latitude":"1.74277780","longitude":"-77.26555560","name":"El Higuer\u00f3n"},{"id":"506981","latitude":"2.70277780","longitude":"-76.53611110","name":"El Hogar"},{"id":"506996","latitude":"2.65250000","longitude":"-76.83833330","name":"El Horno"},{"id":"507041","latitude":"2.80833330","longitude":"-77.63805560","name":"Elisabeth"},{"id":"507047","latitude":"3.15000000","longitude":"-76.30000000","name":"El Jagual"},{"id":"507072","latitude":"2.73083330","longitude":"-76.62194440","name":"El Jazm\u00edn"},{"id":"507103","latitude":"2.03333330","longitude":"-77.11666670","name":"El Juncal"},{"id":"507119","latitude":"1.72888890","longitude":"-77.26611110","name":"El Lanudo"},{"id":"507140","latitude":"2.67027780","longitude":"-75.82111110","name":"El L\u00edbano"},{"id":"507153","latitude":"2.67000000","longitude":"-76.76555560","name":"El Limonal"},{"id":"507168","latitude":"2.78833330","longitude":"-76.76527780","name":"El Lim\u00f3n"},{"id":"507201","latitude":"1.90944440","longitude":"-76.96416670","name":"El Llano"},{"id":"507211","latitude":"2.70000000","longitude":"-77.77388890","name":"El Loro"},{"id":"507244","latitude":"2.52361110","longitude":"-76.80833330","name":"El Mango"},{"id":"507288","latitude":"2.50527780","longitude":"-76.56722220","name":"El Medio"},{"id":"507295","latitude":"2.77833330","longitude":"-76.75472220","name":"El Mes\u00f3n"},{"id":"507323","latitude":"2.56055560","longitude":"-76.91638890","name":"El Mirador"},{"id":"507339","latitude":"2.54083330","longitude":"-76.89277780","name":"El Moj\u00f3n"},{"id":"507342","latitude":"2.20000000","longitude":"-76.65000000","name":"El Molino"},{"id":"507346","latitude":"2.92305560","longitude":"-77.59111110","name":"El Mono"},{"id":"507365","latitude":"1.85027780","longitude":"-76.92277780","name":"El Morro"},{"id":"507390","latitude":"1.86777780","longitude":"-76.78333330","name":"El Naranjo"},{"id":"507397","latitude":"2.86305560","longitude":"-77.61361110","name":"El Natal"},{"id":"507461","latitude":"1.74166670","longitude":"-77.27972220","name":"El Olvido Chucho"},{"id":"507517","latitude":"2.71111110","longitude":"-76.81694440","name":"El Palacio"},{"id":"507534","latitude":"2.59250000","longitude":"-76.69166670","name":"El Palmar"},{"id":"507551","latitude":"2.82694440","longitude":"-76.57388890","name":"El Palmichal"},{"id":"507553","latitude":"2.61250000","longitude":"-76.85694440","name":"El Palmito"},{"id":"507557","latitude":"3.06666670","longitude":"-76.35000000","name":"El Palo"},{"id":"507601","latitude":"2.52777780","longitude":"-76.78027780","name":"El Para\u00edso"},{"id":"507637","latitude":"1.88472220","longitude":"-77.24138890","name":"El Paso"},{"id":"507653","latitude":"1.80666670","longitude":"-76.98111110","name":"El Pedregal"},{"id":"507677","latitude":"1.83333330","longitude":"-76.85000000","name":"El Pe\u00f1ol"},{"id":"507680","latitude":"2.28333330","longitude":"-76.61666670","name":"El Pe\u00f1\u00f3n"},{"id":"507693","latitude":"1.81666670","longitude":"-76.95000000","name":"El Pepi\u00f1al"},{"id":"507695","latitude":"2.56500000","longitude":"-75.86361110","name":"El Pepito"},{"id":"507712","latitude":"1.81888890","longitude":"-76.91611110","name":"El Picacho"},{"id":"507723","latitude":"1.94416670","longitude":"-77.15944440","name":"El Pil\u00f3n"},{"id":"507746","latitude":"2.58944440","longitude":"-76.58555560","name":"El Pital"},{"id":"507759","latitude":"1.74861110","longitude":"-76.84722220","name":"El Placer"},{"id":"507782","latitude":"2.74222220","longitude":"-76.72250000","name":"El Play\u00f3n"},{"id":"507799","latitude":"2.51111110","longitude":"-76.73750000","name":"El Pomarrosa"},{"id":"507821","latitude":"2.53361110","longitude":"-76.67361110","name":"El Porvenir"},{"id":"507842","latitude":"3.18333330","longitude":"-76.21666670","name":"El Potrerito"},{"id":"507847","latitude":"1.81222220","longitude":"-77.22000000","name":"El Potrero"},{"id":"507903","latitude":"1.76611110","longitude":"-76.82805560","name":"El Puntal"},{"id":"507905","latitude":"2.50000000","longitude":"-75.92805560","name":"El Purgatorio"},{"id":"507928","latitude":"2.58166670","longitude":"-76.87611110","name":"El Ramal"},{"id":"507941","latitude":"2.67888890","longitude":"-76.75527780","name":"El Real"},{"id":"507950","latitude":"1.81222220","longitude":"-77.16138890","name":"El Recreo"},{"id":"507965","latitude":"2.62805560","longitude":"-76.77333330","name":"El Recuerdo"},{"id":"507980","latitude":"2.51861110","longitude":"-76.63611110","name":"El Refugio"},{"id":"508041","latitude":"1.82111110","longitude":"-76.73722220","name":"El Retiro"},{"id":"508063","latitude":"2.45000000","longitude":"-76.46666670","name":"El Rinc\u00f3n"},{"id":"508103","latitude":"1.87861110","longitude":"-76.99250000","name":"El Rodeo"},{"id":"508115","latitude":"1.78333330","longitude":"-76.82666670","name":"El Rosal"},{"id":"508125","latitude":"1.70555560","longitude":"-77.08138890","name":"El Rosario"},{"id":"508157","latitude":"1.70611110","longitude":"-77.31305560","name":"El Salada de Mayo"},{"id":"508159","latitude":"1.70611110","longitude":"-77.31305560","name":"El Saladero de Mayo"},{"id":"508244","latitude":"1.85972220","longitude":"-77.20666670","name":"El Silencio"},{"id":"508280","latitude":"2.84666670","longitude":"-76.58777780","name":"El Socorro"},{"id":"508303","latitude":"2.66277780","longitude":"-76.73277780","name":"El Sosiege"},{"id":"508315","latitude":"2.61194440","longitude":"-75.88666670","name":"El Suspiro"},{"id":"508338","latitude":"1.92722220","longitude":"-76.88250000","name":"El Tabl\u00f3n"},{"id":"508360","latitude":"2.45416670","longitude":"-76.81777780","name":"El Tambo"},{"id":"508389","latitude":"1.74166670","longitude":"-77.24305560","name":"El Terrero"},{"id":"508408","latitude":"3.13333330","longitude":"-76.31666670","name":"El Tetillo"},{"id":"508418","latitude":"2.88194440","longitude":"-77.63861110","name":"El Tigre"},{"id":"508494","latitude":"1.73111110","longitude":"-77.26611110","name":"El Trapiche"},{"id":"508539","latitude":"3.25000000","longitude":"-76.36666670","name":"El Tulip\u00e1n"},{"id":"508542","latitude":"2.61583330","longitude":"-76.51333330","name":"El T\u00fanel"},{"id":"508545","latitude":"2.89416670","longitude":"-76.48861110","name":"El Turco"},{"id":"508565","latitude":"2.54916670","longitude":"-76.72888890","name":"El Uvo"},{"id":"508566","latitude":"1.78000000","longitude":"-77.29277780","name":"El Vado"},{"id":"508614","latitude":"2.75750000","longitude":"-76.74833330","name":"El Vergel"},{"id":"508674","latitude":"1.73333330","longitude":"-76.86666670","name":"El Yunguillo"},{"id":"508678","latitude":"2.53638890","longitude":"-76.89833330","name":"El Zanj\u00f3n"},{"id":"508688","latitude":"2.45000000","longitude":"-76.73333330","name":"El Zarzal"},{"id":"508765","latitude":"1.75083330","longitude":"-77.05055560","name":"Esmeralda"},{"id":"508773","latitude":"1.75083330","longitude":"-77.05055560","name":"Esmeraldas"},{"id":"508777","latitude":"2.21666670","longitude":"-76.71666670","name":"Esmita"},{"id":"508791","latitude":"2.69250000","longitude":"-76.72472220","name":"Esperanza"},{"id":"508841","latitude":"2.63888890","longitude":"-77.85166670","name":"Estero Hondo"},{"id":"508844","latitude":"1.96222220","longitude":"-77.12055560","name":"Estrecho"},{"id":"508895","latitude":"2.43333330","longitude":"-76.66666670","name":"Figueroa"},{"id":"508961","latitude":"1.69444440","longitude":"-77.07583330","name":"Florencia"},{"id":"508973","latitude":"1.69444440","longitude":"-77.07583330","name":"Florencio"},{"id":"509012","latitude":"2.46666670","longitude":"-76.91666670","name":"Fondas"},{"id":"509038","latitude":"2.92000000","longitude":"-76.28750000","name":"Francisco"},{"id":"509128","latitude":"2.48333330","longitude":"-76.30000000","name":"Gabriel L\u00f3pez"},{"id":"509164","latitude":"1.94638890","longitude":"-77.15750000","name":"Galindes"},{"id":"509165","latitude":"1.94638890","longitude":"-77.15750000","name":"Gal\u00edndez"},{"id":"509185","latitude":"2.54944440","longitude":"-76.89416670","name":"Galp\u00f3n"},{"id":"509193","latitude":"2.62638890","longitude":"-76.85500000","name":"Gamboa"},{"id":"509201","latitude":"1.90944440","longitude":"-77.21250000","name":"Gana Plata"},{"id":"509258","latitude":"2.43333330","longitude":"-76.60000000","name":"Genagra"},{"id":"509316","latitude":"3.11666670","longitude":"-77.25000000","name":"Golondro"},{"id":"509328","latitude":"1.91666670","longitude":"-76.86666670","name":"Gonzalo"},{"id":"509351","latitude":"2.36666670","longitude":"-77.03333330","name":"Granada"},{"id":"509372","latitude":"2.55194440","longitude":"-77.86472220","name":"Granja Bonanza Incora"},{"id":"509394","latitude":"2.68888890","longitude":"-77.75638890","name":"Guabambu\u00e1"},{"id":"509433","latitude":"2.43333330","longitude":"-76.51666670","name":"Guacas"},{"id":"509443","latitude":"3.13333330","longitude":"-76.38333330","name":"Guachane"},{"id":"509452","latitude":"3.13333330","longitude":"-76.38333330","name":"Guachen\u00e9"},{"id":"509454","latitude":"2.03333330","longitude":"-76.98333330","name":"Guachicono"},{"id":"509470","latitude":"2.46666670","longitude":"-76.81666670","name":"Guacuco"},{"id":"509481","latitude":"2.75250000","longitude":"-76.66472220","name":"Guadalito"},{"id":"509496","latitude":"2.56944440","longitude":"-75.96888890","name":"Guadualejo"},{"id":"509506","latitude":"2.00000000","longitude":"-77.16666670","name":"Guadualito"},{"id":"509518","latitude":"2.82055560","longitude":"-76.75222220","name":"Guadua Plateada"},{"id":"509563","latitude":"2.23333330","longitude":"-77.23333330","name":"Guaitara"},{"id":"509568","latitude":"2.65000000","longitude":"-77.68333330","name":"Guaj\u00ed"},{"id":"509613","latitude":"2.61666670","longitude":"-76.30000000","name":"Guamb\u00eda"},{"id":"509658","latitude":"2.55638890","longitude":"-77.86388890","name":"Guapi"},{"id":"509677","latitude":"2.56555560","longitude":"-76.88305560","name":"Guarangales"},{"id":"509694","latitude":"2.66666670","longitude":"-77.70000000","name":"Guar\u00e9"},{"id":"509718","latitude":"2.55055560","longitude":"-76.67583330","name":"Guasabaro"},{"id":"509728","latitude":"1.96527780","longitude":"-77.18388890","name":"Guasimal"},{"id":"509740","latitude":"3.05000000","longitude":"-76.40000000","name":"Gu\u00e1simo"},{"id":"509748","latitude":"1.86527780","longitude":"-77.17222220","name":"Guatacama"},{"id":"509783","latitude":"2.53666670","longitude":"-76.88750000","name":"Guayabal"},{"id":"509800","latitude":"1.90916670","longitude":"-77.24194440","name":"Guayabara"},{"id":"509804","latitude":"1.91888890","longitude":"-77.00611110","name":"Guayabillas"},{"id":"509812","latitude":"2.48333330","longitude":"-76.81666670","name":"Guayabo"},{"id":"509830","latitude":"1.83333330","longitude":"-76.83333330","name":"Guayacundo"},{"id":"509849","latitude":"1.70277780","longitude":"-77.30861110","name":"Guayoqui"},{"id":"509853","latitude":"1.06666670","longitude":"-76.43333330","name":"Guayuyaco"},{"id":"509871","latitude":"2.30000000","longitude":"-76.73333330","name":"Guillermo Valencia"},{"id":"509876","latitude":"1.71361110","longitude":"-77.31305560","name":"Guina"},{"id":"509884","latitude":"1.78500000","longitude":"-77.01083330","name":"Guineal"},{"id":"509899","latitude":"2.52166670","longitude":"-76.88888890","name":"Guitarras"},{"id":"509912","latitude":"3.00000000","longitude":"-77.48333330","name":"Guyabal"},{"id":"510044","latitude":"1.97527780","longitude":"-76.98722220","name":"Hacienda Cascajal"},{"id":"510486","latitude":"2.44972220","longitude":"-75.86027780","name":"Hacienda Las Balsas"},{"id":"510826","latitude":"1.95472220","longitude":"-76.99194440","name":"Hacienda Salidito"},{"id":"510844","latitude":"1.92166670","longitude":"-76.63083330","name":"Hacienda San Francisco"},{"id":"511059","latitude":"2.33333330","longitude":"-76.61666670","name":"Hatofr\u00edo"},{"id":"511068","latitude":"2.38333330","longitude":"-76.70000000","name":"Hato"},{"id":"511171","latitude":"1.70722220","longitude":"-77.11222220","name":"Hato Viejo"},{"id":"511200","latitude":"2.77777780","longitude":"-77.60500000","name":"Hermosa"},{"id":"511203","latitude":"1.87000000","longitude":"-76.87777780","name":"Herradura"},{"id":"511225","latitude":"1.66361110","longitude":"-77.13611110","name":"Higuerones"},{"id":"511262","latitude":"1.85000000","longitude":"-76.81666670","name":"Honda"},{"id":"511271","latitude":"2.79944440","longitude":"-76.77500000","name":"Honduras"},{"id":"511288","latitude":"1.75000000","longitude":"-77.16666670","name":"Hornillos"},{"id":"511298","latitude":"2.61166670","longitude":"-76.87083330","name":"Hoya Grande"},{"id":"511335","latitude":"3.11666670","longitude":"-76.30000000","name":"Huasan\u00f3"},{"id":"511353","latitude":"1.73388890","longitude":"-77.26055560","name":"Hueco Sabroso"},{"id":"511354","latitude":"3.01666670","longitude":"-76.35000000","name":"Huella"},{"id":"511368","latitude":"2.80000000","longitude":"-76.08333330","name":"Huila"},{"id":"511374","latitude":"2.53333330","longitude":"-77.08333330","name":"Huisit\u00f3"},{"id":"511417","latitude":"2.64166670","longitude":"-77.84805560","name":"Iguanero"},{"id":"511451","latitude":"3.26666670","longitude":"-76.41666670","name":"Ingenio Bengala"},{"id":"511463","latitude":"2.81555560","longitude":"-76.74222220","name":"Inguito"},{"id":"511472","latitude":"3.16666670","longitude":"-76.45000000","name":"Inspecci\u00f3n Villa Rica"},{"id":"511478","latitude":"2.55666670","longitude":"-76.06666670","name":"Inz\u00e1"},{"id":"511492","latitude":"1.83527780","longitude":"-77.14638890","name":"Ir\u00e1cal"},{"id":"511552","latitude":"2.48000000","longitude":"-75.84861110","name":"Itaibe"},{"id":"511593","latitude":"3.15000000","longitude":"-76.30000000","name":"Jagual"},{"id":"511605","latitude":"2.86666670","longitude":"-76.66666670","name":"Jalima"},{"id":"511616","latitude":"2.78833330","longitude":"-76.32250000","name":"Jambalo"},{"id":"511618","latitude":"1.69750000","longitude":"-77.03083330","name":"Jampabello"},{"id":"511627","latitude":"3.03333330","longitude":"-76.43333330","name":"Japio"},{"id":"511634","latitude":"2.78722220","longitude":"-77.66361110","name":"Jaragua"},{"id":"511673","latitude":"2.86666670","longitude":"-76.66666670","name":"Jelima"},{"id":"511713","latitude":"2.36666670","longitude":"-76.45000000","name":"Jevila"},{"id":"511715","latitude":"2.70027780","longitude":"-77.74472220","name":"Jicaral"},{"id":"511745","latitude":"2.81666670","longitude":"-77.26666670","name":"Jol\u00ed"},{"id":"511799","latitude":"2.63416670","longitude":"-76.77638890","name":"Juan Barrera"},{"id":"511818","latitude":"2.58888890","longitude":"-77.78916670","name":"Juanico"},{"id":"511819","latitude":"2.94833330","longitude":"-76.52750000","name":"Juan Ignacio"},{"id":"511834","latitude":"2.71888890","longitude":"-76.67638890","name":"Juan Perdido"},{"id":"511853","latitude":"2.45000000","longitude":"-76.65000000","name":"Julumito"},{"id":"512026","latitude":"2.58416670","longitude":"-75.82777780","name":"La Agencia"},{"id":"512029","latitude":"2.90000000","longitude":"-76.45000000","name":"La Aguada"},{"id":"512067","latitude":"2.25000000","longitude":"-76.86666670","name":"La Alianza"},{"id":"512167","latitude":"3.10000000","longitude":"-76.43333330","name":"La Arrobleda"},{"id":"512173","latitude":"2.64722220","longitude":"-76.57777780","name":"La Aurelia"},{"id":"512176","latitude":"2.72361110","longitude":"-76.57166670","name":"La Aurora"},{"id":"512204","latitude":"3.08333330","longitude":"-76.61666670","name":"La Balsa"},{"id":"512243","latitude":"2.25000000","longitude":"-77.21666670","name":"La Belleza"},{"id":"512257","latitude":"2.10000000","longitude":"-77.26666670","name":"La Bermeja"},{"id":"512264","latitude":"2.98027780","longitude":"-76.73166670","name":"La Betulia"},{"id":"512276","latitude":"2.85527780","longitude":"-76.61166670","name":"La Bocana"},{"id":"512279","latitude":"2.57194440","longitude":"-77.67888890","name":"La Bodega"},{"id":"512289","latitude":"3.16666670","longitude":"-76.45000000","name":"La Boisa"},{"id":"512291","latitude":"3.16666670","longitude":"-76.45000000","name":"La Bolsa"},{"id":"512333","latitude":"2.80444440","longitude":"-76.52083330","name":"La Buitreja"},{"id":"512334","latitude":"2.62611110","longitude":"-76.51138890","name":"La Buitrera"},{"id":"512339","latitude":"1.79111110","longitude":"-77.18166670","name":"La Burrera"},{"id":"512351","latitude":"2.38333330","longitude":"-76.65000000","name":"La Caba\u00f1a"},{"id":"512374","latitude":"2.52527780","longitude":"-76.55222220","name":"La Cabuyera"},{"id":"512381","latitude":"2.57666670","longitude":"-75.86222220","name":"La Caja"},{"id":"512399","latitude":"2.50000000","longitude":"-77.66666670","name":"La Calle"},{"id":"512441","latitude":"1.66527780","longitude":"-77.24722220","name":"La Canoa"},{"id":"512451","latitude":"2.58805560","longitude":"-76.62361110","name":"La Capilla"},{"id":"512517","latitude":"2.57250000","longitude":"-76.57777780","name":"La Ceiba"},{"id":"512593","latitude":"2.35000000","longitude":"-76.75000000","name":"La Chorrera"},{"id":"512630","latitude":"1.81666670","longitude":"-77.11944440","name":"La Cocha"},{"id":"512665","latitude":"2.62500000","longitude":"-77.71888890","name":"La Concepci\u00f3n de Guaju\u00ed"},{"id":"512668","latitude":"1.98333330","longitude":"-76.80000000","name":"La Concepci\u00f3n"},{"id":"512720","latitude":"2.54805560","longitude":"-76.62277780","name":"La Coronilla"},{"id":"512750","latitude":"2.62638890","longitude":"-76.74388890","name":"La Cruz"},{"id":"512766","latitude":"1.71111110","longitude":"-77.01277780","name":"La Cuchilla"},{"id":"512790","latitude":"1.91666670","longitude":"-76.95000000","name":"La Cumbre"},{"id":"512819","latitude":"2.18333330","longitude":"-76.83333330","name":"La Depresi\u00f3n"},{"id":"512825","latitude":"1.72611110","longitude":"-77.24527780","name":"La Despensa"},{"id":"512847","latitude":"3.10000000","longitude":"-76.40000000","name":"La Dominga"},{"id":"512883","latitude":"2.72972220","longitude":"-75.97305560","name":"La Emilia"},{"id":"512886","latitude":"2.60722220","longitude":"-76.84916670","name":"La Empresa"},{"id":"512893","latitude":"3.01444440","longitude":"-77.42527780","name":"La Ensenada"},{"id":"512927","latitude":"2.81888890","longitude":"-76.56388890","name":"La Esmeralda"},{"id":"512953","latitude":"2.52666670","longitude":"-76.66638890","name":"La Esperanza"},{"id":"512991","latitude":"1.75250000","longitude":"-77.26416670","name":"La Estancia"},{"id":"513010","latitude":"2.93361110","longitude":"-76.73111110","name":"La Estrella"},{"id":"513066","latitude":"2.52222220","longitude":"-76.79111110","name":"La Florencia"},{"id":"513067","latitude":"2.78111110","longitude":"-76.51138890","name":"La Floresia"},{"id":"513091","latitude":"2.65416670","longitude":"-76.67777780","name":"La Florida"},{"id":"513110","latitude":"2.96555560","longitude":"-76.75750000","name":"La Fonda"},{"id":"513119","latitude":"2.65555560","longitude":"-77.85750000","name":"La Fortuna"},{"id":"513181","latitude":"1.85138890","longitude":"-77.12694440","name":"La Gloria"},{"id":"513230","latitude":"2.64944440","longitude":"-76.61222220","name":"La Granja"},{"id":"513255","latitude":"2.56722220","longitude":"-76.68555560","name":"La Guadua"},{"id":"513302","latitude":"2.69861110","longitude":"-76.77444440","name":"Laguna"},{"id":"513327","latitude":"2.67583330","longitude":"-76.84277780","name":"Lagunitas"},{"id":"513356","latitude":"1.87000000","longitude":"-76.87777780","name":"La Herradura"},{"id":"513374","latitude":"1.83333330","longitude":"-76.85000000","name":"La Honda"},{"id":"513390","latitude":"1.74055560","longitude":"-77.26611110","name":"La Horqueta"},{"id":"513443","latitude":"2.76750000","longitude":"-76.52833330","name":"La Inpend\u00e9ncia"},{"id":"513450","latitude":"2.72194440","longitude":"-76.81000000","name":"La Isla"},{"id":"513483","latitude":"2.56277780","longitude":"-76.56111110","name":"La Josefina"},{"id":"513495","latitude":"2.53416670","longitude":"-76.56000000","name":"La Julia"},{"id":"513502","latitude":"2.25000000","longitude":"-77.75000000","name":"La Junta"},{"id":"513513","latitude":"1.50000000","longitude":"-76.01666670","name":"La Laguna"},{"id":"513530","latitude":"2.50666670","longitude":"-76.65388890","name":"La Laja"},{"id":"513547","latitude":"2.56861110","longitude":"-76.84888890","name":"La Latija"},{"id":"513623","latitude":"2.64388890","longitude":"-76.76305560","name":"La Loma"},{"id":"513678","latitude":"2.74166670","longitude":"-75.75527780","name":"La Lulera"},{"id":"513719","latitude":"1.94638890","longitude":"-77.15750000","name":"La Manguita"},{"id":"513723","latitude":"2.70388890","longitude":"-77.76888890","name":"La Mano de Dios"},{"id":"513758","latitude":"2.43333330","longitude":"-76.51666670","name":"La Mar\u00eda"},{"id":"513806","latitude":"1.86388890","longitude":"-77.02361110","name":"La Medina"},{"id":"513812","latitude":"2.73333330","longitude":"-76.10000000","name":"Lame"},{"id":"513831","latitude":"2.23333330","longitude":"-77.11666670","name":"La Mesa"},{"id":"513845","latitude":"2.55777780","longitude":"-76.76527780","name":"La Meseta"},{"id":"513852","latitude":"2.52250000","longitude":"-75.87583330","name":"La Mesura"},{"id":"513860","latitude":"2.93333330","longitude":"-76.28333330","name":"La Mina"},{"id":"513886","latitude":"1.75666670","longitude":"-77.08527780","name":"La Monja"},{"id":"513912","latitude":"2.55333330","longitude":"-75.91527780","name":"La Morena"},{"id":"513933","latitude":"3.23333330","longitude":"-76.26666670","name":"La Munda"},{"id":"513972","latitude":"2.80027780","longitude":"-77.62777780","name":"La Nueva Familia"},{"id":"513989","latitude":"2.65111110","longitude":"-76.68333330","name":"La Orilla"},{"id":"514025","latitude":"2.65694440","longitude":"-76.83361110","name":"La Palma"},{"id":"514043","latitude":"2.67888890","longitude":"-76.84583330","name":"La Palmera"},{"id":"514067","latitude":"2.40000000","longitude":"-77.00000000","name":"La Paloma"},{"id":"514073","latitude":"2.95555560","longitude":"-76.42527780","name":"La Palomera"},{"id":"514113","latitude":"2.38333330","longitude":"-76.93333330","name":"La Paz"},{"id":"514123","latitude":"2.66666670","longitude":"-76.63333330","name":"La Pedregosa"},{"id":"514142","latitude":"2.53222220","longitude":"-76.68083330","name":"La Pe\u00f1a"},{"id":"514153","latitude":"2.51222220","longitude":"-77.66222220","name":"La Pe\u00f1ita"},{"id":"514187","latitude":"1.84944440","longitude":"-76.81083330","name":"La Pila"},{"id":"514205","latitude":"2.58583330","longitude":"-76.74583330","name":"La Planada"},{"id":"514213","latitude":"2.59694440","longitude":"-76.85472220","name":"La Plantada"},{"id":"514228","latitude":"1.96666670","longitude":"-76.96666670","name":"La Playa"},{"id":"514294","latitude":"2.78694440","longitude":"-76.63583330","name":"La Pradera"},{"id":"514320","latitude":"2.52111110","longitude":"-76.66166670","name":"La Primavera"},{"id":"514368","latitude":"1.68333330","longitude":"-77.18333330","name":"La Puertica"},{"id":"514411","latitude":"2.40000000","longitude":"-76.41666670","name":"La Quintana"},{"id":"514420","latitude":"1.99472220","longitude":"-77.17388890","name":"La Ramada"},{"id":"514466","latitude":"2.51666670","longitude":"-76.50000000","name":"La Rejoya"},{"id":"514485","latitude":"2.67888890","longitude":"-76.74777780","name":"La Ribera"},{"id":"514563","latitude":"1.70722220","longitude":"-77.24750000","name":"Las Aguadas"},{"id":"514583","latitude":"2.71277780","longitude":"-76.58750000","name":"La Saltana"},{"id":"514602","latitude":"1.72944440","longitude":"-76.69583330","name":"Las Animas"},{"id":"514612","latitude":"2.66527780","longitude":"-75.81583330","name":"Las Auroras"},{"id":"514636","latitude":"2.48333330","longitude":"-76.85000000","name":"Las Botas"},{"id":"514646","latitude":"2.25000000","longitude":"-77.08333330","name":"Las Brisas"},{"id":"514720","latitude":"1.71027780","longitude":"-77.28888890","name":"Las Cocinas"},{"id":"514729","latitude":"2.44888890","longitude":"-76.16388890","name":"Las Corrales"},{"id":"514736","latitude":"2.35000000","longitude":"-76.70000000","name":"Las Cruces"},{"id":"514752","latitude":"2.72611110","longitude":"-75.75416670","name":"Las Dalias"},{"id":"514758","latitude":"2.62583330","longitude":"-76.78916670","name":"Las Da\u00f1adas"},{"id":"514765","latitude":"1.95888890","longitude":"-76.69416670","name":"Las Delicias"},{"id":"514793","latitude":"2.53111110","longitude":"-76.59055560","name":"La Selva"},{"id":"514814","latitude":"2.45000000","longitude":"-76.73333330","name":"Las Estrellas"},{"id":"514845","latitude":"2.58138890","longitude":"-76.86388890","name":"Las Guacas"},{"id":"514863","latitude":"2.43333330","longitude":"-76.51666670","name":"Las Huacas"},{"id":"514877","latitude":"2.18305560","longitude":"-76.76444440","name":"La Sierra"},{"id":"514908","latitude":"2.68861110","longitude":"-77.65527780","name":"Las Islas"},{"id":"514919","latitude":"2.25000000","longitude":"-77.75000000","name":"Las Juntas"},{"id":"515016","latitude":"2.54861110","longitude":"-76.72250000","name":"Las Mercedes"},{"id":"515058","latitude":"1.88944440","longitude":"-76.76194440","name":"Las Moras"},{"id":"515110","latitude":"2.57583330","longitude":"-76.70861110","name":"La Sombra"},{"id":"515142","latitude":"1.66611110","longitude":"-77.27527780","name":"Las Palmas"},{"id":"515205","latitude":"2.35000000","longitude":"-76.75000000","name":"Las Piedras"},{"id":"515254","latitude":"2.11666670","longitude":"-77.06666670","name":"Las Tallas"},{"id":"515378","latitude":"2.90000000","longitude":"-76.68694440","name":"La Toma"},{"id":"515386","latitude":"1.93722220","longitude":"-77.19888890","name":"La Torra"},{"id":"515411","latitude":"2.69472220","longitude":"-76.58861110","name":"La Tribuna"},{"id":"515526","latitude":"2.00083330","longitude":"-76.77527780","name":"La Vega"},{"id":"515554","latitude":"2.45000000","longitude":"-76.80000000","name":"La Venta"},{"id":"515563","latitude":"2.50166670","longitude":"-76.87444440","name":"La Ventura"},{"id":"515567","latitude":"1.79638890","longitude":"-77.29305560","name":"La Venturosa"},{"id":"515596","latitude":"2.54833330","longitude":"-76.55666670","name":"La Victoria"},{"id":"515626","latitude":"2.50388890","longitude":"-75.86972220","name":"La Villa"},{"id":"515633","latitude":"2.54527780","longitude":"-76.60944440","name":"La Violeta"},{"id":"515665","latitude":"2.62861110","longitude":"-77.74722220","name":"La Vuelta del Bajo"},{"id":"515684","latitude":"2.52583330","longitude":"-76.74638890","name":"La Yunga"},{"id":"515743","latitude":"1.97611110","longitude":"-76.95361110","name":"Lerma"},{"id":"515793","latitude":"2.51944440","longitude":"-76.91416670","name":"Limoncito"},{"id":"515799","latitude":"2.61111110","longitude":"-77.79694440","name":"Limones"},{"id":"515806","latitude":"1.95777780","longitude":"-77.20166670","name":"Lim\u00f3n"},{"id":"515829","latitude":"1.91666670","longitude":"-76.91666670","name":"Llacuanas"},{"id":"515844","latitude":"2.71555560","longitude":"-76.69750000","name":"Llanito"},{"id":"515874","latitude":"2.53333330","longitude":"-77.51666670","name":"Llano Grande"},{"id":"515905","latitude":"1.96750000","longitude":"-77.19888890","name":"Loma Alta"},{"id":"515932","latitude":"2.63111110","longitude":"-76.79722220","name":"Loma El Caimito"},{"id":"515934","latitude":"2.73361110","longitude":"-76.65444440","name":"Loma El Rosario"},{"id":"515943","latitude":"1.91250000","longitude":"-76.72138890","name":"Loma Larga"},{"id":"515957","latitude":"2.94138890","longitude":"-76.32944440","name":"Loma Redonda"},{"id":"515971","latitude":"3.05000000","longitude":"-76.55000000","name":"Lomita"},{"id":"515975","latitude":"3.05000000","longitude":"-76.55000000","name":"Lomitas"},{"id":"515978","latitude":"2.68972220","longitude":"-77.74361110","name":"Lom\u00f3n"},{"id":"515986","latitude":"2.11666670","longitude":"-76.80000000","name":"L\u00f3pez"},{"id":"515995","latitude":"1.73888890","longitude":"-77.29972220","name":"Lorenzo"},{"id":"516049","latitude":"2.52638890","longitude":"-76.79888890","name":"Los Anayes"},{"id":"516055","latitude":"2.40000000","longitude":"-77.08333330","name":"Los Andes"},{"id":"516089","latitude":"1.67444440","longitude":"-77.09388890","name":"Los \u00c1rboles"},{"id":"516139","latitude":"2.83583330","longitude":"-76.65055560","name":"Los Caf\u00e9s"},{"id":"516195","latitude":"1.83722220","longitude":"-77.18277780","name":"Los Cerritos"},{"id":"516227","latitude":"1.67638890","longitude":"-77.28500000","name":"Los Colorados"},{"id":"516231","latitude":"2.49472220","longitude":"-75.87166670","name":"Los Comejenes"},{"id":"516249","latitude":"2.44888890","longitude":"-76.16388890","name":"Los Corrales"},{"id":"516255","latitude":"1.73944440","longitude":"-77.01055560","name":"Los Cuchos"},{"id":"516312","latitude":"1.82972220","longitude":"-77.14444440","name":"Los Gu\u00e1simos"},{"id":"516322","latitude":"1.72222220","longitude":"-77.26500000","name":"Los Guayacanes"},{"id":"516327","latitude":"1.84027780","longitude":"-76.84000000","name":"Los Hatos"},{"id":"516329","latitude":"1.71083330","longitude":"-77.24027780","name":"Los Higuerones"},{"id":"516374","latitude":"1.78833330","longitude":"-77.06861110","name":"Los Llanos"},{"id":"516384","latitude":"2.65500000","longitude":"-76.73833330","name":"Los Lorios"},{"id":"516398","latitude":"2.61000000","longitude":"-76.74611110","name":"Los Mangos"},{"id":"516420","latitude":"1.89111110","longitude":"-77.12777780","name":"Los Medios"},{"id":"516430","latitude":"1.75055560","longitude":"-76.89166670","name":"Los Milagros"},{"id":"516453","latitude":"1.78083330","longitude":"-77.27083330","name":"Los Nacederos"},{"id":"516482","latitude":"2.66638890","longitude":"-77.91055560","name":"Los Obregones"},{"id":"516546","latitude":"1.73666670","longitude":"-77.09305560","name":"Los Planes"},{"id":"516560","latitude":"1.71666670","longitude":"-76.90000000","name":"Los Potreros"},{"id":"516572","latitude":"1.96166670","longitude":"-76.78055560","name":"Los Ramos"},{"id":"516575","latitude":"1.83888890","longitude":"-77.00666670","name":"Los Rastrojos"},{"id":"516713","latitude":"2.40000000","longitude":"-77.08333330","name":"Macaje"},{"id":"516977","latitude":"2.74222220","longitude":"-76.69138890","name":"Mango"},{"id":"516986","latitude":"1.94638890","longitude":"-77.15750000","name":"Manguita"},{"id":"517094","latitude":"1.87888890","longitude":"-77.17555560","name":"Mara\u00f1\u00f3n"},{"id":"517119","latitude":"2.74805560","longitude":"-77.72472220","name":"Marcelo"},{"id":"517191","latitude":"1.90083330","longitude":"-76.74194440","name":"Marmato"},{"id":"517315","latitude":"2.70333330","longitude":"-76.70888890","name":"Matapalo"},{"id":"517322","latitude":"2.72833330","longitude":"-76.59972220","name":"Mata Redonda"},{"id":"517329","latitude":"2.72833330","longitude":"-76.59972220","name":"Matarredonda"},{"id":"517331","latitude":"2.72833330","longitude":"-76.59972220","name":"Matarredondo"},{"id":"517425","latitude":"3.00000000","longitude":"-76.58333330","name":"Mazamorrero"},{"id":"517429","latitude":"2.40000000","longitude":"-77.08333330","name":"Mecaje"},{"id":"517433","latitude":"2.54388890","longitude":"-76.92972220","name":"Mechengue"},{"id":"517434","latitude":"2.66666670","longitude":"-77.20000000","name":"Mechenque"},{"id":"517451","latitude":"2.62166670","longitude":"-76.77694440","name":"Media Loma"},{"id":"517461","latitude":"3.18333330","longitude":"-76.21666670","name":"Media Naranja"},{"id":"517487","latitude":"1.95027780","longitude":"-76.91666670","name":"Melchor"},{"id":"517488","latitude":"2.75694440","longitude":"-76.56500000","name":"Melecho"},{"id":"517521","latitude":"1.80305560","longitude":"-77.16972220","name":"Mercaderes"},{"id":"517592","latitude":"2.76666670","longitude":"-76.91666670","name":"Micay"},{"id":"517609","latitude":"1.75055560","longitude":"-76.89166670","name":"Milagros"},{"id":"517627","latitude":"2.50027780","longitude":"-76.91944440","name":"Minatapada"},{"id":"517628","latitude":"2.50000000","longitude":"-76.88333330","name":"Minayaco"},{"id":"517629","latitude":"2.50000000","longitude":"-76.88333330","name":"Minayuco"},{"id":"517632","latitude":"2.87416670","longitude":"-76.69694440","name":"Mindal\u00e1"},{"id":"517661","latitude":"2.58944440","longitude":"-76.86388890","name":"Miraflores"},{"id":"517700","latitude":"3.25333330","longitude":"-76.23055560","name":"Miranda"},{"id":"517705","latitude":"2.93000000","longitude":"-76.62888890","name":"Mirasoles"},{"id":"517765","latitude":"1.88333330","longitude":"-77.19638890","name":"Mojairas"},{"id":"517768","latitude":"1.88333330","longitude":"-77.19638890","name":"Mojarras"},{"id":"517804","latitude":"2.89138890","longitude":"-76.55083330","name":"Mondom\u00f3"},{"id":"517862","latitude":"2.55166670","longitude":"-76.78333330","name":"Montebello"},{"id":"517918","latitude":"1.73750000","longitude":"-77.25972220","name":"Montele\u00f3n"},{"id":"517940","latitude":"1.73388890","longitude":"-77.11277780","name":"Monteredondo"},{"id":"517941","latitude":"2.93138890","longitude":"-76.68500000","name":"Monte Redondo"},{"id":"517946","latitude":"2.85555560","longitude":"-76.52111110","name":"Monterilla"},{"id":"517950","latitude":"3.21666670","longitude":"-76.20000000","name":"Monterredondo"},{"id":"517963","latitude":"1.68027780","longitude":"-77.31166670","name":"Monteverde"},{"id":"517983","latitude":"2.76027780","longitude":"-76.63388890","name":"Morales"},{"id":"518030","latitude":"2.50666670","longitude":"-76.62083330","name":"Morinda"},{"id":"518072","latitude":"2.95861110","longitude":"-76.72777780","name":"Morro Placho"},{"id":"518081","latitude":"2.24027780","longitude":"-76.17027780","name":"Moscop\u00e1n"},{"id":"518084","latitude":"2.75000000","longitude":"-76.11666670","name":"Mosoca"},{"id":"518085","latitude":"2.75000000","longitude":"-76.11666670","name":"Mosoco"},{"id":"518088","latitude":"2.35000000","longitude":"-76.86666670","name":"Mosquera"},{"id":"518160","latitude":"2.61361110","longitude":"-76.37750000","name":"Municipio Silvia"},{"id":"518207","latitude":"2.86666670","longitude":"-77.23333330","name":"Naiciona"},{"id":"518219","latitude":"2.51666670","longitude":"-77.60000000","name":"Nap\u00ed"},{"id":"518221","latitude":"1.06666670","longitude":"-76.43333330","name":"N\u00e1poles"},{"id":"518251","latitude":"2.41666670","longitude":"-77.75000000","name":"Naranjo"},{"id":"518364","latitude":"3.08333330","longitude":"-77.53333330","name":"Noanamito"},{"id":"518393","latitude":"1.79638890","longitude":"-77.16111110","name":"Normal"},{"id":"518417","latitude":"2.51666670","longitude":"-76.50000000","name":"Novirao"},{"id":"518438","latitude":"2.85944440","longitude":"-77.58277780","name":"Nueva Fortuna"},{"id":"518444","latitude":"1.70000000","longitude":"-76.78333330","name":"Nueva Granada"},{"id":"518533","latitude":"2.66638890","longitude":"-77.91055560","name":"Obregones"},{"id":"518552","latitude":"2.70194440","longitude":"-76.55833330","name":"Octavio"},{"id":"518561","latitude":"2.55138890","longitude":"-76.71194440","name":"Ojo de Agua"},{"id":"518572","latitude":"2.36666670","longitude":"-76.53333330","name":"Olaya Herrera"},{"id":"518578","latitude":"2.03333330","longitude":"-76.11666670","name":"Olaya"},{"id":"518644","latitude":"2.70527780","longitude":"-76.81694440","name":"Ortega Evang\u00e9lica"},{"id":"518646","latitude":"2.59305560","longitude":"-76.86555560","name":"Ortega"},{"id":"518649","latitude":"3.28333330","longitude":"-76.35000000","name":"Ortigal"},{"id":"518675","latitude":"2.78555560","longitude":"-76.51777780","name":"Ovejas"},{"id":"518705","latitude":"3.22583330","longitude":"-76.31638890","name":"Padilla"},{"id":"518711","latitude":"2.65472220","longitude":"-75.99277780","name":"P\u00e1ez"},{"id":"518727","latitude":"2.25666670","longitude":"-76.61861110","name":"Paispamba"},{"id":"518810","latitude":"2.20416670","longitude":"-76.49638890","name":"Paletar\u00e1"},{"id":"518898","latitude":"2.50666670","longitude":"-76.88722220","name":"Palmichal"},{"id":"518939","latitude":"2.99194440","longitude":"-76.66055560","name":"Palo Blanco"},{"id":"518946","latitude":"1.98333330","longitude":"-77.13333330","name":"Palo de Leche"},{"id":"518966","latitude":"2.95555560","longitude":"-76.42527780","name":"Palomera"},{"id":"518998","latitude":"1.94944440","longitude":"-77.19027780","name":"Paloverde"},{"id":"519026","latitude":"2.74250000","longitude":"-76.63222220","name":"Panama"},{"id":"519041","latitude":"2.01666670","longitude":"-76.68333330","name":"Pancitar\u00e1"},{"id":"519044","latitude":"1.70388890","longitude":"-77.29500000","name":"Pan de Az\u00facar"},{"id":"519053","latitude":"2.41666670","longitude":"-76.86666670","name":"Pandiguando"},{"id":"519064","latitude":"2.52916670","longitude":"-76.46861110","name":"Paniquit\u00e1"},{"id":"519133","latitude":"2.93583330","longitude":"-76.39500000","name":"Paramillo"},{"id":"519186","latitude":"2.26666670","longitude":"-76.75000000","name":"P\u00e1rraga"},{"id":"519267","latitude":"2.06666670","longitude":"-77.06666670","name":"Pat\u00eda"},{"id":"519273","latitude":"2.36666670","longitude":"-76.48333330","name":"Patico"},{"id":"519375","latitude":"2.55000000","longitude":"-75.98333330","name":"Pedregales"},{"id":"519378","latitude":"2.55000000","longitude":"-75.98333330","name":"Pedregal"},{"id":"519402","latitude":"2.64861110","longitude":"-77.85194440","name":"Pejesapo"},{"id":"519421","latitude":"1.65611110","longitude":"-77.07972220","name":"Pe\u00f1a Blanca"},{"id":"519439","latitude":"2.54027780","longitude":"-76.87333330","name":"Pe\u00f1a Negra"},{"id":"519468","latitude":"1.83333330","longitude":"-76.85000000","name":"Pe\u00f1ol"},{"id":"519493","latitude":"1.81666670","longitude":"-76.95000000","name":"Pepi\u00f1al"},{"id":"519495","latitude":"2.50333330","longitude":"-76.83666670","name":"Pepital"},{"id":"519539","latitude":"2.51722220","longitude":"-76.79694440","name":"Perolindes"},{"id":"519559","latitude":"2.78333330","longitude":"-76.55000000","name":"Pescador"},{"id":"519570","latitude":"2.65000000","longitude":"-77.48333330","name":"Pet\u00e9"},{"id":"519576","latitude":"2.43333330","longitude":"-76.76666670","name":"Piagua"},{"id":"519627","latitude":"3.01444440","longitude":"-76.58388890","name":"Piedra Escrita"},{"id":"519638","latitude":"2.88361110","longitude":"-76.72000000","name":"Piedra Negra"},{"id":"519643","latitude":"2.16666670","longitude":"-76.86666670","name":"Piedra Sentada"},{"id":"519657","latitude":"2.64305560","longitude":"-76.98916670","name":"Piendam\u00f3"},{"id":"519658","latitude":"2.64305560","longitude":"-76.98916670","name":"Piendom\u00f3"},{"id":"519682","latitude":"1.93166670","longitude":"-77.15777780","name":"Pil\u00f3n"},{"id":"519729","latitude":"2.50527780","longitude":"-77.71888890","name":"Pinulp\u00ed"},{"id":"519738","latitude":"2.79166670","longitude":"-76.38750000","name":"Pioy\u00e1"},{"id":"519781","latitude":"2.75000000","longitude":"-76.30000000","name":"Pitay\u00f3"},{"id":"519801","latitude":"2.03333330","longitude":"-76.83333330","name":"Placer"},{"id":"519805","latitude":"1.90527780","longitude":"-76.80861110","name":"Placeta"},{"id":"519813","latitude":"1.71361110","longitude":"-77.03055560","name":"Planadas"},{"id":"519827","latitude":"2.85583330","longitude":"-76.40444440","name":"Plan de Z\u00fa\u00f1iga"},{"id":"519911","latitude":"2.68222220","longitude":"-77.89194440","name":"Playita de Quiroga"},{"id":"519922","latitude":"1.55000000","longitude":"-76.50000000","name":"Play\u00f3n"},{"id":"519933","latitude":"2.36666670","longitude":"-76.53333330","name":"Poblaz\u00f3n"},{"id":"519943","latitude":"2.49138890","longitude":"-76.40388890","name":"Polindara"},{"id":"519945","latitude":"2.47527780","longitude":"-75.87638890","name":"Polivano"},{"id":"519962","latitude":"2.70138890","longitude":"-76.81111110","name":"Pomarroso"},{"id":"519977","latitude":"2.52916670","longitude":"-76.46861110","name":"Poniquit\u00e1"},{"id":"519987","latitude":"2.44416670","longitude":"-75.62138890","name":"Popay\u00e1n"},{"id":"520018","latitude":"1.73888890","longitude":"-77.03527780","name":"Portachuelo"},{"id":"520053","latitude":"2.83833330","longitude":"-76.61500000","name":"Porvenir"},{"id":"520087","latitude":"2.56694440","longitude":"-75.92500000","name":"Potrerillos"},{"id":"520093","latitude":"2.55277780","longitude":"-76.86111110","name":"Potrerito"},{"id":"520114","latitude":"1.75000000","longitude":"-76.63333330","name":"Potrero"},{"id":"520174","latitude":"2.71194440","longitude":"-76.82138890","name":"Primavera"},{"id":"520224","latitude":"2.81055560","longitude":"-76.76222220","name":"Puebillo"},{"id":"520226","latitude":"2.41666670","longitude":"-76.58333330","name":"Pueblillo"},{"id":"520228","latitude":"2.41666670","longitude":"-76.58333330","name":"Pueblito"},{"id":"520252","latitude":"2.75000000","longitude":"-76.40000000","name":"Pueblo Neuvo"},{"id":"520261","latitude":"3.08583330","longitude":"-76.60138890","name":"Pueblo Nuevo"},{"id":"520310","latitude":"2.41666670","longitude":"-76.63333330","name":"Puelenje"},{"id":"520314","latitude":"2.53805560","longitude":"-76.56500000","name":"Puente Alta Palac\u00e9"},{"id":"520326","latitude":"2.25000000","longitude":"-77.20000000","name":"Puente De Tierra"},{"id":"520337","latitude":"1.65083330","longitude":"-77.12250000","name":"Puente Mayo"},{"id":"520342","latitude":"2.74750000","longitude":"-76.70611110","name":"Puente Pan de Az\u00facar"},{"id":"520351","latitude":"2.78472220","longitude":"-76.72277780","name":"Puente San Jos\u00e9"},{"id":"520353","latitude":"2.25000000","longitude":"-77.20000000","name":"Puente Tierra"},{"id":"520372","latitude":"1.68333330","longitude":"-77.18333330","name":"Puertica"},{"id":"520576","latitude":"1.89972220","longitude":"-77.23972220","name":"Puerto Lim\u00f3n"},{"id":"520704","latitude":"2.53333330","longitude":"-77.05000000","name":"Puerto Rico"},{"id":"520724","latitude":"2.86166670","longitude":"-77.57944440","name":"Puerto Saija"},{"id":"520746","latitude":"2.86666670","longitude":"-77.23333330","name":"Puerto Sergio"},{"id":"520755","latitude":"3.23361110","longitude":"-76.41944440","name":"Puerto Tejada"},{"id":"520773","latitude":"2.50333330","longitude":"-75.96638890","name":"Puerto Valencia"},{"id":"520860","latitude":"1.85888890","longitude":"-77.18527780","name":"Puntellano"},{"id":"520864","latitude":"1.85888890","longitude":"-77.18527780","name":"Punto del Llano"},{"id":"520872","latitude":"2.34805560","longitude":"-76.50083330","name":"Purac\u00e9"},{"id":"520875","latitude":"2.10000000","longitude":"-77.26666670","name":"Pureto"},{"id":"520885","latitude":"2.10000000","longitude":"-77.26666670","name":"Purito"},{"id":"520946","latitude":"2.88333330","longitude":"-76.95000000","name":"Quebradillas"},{"id":"520948","latitude":"2.88333330","longitude":"-76.95000000","name":"Quebraditas"},{"id":"520964","latitude":"2.82055560","longitude":"-77.61833330","name":"Quevedo"},{"id":"520967","latitude":"2.71666670","longitude":"-76.35000000","name":"Quichay\u00e1"},{"id":"520976","latitude":"2.33333330","longitude":"-76.83333330","name":"Quilcac\u00e9"},{"id":"520977","latitude":"2.33333330","longitude":"-76.83333330","name":"Quilcas\u00e9"},{"id":"520978","latitude":"3.01305560","longitude":"-76.48666670","name":"Quilichao"},{"id":"520987","latitude":"2.71666670","longitude":"-76.35000000","name":"Quinchaya"},{"id":"520995","latitude":"2.44527780","longitude":"-76.44638890","name":"Quintana"},{"id":"520999","latitude":"3.15000000","longitude":"-76.41666670","name":"Quintero"},{"id":"521005","latitude":"2.61444440","longitude":"-77.81888890","name":"Quiroga"},{"id":"521009","latitude":"2.65000000","longitude":"-76.36666670","name":"Quisgo"},{"id":"521018","latitude":"2.65000000","longitude":"-76.36666670","name":"Quizgo"},{"id":"521100","latitude":"2.72888890","longitude":"-76.82583330","name":"Recibo"},{"id":"521201","latitude":"2.52583330","longitude":"-75.95777780","name":"Ricaurte"},{"id":"521252","latitude":"2.13333330","longitude":"-76.60000000","name":"R\u00edoblanco"},{"id":"521253","latitude":"2.50611110","longitude":"-76.55416670","name":"R\u00edo Blanco"},{"id":"521285","latitude":"2.55000000","longitude":"-76.77611110","name":"R\u00edo Honda"},{"id":"521286","latitude":"2.54000000","longitude":"-76.75888890","name":"R\u00edo Hondo"},{"id":"521306","latitude":"2.56861110","longitude":"-76.78666670","name":"R\u00edo Sucio"},{"id":"521351","latitude":"3.23333330","longitude":"-76.35000000","name":"Robles"},{"id":"521368","latitude":"1.87861110","longitude":"-76.99250000","name":"Rodeo"},{"id":"521385","latitude":"1.80916670","longitude":"-77.09277780","name":"Romerillos"},{"id":"521395","latitude":"2.40000000","longitude":"-77.00000000","name":"Rond\u00f3n"},{"id":"521410","latitude":"1.78333330","longitude":"-76.82666670","name":"Rosal"},{"id":"521416","latitude":"2.38333330","longitude":"-77.70000000","name":"Rosario"},{"id":"521424","latitude":"2.26305560","longitude":"-76.74444440","name":"Rosas"},{"id":"521546","latitude":"2.53333330","longitude":"-76.88333330","name":"Sabanetas"},{"id":"521569","latitude":"2.90138890","longitude":"-77.63444440","name":"Sagrado Corazon de Jes\u00fas"},{"id":"521570","latitude":"2.58027780","longitude":"-76.78250000","name":"Saguengue"},{"id":"521648","latitude":"1.87361110","longitude":"-77.09500000","name":"Salto de Agua"},{"id":"521659","latitude":"3.00527780","longitude":"-77.46972220","name":"Samaima"},{"id":"521664","latitude":"2.38333330","longitude":"-76.60000000","name":"Samanga"},{"id":"521692","latitude":"2.53333330","longitude":"-77.61666670","name":"San Agust\u00edn"},{"id":"521708","latitude":"2.13333330","longitude":"-77.21666670","name":"San Alfonso"},{"id":"521710","latitude":"2.51138890","longitude":"-76.70166670","name":"San Alfredo"},{"id":"521711","latitude":"2.25000000","longitude":"-77.06666670","name":"San Alonso"},{"id":"521721","latitude":"2.62444440","longitude":"-76.76750000","name":"San Andr\u00e9s"},{"id":"521740","latitude":"2.88333330","longitude":"-77.26666670","name":"San Antonio de Chuar\u00e9"},{"id":"521754","latitude":"2.57388890","longitude":"-77.69138890","name":"San Antonio Guaj\u00ed"},{"id":"521755","latitude":"2.57388890","longitude":"-77.69138890","name":"San Antonio Guaju\u00ed"},{"id":"521762","latitude":"1.83000000","longitude":"-77.19694440","name":"San Antonio"},{"id":"521812","latitude":"2.61388890","longitude":"-77.90611110","name":"San Bernardo"},{"id":"521930","latitude":"1.77027780","longitude":"-77.16638890","name":"San Fernando"},{"id":"521957","latitude":"1.90055560","longitude":"-76.66638890","name":"San Francisco"},{"id":"521974","latitude":"1.62416670","longitude":"-76.94083330","name":"San Gerardo"},{"id":"521993","latitude":"2.92583330","longitude":"-76.62194440","name":"San Ignacio"},{"id":"522010","latitude":"2.40000000","longitude":"-76.50000000","name":"San Isidro"},{"id":"522054","latitude":"1.77527780","longitude":"-77.07888890","name":"San Joaqu\u00edn"},{"id":"522069","latitude":"1.87000000","longitude":"-76.87777780","name":"San Jorge"},{"id":"522092","latitude":"2.61472220","longitude":"-77.75027780","name":"San Jos\u00e9 de Guar\u00e9"},{"id":"522105","latitude":"1.85027780","longitude":"-76.92277780","name":"San Jos\u00e9 del Morro"},{"id":"522137","latitude":"1.50000000","longitude":"-76.01666670","name":"San Jos\u00e9"},{"id":"522167","latitude":"2.20000000","longitude":"-77.26666670","name":"San Juan de Cucho"},{"id":"522177","latitude":"2.53333330","longitude":"-77.21666670","name":"San Juan de Mechengue"},{"id":"522185","latitude":"2.62444440","longitude":"-76.77916670","name":"San Juanero"},{"id":"522187","latitude":"1.73333330","longitude":"-77.27250000","name":"San Juanito"},{"id":"522198","latitude":"1.73333330","longitude":"-76.80000000","name":"San Juan"},{"id":"522214","latitude":"3.08722220","longitude":"-76.51388890","name":"San Juli\u00e1n"},{"id":"522224","latitude":"1.77638890","longitude":"-76.97777780","name":"San Lorenzo"},{"id":"522248","latitude":"2.53611110","longitude":"-76.87694440","name":"San Luis"},{"id":"522321","latitude":"1.79638890","longitude":"-76.96166670","name":"San Miguel"},{"id":"522366","latitude":"1.67027780","longitude":"-77.00944440","name":"San Pablo"},{"id":"522387","latitude":"2.20000000","longitude":"-76.61666670","name":"San Pedro Alto"},{"id":"522389","latitude":"2.16666670","longitude":"-76.65000000","name":"San Pedro Bajo"},{"id":"522410","latitude":"1.53111110","longitude":"-76.51222220","name":"San Pedro"},{"id":"522432","latitude":"2.55055560","longitude":"-77.84694440","name":"San Pio"},{"id":"522446","latitude":"2.73555560","longitude":"-76.62777780","name":"San Rafael"},{"id":"522471","latitude":"2.76888890","longitude":"-76.68666670","name":"San Roque"},{"id":"522500","latitude":"1.84111110","longitude":"-76.77166670","name":"San Sebasti\u00e1n"},{"id":"522520","latitude":"2.20000000","longitude":"-76.95000000","name":"Santa Ana"},{"id":"522534","latitude":"2.67027780","longitude":"-76.59138890","name":"Santa Anita"},{"id":"522542","latitude":"2.03333330","longitude":"-76.81666670","name":"Santa B\u00e1rbara"},{"id":"522580","latitude":"1.50416670","longitude":"-76.55055560","name":"Santa Clara"},{"id":"522595","latitude":"2.96222220","longitude":"-77.59861110","name":"Santa Cruz"},{"id":"522654","latitude":"2.50722220","longitude":"-77.66694440","name":"Santa Geltrudes"},{"id":"522668","latitude":"2.51555560","longitude":"-76.64166670","name":"Santa Helena"},{"id":"522721","latitude":"2.10000000","longitude":"-76.83333330","name":"Santa Juana"},{"id":"522724","latitude":"3.08722220","longitude":"-76.51388890","name":"Santa Juli\u00e1"},{"id":"522726","latitude":"2.24027780","longitude":"-76.17027780","name":"Santa Leticia"},{"id":"522735","latitude":"2.13333330","longitude":"-76.81666670","name":"Santa Luc\u00eda"},{"id":"522758","latitude":"1.95444440","longitude":"-77.10166670","name":"Santa Mar\u00eda"},{"id":"522776","latitude":"2.86583330","longitude":"-76.65916670","name":"Santa Marta"},{"id":"522800","latitude":"2.89861110","longitude":"-76.60333330","name":"Santana"},{"id":"522808","latitude":"3.01305560","longitude":"-76.48666670","name":"Santander de Quilichao"},{"id":"522812","latitude":"3.01305560","longitude":"-76.48666670","name":"Santander"},{"id":"522835","latitude":"2.03333330","longitude":"-76.83333330","name":"Santa Rita"},{"id":"522862","latitude":"2.71666670","longitude":"-77.48333330","name":"Santa Rosa de Saija"},{"id":"522878","latitude":"1.72944440","longitude":"-76.60444440","name":"Santa Rosa"},{"id":"522917","latitude":"2.45361110","longitude":"-76.11388890","name":"Santa Teresa"},{"id":"522949","latitude":"1.81361110","longitude":"-76.78305560","name":"Santiago"},{"id":"522962","latitude":"1.78333330","longitude":"-76.75000000","name":"Santo Domingo"},{"id":"523002","latitude":"2.31666670","longitude":"-77.76666670","name":"San Vicente"},{"id":"523026","latitude":"2.98333330","longitude":"-77.40000000","name":"Saragosa"},{"id":"523078","latitude":"2.63250000","longitude":"-76.83472220","name":"Seguengue"},{"id":"523096","latitude":"2.51638890","longitude":"-77.75777780","name":"Sequihonda"},{"id":"523165","latitude":"2.78555560","longitude":"-76.51777780","name":"Siberia"},{"id":"523215","latitude":"2.61361110","longitude":"-76.38222220","name":"Silvia"},{"id":"523229","latitude":"2.28333330","longitude":"-77.21666670","name":"Sina\u00ed"},{"id":"523236","latitude":"2.55277780","longitude":"-76.59277780","name":"Sinal"},{"id":"523333","latitude":"3.15166670","longitude":"-77.37694440","name":"Soarada"},{"id":"523335","latitude":"2.51666670","longitude":"-77.51666670","name":"Sobei"},{"id":"523337","latitude":"1.70166670","longitude":"-77.15027780","name":"Sobrerillos"},{"id":"523339","latitude":"2.51666670","longitude":"-77.51666670","name":"Sobuey"},{"id":"523367","latitude":"2.51666670","longitude":"-77.56666670","name":"Soledad"},{"id":"523382","latitude":"2.75805560","longitude":"-76.70138890","name":"Sombreillo"},{"id":"523383","latitude":"1.70166670","longitude":"-77.15027780","name":"Sombrerillo"},{"id":"523384","latitude":"1.70166670","longitude":"-77.15027780","name":"Sombrerillos"},{"id":"523389","latitude":"1.83000000","longitude":"-77.19694440","name":"Son Antonio"},{"id":"523420","latitude":"2.25666670","longitude":"-76.61861110","name":"Sotar\u00e1"},{"id":"523433","latitude":"2.95888890","longitude":"-76.69527780","name":"Su\u00e1rez"},{"id":"523448","latitude":"2.03333330","longitude":"-76.91666670","name":"Sucre"},{"id":"523463","latitude":"2.73333330","longitude":"-76.08333330","name":"Suin"},{"id":"523528","latitude":"1.71361110","longitude":"-77.16444440","name":"Tabloncito"},{"id":"523534","latitude":"1.92722220","longitude":"-76.88250000","name":"Tabl\u00f3n"},{"id":"523557","latitude":"2.08333330","longitude":"-76.90000000","name":"Tachuelo"},{"id":"523563","latitude":"3.06666670","longitude":"-76.23333330","name":"Tacuey\u00f3"},{"id":"523566","latitude":"3.06666670","longitude":"-76.23333330","name":"Tacuyo"},{"id":"523584","latitude":"2.73333330","longitude":"-76.01611110","name":"T\u00e1laga"},{"id":"523609","latitude":"1.96666670","longitude":"-77.10000000","name":"Tamarindo"},{"id":"523617","latitude":"2.65000000","longitude":"-76.10000000","name":"Tambichucu\u00e9"},{"id":"523623","latitude":"2.66805560","longitude":"-76.82583330","name":"Tambo Quemado"},{"id":"523633","latitude":"2.45416670","longitude":"-76.81777780","name":"Tambo"},{"id":"523640","latitude":"2.56972220","longitude":"-76.78944440","name":"Tambugal"},{"id":"523650","latitude":"1.58333330","longitude":"-76.60000000","name":"Tanabita"},{"id":"523691","latitude":"1.58333330","longitude":"-76.60000000","name":"Tarabita"},{"id":"523711","latitude":"3.28333330","longitude":"-76.35000000","name":"Tarragona"},{"id":"523837","latitude":"3.13333330","longitude":"-76.31666670","name":"Tetillo"},{"id":"523867","latitude":"2.78333330","longitude":"-76.78333330","name":"Tierra Adentro"},{"id":"523887","latitude":"2.78333330","longitude":"-76.78333330","name":"Tierradentro"},{"id":"523890","latitude":"3.23333330","longitude":"-76.30000000","name":"Tierradura"},{"id":"523948","latitude":"3.11666670","longitude":"-76.63333330","name":"Timba"},{"id":"523950","latitude":"2.35611110","longitude":"-75.68777780","name":"Timb\u00edo"},{"id":"523951","latitude":"2.76388890","longitude":"-77.62750000","name":"Timbiqu\u00ed"},{"id":"523957","latitude":"1.91666670","longitude":"-77.18333330","name":"Tinajas"},{"id":"524025","latitude":"2.80000000","longitude":"-76.06666670","name":"Toez"},{"id":"524030","latitude":"2.64138890","longitude":"-75.99333330","name":"Togaima"},{"id":"524031","latitude":"2.64138890","longitude":"-75.99333330","name":"Togoima"},{"id":"524065","latitude":"2.50194440","longitude":"-77.72444440","name":"Tom\u00e1s"},{"id":"524086","latitude":"2.50361110","longitude":"-75.97500000","name":"Topa"},{"id":"524097","latitude":"2.95805560","longitude":"-76.27138890","name":"Torib\u00edo"},{"id":"524130","latitude":"2.49222220","longitude":"-76.40472220","name":"Totora"},{"id":"524131","latitude":"2.49222220","longitude":"-76.40472220","name":"Totor\u00f3"},{"id":"524164","latitude":"2.59333330","longitude":"-76.69000000","name":"Trapiche"},{"id":"524229","latitude":"2.89138890","longitude":"-76.48638890","name":"Tres Quebradas"},{"id":"524238","latitude":"1.67916670","longitude":"-77.11611110","name":"Trigal de Albino"},{"id":"524280","latitude":"1.91361110","longitude":"-76.94527780","name":"Trujillo"},{"id":"524309","latitude":"3.25000000","longitude":"-76.36666670","name":"Tulip\u00e1n"},{"id":"524321","latitude":"2.65000000","longitude":"-76.10000000","name":"Tumbichucu\u00e9"},{"id":"524330","latitude":"2.64305560","longitude":"-76.98916670","name":"Tun\u00eda"},{"id":"524361","latitude":"2.89416670","longitude":"-76.48861110","name":"Turco"},{"id":"524367","latitude":"2.49777780","longitude":"-76.04888890","name":"Turmin\u00e1"},{"id":"524416","latitude":"1.83638890","longitude":"-77.24027780","name":"U\u00f1egato"},{"id":"524460","latitude":"2.55166670","longitude":"-76.85500000","name":"Uribe"},{"id":"524464","latitude":"2.41666670","longitude":"-77.75000000","name":"Uribe Uribe"},{"id":"524481","latitude":"2.38333330","longitude":"-76.71666670","name":"Urubamba"},{"id":"524491","latitude":"2.61666670","longitude":"-76.41666670","name":"Usenda"},{"id":"524500","latitude":"2.72583330","longitude":"-76.57416670","name":"Uvales"},{"id":"524523","latitude":"2.61833330","longitude":"-76.53027780","name":"Valdivieso"},{"id":"524526","latitude":"1.90055560","longitude":"-76.66638890","name":"Valencia"},{"id":"524548","latitude":"2.70000000","longitude":"-76.36666670","name":"Valle Nuevo"},{"id":"524549","latitude":"3.00000000","longitude":"-76.28333330","name":"Valles Hondos"},{"id":"524551","latitude":"2.70000000","longitude":"-76.36666670","name":"Valle"},{"id":"524647","latitude":"1.87111110","longitude":"-76.74638890","name":"Venecia"},{"id":"524661","latitude":"2.50027780","longitude":"-77.71055560","name":"Venero"},{"id":"524677","latitude":"2.91861110","longitude":"-77.60916670","name":"Ventiadero"},{"id":"524723","latitude":"2.77861110","longitude":"-77.67111110","name":"Vereda Francia"},{"id":"524769","latitude":"1.81833330","longitude":"-77.14250000","name":"Victoria"},{"id":"524796","latitude":"2.46666670","longitude":"-76.91666670","name":"Villa al Mar"},{"id":"524816","latitude":"2.59611110","longitude":"-76.53000000","name":"Villa Cecilia"},{"id":"524909","latitude":"2.55027780","longitude":"-76.72250000","name":"Villamar"},{"id":"524958","latitude":"2.51361110","longitude":"-76.84777780","name":"Villa Rica"},{"id":"524961","latitude":"2.56944440","longitude":"-75.96888890","name":"Villa Rodr\u00edguez"},{"id":"524972","latitude":"3.16666670","longitude":"-76.45000000","name":"Villarrica"},{"id":"525023","latitude":"2.77777780","longitude":"-77.60500000","name":"Vista Hermosa"},{"id":"525034","latitude":"2.54111110","longitude":"-75.96194440","name":"Vitelma"},{"id":"525107","latitude":"1.43333330","longitude":"-76.58333330","name":"Yanaconas"},{"id":"525115","latitude":"2.33333330","longitude":"-77.55000000","name":"Yant\u00edn"},{"id":"525119","latitude":"2.56666670","longitude":"-76.05000000","name":"Yaquiva"},{"id":"525127","latitude":"3.20000000","longitude":"-76.30000000","name":"Yarumales"},{"id":"525132","latitude":"2.45361110","longitude":"-76.11388890","name":"Yarumal"},{"id":"525155","latitude":"2.25000000","longitude":"-76.88333330","name":"Yeguas"},{"id":"525205","latitude":"1.73333330","longitude":"-76.86666670","name":"Yungulilla"},{"id":"525232","latitude":"4.37138890","longitude":"-76.14694440","name":"Zambrano"},{"id":"525256","latitude":"3.26666670","longitude":"-76.36666670","name":"Zanj\u00f3n Rico"},{"id":"525282","latitude":"2.98333330","longitude":"-77.40000000","name":"Zaragoza"},{"id":"525291","latitude":"2.45000000","longitude":"-76.73333330","name":"Zarzal"},{"id":"525302","latitude":"4.37138890","longitude":"-76.14694440","name":"Zembrano"},{"id":"525306","latitude":"2.72694440","longitude":"-77.72000000","name":"Zocab\u00e1n"},{"id":"525307","latitude":"2.72694440","longitude":"-77.72000000","name":"Zocab\u00f3n"}]