[{"id":"540517","latitude":"50.11666670","longitude":"13.38333330","name":"Alberitz"},{"id":"540524","latitude":"50.46666670","longitude":"14.60000000","name":"Albertsthal"},{"id":"540531","latitude":"49.90000000","longitude":"15.16666670","name":"Albrechtice"},{"id":"540557","latitude":"50.28333330","longitude":"14.81666670","name":"Alt Benatek"},{"id":"540588","latitude":"49.78333330","longitude":"14.20000000","name":"Alth\u00fctten"},{"id":"540595","latitude":"49.78333330","longitude":"14.28333330","name":"Alt Kn\u00edn"},{"id":"540649","latitude":"50.10000000","longitude":"13.85000000","name":"Amalie"},{"id":"540654","latitude":"49.65000000","longitude":"14.48333330","name":"Amschelberg"},{"id":"540703","latitude":"49.61666670","longitude":"14.60000000","name":"Arnostovice"},{"id":"540740","latitude":"49.80000000","longitude":"14.63333330","name":"Aurotschnitz"},{"id":"540744","latitude":"49.78333330","longitude":"14.53333330","name":"Auschtitz"},{"id":"540767","latitude":"49.88333330","longitude":"14.63333330","name":"Babice"},{"id":"540779","latitude":"49.88333330","longitude":"14.63333330","name":"Babitz"},{"id":"540806","latitude":"49.86666670","longitude":"15.23333330","name":"Bahno"},{"id":"540809","latitude":"50.26666670","longitude":"14.10000000","name":"Bakov"},{"id":"540810","latitude":"50.48333330","longitude":"14.93333330","name":"Bakov nad Jizerou"},{"id":"540811","latitude":"50.48333330","longitude":"14.93333330","name":"Bakow"},{"id":"540830","latitude":"49.60000000","longitude":"14.70000000","name":"Barcov"},{"id":"540837","latitude":"49.86666670","longitude":"14.63333330","name":"Barochov"},{"id":"540838","latitude":"49.86666670","longitude":"14.63333330","name":"Barochow"},{"id":"540869","latitude":"50.46666670","longitude":"14.56666670","name":"Baudenm\u00fchle"},{"id":"540879","latitude":"49.90000000","longitude":"13.96666670","name":"Bavoryne"},{"id":"540884","latitude":"50.21666670","longitude":"13.86666670","name":"Bd\u00edn"},{"id":"540888","latitude":"50.41666670","longitude":"14.33333330","name":"Bechl\u00edn"},{"id":"540905","latitude":"49.81666670","longitude":"14.71666670","name":"Bedertsch"},{"id":"540908","latitude":"50.11666670","longitude":"13.50000000","name":"Bedlno"},{"id":"540913","latitude":"49.81666670","longitude":"14.71666670","name":"Bedrc"},{"id":"540922","latitude":"49.88333330","longitude":"15.16666670","name":"Bedrichov"},{"id":"540924","latitude":"49.68333330","longitude":"14.76666670","name":"Bedrichovice"},{"id":"540946","latitude":"50.50000000","longitude":"14.80000000","name":"Bela pod Bezdezem"},{"id":"540947","latitude":"50.50000000","longitude":"14.80000000","name":"Bela pri Bedez"},{"id":"540950","latitude":"50.01666670","longitude":"13.60000000","name":"Belbozice"},{"id":"540952","latitude":"49.85000000","longitude":"14.81666670","name":"Belcice"},{"id":"540957","latitude":"50.06666670","longitude":"14.00000000","name":"Belec"},{"id":"540963","latitude":"49.76666670","longitude":"14.46666670","name":"Belice"},{"id":"540964","latitude":"49.95000000","longitude":"15.28333330","name":"Belidlo"},{"id":"540966","latitude":"49.70000000","longitude":"14.20000000","name":"Belohrad"},{"id":"540968","latitude":"50.13333330","longitude":"14.23333330","name":"Beloky"},{"id":"540978","latitude":"50.23333330","longitude":"14.83333330","name":"Ben\u00e1teck\u00e1 Vrutice"},{"id":"540993","latitude":"49.78333330","longitude":"14.68333330","name":"Beneschau"},{"id":"540998","latitude":"49.78333330","longitude":"14.68333330","name":"Benesov"},{"id":"541008","latitude":"49.80000000","longitude":"14.55000000","name":"Benice"},{"id":"541011","latitude":"49.80000000","longitude":"14.55000000","name":"Benitz"},{"id":"541024","latitude":"49.95000000","longitude":"14.08333330","name":"Beraun"},{"id":"541039","latitude":"49.78333330","longitude":"14.00000000","name":"Berin"},{"id":"541062","latitude":"49.95000000","longitude":"14.08333330","name":"Beroun"},{"id":"541063","latitude":"50.26666670","longitude":"14.13333330","name":"Berovice"},{"id":"541069","latitude":"49.86666670","longitude":"14.76666670","name":"Besdiekow"},{"id":"541073","latitude":"49.76666670","longitude":"14.26666670","name":"Bes\u00eddka"},{"id":"541077","latitude":"50.18333330","longitude":"13.51666670","name":"Besno"},{"id":"541078","latitude":"49.80000000","longitude":"14.01666670","name":"Bestin"},{"id":"541090","latitude":"50.38333330","longitude":"14.90000000","name":"Bezdecin"},{"id":"541093","latitude":"49.83333330","longitude":"14.03333330","name":"Bezdedice"},{"id":"541094","latitude":"49.81666670","longitude":"14.01666670","name":"Bezdedicky"},{"id":"541104","latitude":"49.58333330","longitude":"13.88333330","name":"Bezdekov"},{"id":"541109","latitude":"49.58333330","longitude":"13.88333330","name":"Bezdekov pod Tremsinem"},{"id":"541111","latitude":"50.53333330","longitude":"14.71666670","name":"Bezdez"},{"id":"541118","latitude":"49.65000000","longitude":"14.53333330","name":"Bezmir"},{"id":"541120","latitude":"50.36666670","longitude":"14.80000000","name":"Bezno"},{"id":"541123","latitude":"49.63333330","longitude":"14.61666670","name":"Beztahov"},{"id":"541131","latitude":"49.76666670","longitude":"14.46666670","name":"Bielitz"},{"id":"541133","latitude":"49.85000000","longitude":"14.81666670","name":"Bieltschitz"},{"id":"541138","latitude":"50.53333330","longitude":"14.91666670","name":"B\u00edl\u00e1 Hl\u00edna"},{"id":"541153","latitude":"50.13333330","longitude":"13.46666670","name":"B\u00edlenec"},{"id":"541170","latitude":"49.76666670","longitude":"14.86666670","name":"B\u00edlkovice"},{"id":"541174","latitude":"50.01666670","longitude":"13.43333330","name":"B\u00edlov"},{"id":"541200","latitude":"49.68333330","longitude":"13.98333330","name":"Birkenberg"},{"id":"541208","latitude":"50.31666670","longitude":"14.61666670","name":"Bischitz"},{"id":"541227","latitude":"49.73333330","longitude":"14.66666670","name":"Bistritz"},{"id":"541231","latitude":"50.46666670","longitude":"14.88333330","name":"B\u00edtouchov"},{"id":"541239","latitude":"49.93333330","longitude":"14.06666670","name":"B\u00edtov"},{"id":"541245","latitude":"50.23333330","longitude":"14.11666670","name":"Blahotice"},{"id":"541247","latitude":"49.61666670","longitude":"14.33333330","name":"Bl\u00e1hova Lhota"},{"id":"541262","latitude":"49.78333330","longitude":"14.46666670","name":"Blaschenitz"},{"id":"541263","latitude":"49.76666670","longitude":"14.45000000","name":"Blaschim"},{"id":"541267","latitude":"50.35000000","longitude":"14.50000000","name":"Blata"},{"id":"541268","latitude":"50.50000000","longitude":"14.60000000","name":"Blatce"},{"id":"541272","latitude":"50.50000000","longitude":"14.58333330","name":"Blatecky"},{"id":"541285","latitude":"50.10000000","longitude":"13.40000000","name":"Blatno"},{"id":"541297","latitude":"49.78333330","longitude":"14.46666670","name":"Blazenice"},{"id":"541300","latitude":"49.76666670","longitude":"14.45000000","name":"Blazim"},{"id":"541314","latitude":"50.21666670","longitude":"14.23333330","name":"Blevice"},{"id":"541345","latitude":"50.21666670","longitude":"15.05000000","name":"Bobnice"},{"id":"541430","latitude":"49.60000000","longitude":"14.15000000","name":"Bohostice"},{"id":"541433","latitude":"49.96666670","longitude":"15.18333330","name":"Bohounovice I"},{"id":"541435","latitude":"49.96666670","longitude":"15.18333330","name":"Bohounovice Predni"},{"id":"541474","latitude":"49.65000000","longitude":"13.95000000","name":"Bohut\u00edn"},{"id":"541481","latitude":"49.85000000","longitude":"14.35000000","name":"Bojanovice"},{"id":"541484","latitude":"49.85000000","longitude":"14.35000000","name":"Bojanowitz"},{"id":"541485","latitude":"49.86666670","longitude":"14.35000000","name":"Bojau"},{"id":"541488","latitude":"49.53333330","longitude":"14.05000000","name":"Bojesice"},{"id":"541489","latitude":"50.38333330","longitude":"14.96666670","name":"Bojetice"},{"id":"541492","latitude":"49.96666670","longitude":"15.20000000","name":"Bojiste"},{"id":"541496","latitude":"49.86666670","longitude":"14.35000000","name":"Bojov"},{"id":"541504","latitude":"49.61666670","longitude":"14.50000000","name":"Bolechovice"},{"id":"541523","latitude":"49.68333330","longitude":"14.95000000","name":"Bolina"},{"id":"541524","latitude":"49.68333330","longitude":"14.93333330","name":"Bolinka"},{"id":"541540","latitude":"50.25000000","longitude":"14.80000000","name":"Bonrepos"},{"id":"541548","latitude":"49.56666670","longitude":"13.98333330","name":"Bor"},{"id":"541552","latitude":"50.40000000","longitude":"14.73333330","name":"Borec"},{"id":"541570","latitude":"49.71666670","longitude":"13.95000000","name":"Borek"},{"id":"541572","latitude":"49.66666670","longitude":"14.50000000","name":"Borena Hora"},{"id":"541573","latitude":"49.76666670","longitude":"14.80000000","name":"Borenovice"},{"id":"541578","latitude":"49.61666670","longitude":"14.71666670","name":"Boretice"},{"id":"541593","latitude":"49.61666670","longitude":"14.80000000","name":"Borkovice"},{"id":"541599","latitude":"49.73333330","longitude":"14.28333330","name":"Borotice"},{"id":"541618","latitude":"49.78333330","longitude":"14.53333330","name":"Borovka"},{"id":"541633","latitude":"49.78333330","longitude":"14.53333330","name":"Borowka"},{"id":"541634","latitude":"49.76666670","longitude":"14.80000000","name":"Borschenowitz"},{"id":"541648","latitude":"49.93333330","longitude":"14.71666670","name":"Boschkau"},{"id":"541656","latitude":"50.53333330","longitude":"14.71666670","name":"B\u00f6sig"},{"id":"541657","latitude":"50.53333330","longitude":"14.71666670","name":"B\u00f6sig Schloss"},{"id":"541677","latitude":"50.41666670","longitude":"14.55000000","name":"Bosyne"},{"id":"541684","latitude":"49.58333330","longitude":"14.48333330","name":"Boudy"},{"id":"541685","latitude":"49.78333330","longitude":"14.73333330","name":"Bouschitz"},{"id":"541686","latitude":"49.78333330","longitude":"14.73333330","name":"Bousice"},{"id":"541709","latitude":"50.40000000","longitude":"14.95000000","name":"Bozi Voda"},{"id":"541712","latitude":"49.93333330","longitude":"14.71666670","name":"Bozkov"},{"id":"541713","latitude":"49.70000000","longitude":"14.61666670","name":"Bozkovice"},{"id":"541720","latitude":"50.45000000","longitude":"14.91666670","name":"Bradlec"},{"id":"541734","latitude":"50.18333330","longitude":"14.18333330","name":"Brandeis"},{"id":"541739","latitude":"50.18333330","longitude":"14.18333330","name":"Brand\u00fdsek"},{"id":"541765","latitude":"50.01666670","longitude":"13.83333330","name":"Branov"},{"id":"541772","latitude":"50.10000000","longitude":"14.10000000","name":"Braskov"},{"id":"541777","latitude":"49.85000000","longitude":"14.35000000","name":"Braterschin"},{"id":"541778","latitude":"49.73333330","longitude":"14.00000000","name":"Bratkovice"},{"id":"541779","latitude":"49.58333330","longitude":"14.36666670","name":"Bratrejov"},{"id":"541785","latitude":"49.85000000","longitude":"14.35000000","name":"Bratrinov"},{"id":"541788","latitude":"50.06666670","longitude":"14.01666670","name":"Bratronice"},{"id":"541789","latitude":"50.06666670","longitude":"14.01666670","name":"Bratronitz"},{"id":"541796","latitude":"49.95000000","longitude":"13.85000000","name":"Braum"},{"id":"541808","latitude":"49.63333330","longitude":"14.30000000","name":"Brazna"},{"id":"541824","latitude":"49.65000000","longitude":"14.35000000","name":"Brekova Lhota"},{"id":"541828","latitude":"49.83333330","longitude":"14.53333330","name":"Breschan"},{"id":"541829","latitude":"50.28333330","longitude":"14.11666670","name":"Brest'any"},{"id":"541849","latitude":"49.83333330","longitude":"14.53333330","name":"Brezany"},{"id":"541879","latitude":"50.45000000","longitude":"14.55000000","name":"Brezinka"},{"id":"541888","latitude":"49.55000000","longitude":"13.96666670","name":"Breznice"},{"id":"541891","latitude":"49.55000000","longitude":"13.96666670","name":"Breznitz"},{"id":"541892","latitude":"50.40000000","longitude":"15.00000000","name":"Brezno"},{"id":"541901","latitude":"49.88333330","longitude":"15.25000000","name":"Brezova"},{"id":"541905","latitude":"49.68333330","longitude":"13.98333330","name":"Brezove Hory"},{"id":"541909","latitude":"50.46666670","longitude":"14.73333330","name":"Brezovice"},{"id":"541923","latitude":"49.70000000","longitude":"14.46666670","name":"Brisejov"},{"id":"541959","latitude":"50.48333330","longitude":"14.45000000","name":"Brocno"},{"id":"541962","latitude":"49.66666670","longitude":"14.01666670","name":"Brod"},{"id":"541964","latitude":"49.83333330","longitude":"14.60000000","name":"Brodce"},{"id":"541966","latitude":"49.83333330","longitude":"14.60000000","name":"Brodce nad Sazavou"},{"id":"541975","latitude":"50.33333330","longitude":"14.86666670","name":"Brodetz"},{"id":"541980","latitude":"50.48333330","longitude":"14.45000000","name":"Brotzen"},{"id":"541985","latitude":"49.63333330","longitude":"14.70000000","name":"Broumovice"},{"id":"541986","latitude":"49.95000000","longitude":"13.85000000","name":"Broumy"},{"id":"541988","latitude":"50.35000000","longitude":"14.45000000","name":"Brozanek"},{"id":"541989","latitude":"50.35000000","longitude":"14.45000000","name":"Broz\u00e1nky"},{"id":"542001","latitude":"49.91666670","longitude":"14.63333330","name":"Brtnice"},{"id":"542023","latitude":"49.85000000","longitude":"14.40000000","name":"Brunschau"},{"id":"542024","latitude":"49.85000000","longitude":"14.40000000","name":"Brunsov"},{"id":"542031","latitude":"50.46666670","longitude":"14.63333330","name":"Brusnai"},{"id":"542032","latitude":"50.46666670","longitude":"14.63333330","name":"Brusn\u00e9"},{"id":"542050","latitude":"49.90000000","longitude":"14.55000000","name":"Bschesek"},{"id":"542056","latitude":"49.55000000","longitude":"13.93333330","name":"Bubovice"},{"id":"542067","latitude":"49.81666670","longitude":"14.65000000","name":"Buchen Lhota"},{"id":"542072","latitude":"49.61666670","longitude":"14.66666670","name":"Buchov"},{"id":"542078","latitude":"50.50000000","longitude":"14.50000000","name":"Buckholz"},{"id":"542082","latitude":"49.63333330","longitude":"14.55000000","name":"Bucovice"},{"id":"542084","latitude":"50.48333330","longitude":"14.98333330","name":"Buda"},{"id":"542093","latitude":"49.65000000","longitude":"14.68333330","name":"Buden\u00edn"},{"id":"542098","latitude":"50.30000000","longitude":"14.25000000","name":"Budihostice"},{"id":"542103","latitude":"50.20000000","longitude":"15.10000000","name":"Budimerice"},{"id":"542106","latitude":"49.75000000","longitude":"14.20000000","name":"Bud\u00ednek"},{"id":"542121","latitude":"49.93333330","longitude":"14.18333330","name":"Budnan"},{"id":"542122","latitude":"49.93333330","longitude":"14.18333330","name":"Budnany"},{"id":"542133","latitude":"49.65000000","longitude":"14.06666670","name":"Buk"},{"id":"542135","latitude":"50.31666670","longitude":"14.40000000","name":"Bukol"},{"id":"542142","latitude":"49.61666670","longitude":"14.95000000","name":"Bukov\u00e1"},{"id":"542143","latitude":"49.81666670","longitude":"14.65000000","name":"Bukov\u00e1 Lhota"},{"id":"542148","latitude":"49.56666670","longitude":"14.10000000","name":"Bukovany"},{"id":"542150","latitude":"50.15000000","longitude":"13.50000000","name":"Bukov"},{"id":"542156","latitude":"50.50000000","longitude":"14.50000000","name":"Bukovec"},{"id":"542177","latitude":"50.45000000","longitude":"14.83333330","name":"Bukovno"},{"id":"542181","latitude":"49.81666670","longitude":"14.63333330","name":"Bukowan"},{"id":"542194","latitude":"50.38333330","longitude":"14.61666670","name":"Bundol"},{"id":"542203","latitude":"49.90000000","longitude":"14.81666670","name":"Burg Strimelitz"},{"id":"542212","latitude":"49.80000000","longitude":"14.38333330","name":"Bus"},{"id":"542213","latitude":"49.80000000","longitude":"14.38333330","name":"Busch"},{"id":"542222","latitude":"50.15000000","longitude":"14.18333330","name":"Bustehrad"},{"id":"542237","latitude":"49.90000000","longitude":"15.25000000","name":"Bykan"},{"id":"542238","latitude":"50.35000000","longitude":"14.41666670","name":"B\u00fdkev"},{"id":"542239","latitude":"49.88333330","longitude":"14.06666670","name":"Bykos"},{"id":"542243","latitude":"49.61666670","longitude":"14.86666670","name":"B\u00fdkovice"},{"id":"542244","latitude":"49.76666670","longitude":"14.81666670","name":"Bykowitz"},{"id":"542247","latitude":"49.93333330","longitude":"15.23333330","name":"Bylany"},{"id":"542256","latitude":"50.23333330","longitude":"14.03333330","name":"Bysen"},{"id":"542257","latitude":"50.31666670","longitude":"14.61666670","name":"Bysice"},{"id":"542258","latitude":"50.18333330","longitude":"14.80000000","name":"Bysicky"},{"id":"542260","latitude":"50.25000000","longitude":"14.50000000","name":"Byskovice"},{"id":"542281","latitude":"49.73333330","longitude":"14.66666670","name":"Bystrice"},{"id":"542298","latitude":"49.68333330","longitude":"14.08333330","name":"Byt\u00edz"},{"id":"542307","latitude":"49.90000000","longitude":"13.86666670","name":"Bzov\u00e1"},{"id":"542323","latitude":"49.83333330","longitude":"14.83333330","name":"Cakov"},{"id":"542327","latitude":"49.86666670","longitude":"14.60000000","name":"Cakovice"},{"id":"542336","latitude":"50.21666670","longitude":"13.98333330","name":"Canovice"},{"id":"542356","latitude":"50.01666670","longitude":"13.88333330","name":"Castonice"},{"id":"542360","latitude":"49.65000000","longitude":"14.91666670","name":"Castrovice"},{"id":"542368","latitude":"50.30000000","longitude":"14.61666670","name":"Cecelice"},{"id":"542382","latitude":"49.61666670","longitude":"14.75000000","name":"Ceckov"},{"id":"542391","latitude":"50.41666670","longitude":"14.86666670","name":"Cejetice"},{"id":"542392","latitude":"50.40000000","longitude":"14.90000000","name":"Cejeticky"},{"id":"542420","latitude":"50.16666670","longitude":"13.95000000","name":"Celechovice"},{"id":"542422","latitude":"49.73333330","longitude":"14.33333330","name":"Celina"},{"id":"542425","latitude":"49.70000000","longitude":"14.80000000","name":"Celivo"},{"id":"542437","latitude":"49.78333330","longitude":"14.00000000","name":"Cenkov"},{"id":"542440","latitude":"49.80000000","longitude":"14.80000000","name":"Cenovice"},{"id":"542452","latitude":"49.85000000","longitude":"14.71666670","name":"Cercan"},{"id":"542453","latitude":"49.85000000","longitude":"14.71666670","name":"Cercany"},{"id":"542465","latitude":"49.85000000","longitude":"13.83333330","name":"Cerhovice"},{"id":"542466","latitude":"49.85000000","longitude":"13.83333330","name":"Cerhowitz"},{"id":"542498","latitude":"50.13333330","longitude":"13.43333330","name":"Cerncice"},{"id":"542518","latitude":"49.78333330","longitude":"14.56666670","name":"Cernikovice"},{"id":"542524","latitude":"49.93333330","longitude":"13.98333330","name":"Cernin"},{"id":"542525","latitude":"49.85000000","longitude":"15.21666670","name":"Cerniny"},{"id":"542530","latitude":"49.91666670","longitude":"14.30000000","name":"Cernolice"},{"id":"542536","latitude":"50.36666670","longitude":"14.31666670","name":"Cernoucek"},{"id":"542550","latitude":"50.30000000","longitude":"14.20000000","name":"Cernuc"},{"id":"542551","latitude":"50.30000000","longitude":"14.20000000","name":"Cernutz"},{"id":"542567","latitude":"49.98333330","longitude":"15.23333330","name":"Certovka"},{"id":"542575","latitude":"50.26666670","longitude":"14.40000000","name":"Cervena Lhota"},{"id":"542581","latitude":"49.83333330","longitude":"15.25000000","name":"Cervene Janovice"},{"id":"542582","latitude":"49.98333330","longitude":"15.21666670","name":"Cervene Pecky"},{"id":"542590","latitude":"49.66666670","longitude":"14.45000000","name":"Cerveny Hradek"},{"id":"542594","latitude":"49.98333330","longitude":"15.21666670","name":"Cerveny Pecky"},{"id":"542598","latitude":"50.06666670","longitude":"14.16666670","name":"Cerveny Ujezd"},{"id":"542674","latitude":"49.66666670","longitude":"14.76666670","name":"Cestin"},{"id":"542686","latitude":"49.60000000","longitude":"14.11666670","name":"Cetyne"},{"id":"542700","latitude":"49.78333330","longitude":"13.86666670","name":"Chaloupky"},{"id":"542707","latitude":"49.81666670","longitude":"14.58333330","name":"Charovice"},{"id":"542708","latitude":"49.81666670","longitude":"14.58333330","name":"Charschowitz"},{"id":"542716","latitude":"50.48333330","longitude":"14.43333330","name":"Chcebuz"},{"id":"542720","latitude":"49.88333330","longitude":"15.33333330","name":"Chedrb\u00ed"},{"id":"542729","latitude":"49.83333330","longitude":"14.56666670","name":"Chleb"},{"id":"542734","latitude":"49.83333330","longitude":"14.56666670","name":"Chleby"},{"id":"542741","latitude":"49.80000000","longitude":"14.65000000","name":"Chl\u00edstov"},{"id":"542743","latitude":"49.88333330","longitude":"15.20000000","name":"Chl\u00edstovice"},{"id":"542744","latitude":"49.80000000","longitude":"14.65000000","name":"Chlistow"},{"id":"542753","latitude":"50.36666670","longitude":"14.51666670","name":"Chloumek"},{"id":"542770","latitude":"49.70000000","longitude":"14.40000000","name":"Chlum"},{"id":"542786","latitude":"50.28333330","longitude":"14.45000000","name":"Chlum\u00edn"},{"id":"542793","latitude":"49.88333330","longitude":"13.91666670","name":"Chlustina"},{"id":"542800","latitude":"49.65000000","longitude":"14.98333330","name":"Chmeln\u00e1"},{"id":"542804","latitude":"49.68333330","longitude":"14.81666670","name":"Chobot"},{"id":"542811","latitude":"49.88333330","longitude":"14.80000000","name":"Chocerady"},{"id":"542821","latitude":"50.41666670","longitude":"14.53333330","name":"Chodec"},{"id":"542823","latitude":"49.90000000","longitude":"13.98333330","name":"Chodoun"},{"id":"542838","latitude":"49.71666670","longitude":"14.33333330","name":"Chol\u00edn"},{"id":"542855","latitude":"49.83333330","longitude":"14.86666670","name":"Choratice"},{"id":"542859","latitude":"50.40000000","longitude":"14.66666670","name":"Chorousky"},{"id":"542860","latitude":"50.40000000","longitude":"14.66666670","name":"Chorusice"},{"id":"542885","latitude":"50.11666670","longitude":"13.48333330","name":"Chotesov"},{"id":"542888","latitude":"49.61666670","longitude":"14.53333330","name":"Chotetice"},{"id":"542890","latitude":"50.33333330","longitude":"14.80000000","name":"Chotetov"},{"id":"542894","latitude":"49.76666670","longitude":"14.35000000","name":"Chotilsko"},{"id":"542912","latitude":"49.75000000","longitude":"14.81666670","name":"Chotycany"},{"id":"542914","latitude":"49.75000000","longitude":"14.81666670","name":"Chotysany"},{"id":"542920","latitude":"49.83333330","longitude":"14.23333330","name":"Chouzav\u00e1"},{"id":"542925","latitude":"49.76666670","longitude":"14.28333330","name":"Chramiste"},{"id":"542926","latitude":"49.66666670","longitude":"14.33333330","name":"Chramosty"},{"id":"542930","latitude":"49.85000000","longitude":"14.58333330","name":"Chrast an der Sasau"},{"id":"542934","latitude":"49.80000000","longitude":"14.58333330","name":"Chrastany"},{"id":"542945","latitude":"49.53333330","longitude":"14.20000000","name":"Chr\u00e1st"},{"id":"542947","latitude":"49.80000000","longitude":"14.58333330","name":"Chrastian"},{"id":"542950","latitude":"49.58333330","longitude":"14.08333330","name":"Chrastice"},{"id":"542951","latitude":"49.56666670","longitude":"14.08333330","name":"Chrasticky"},{"id":"542957","latitude":"49.85000000","longitude":"14.58333330","name":"Chr\u00e1st nad S\u00e1zavou"},{"id":"542969","latitude":"49.96666670","longitude":"13.65000000","name":"Chric"},{"id":"542987","latitude":"49.86666670","longitude":"15.18333330","name":"Chroustkov"},{"id":"542997","latitude":"50.00000000","longitude":"14.15000000","name":"Chrustenice"},{"id":"542998","latitude":"50.00000000","longitude":"14.15000000","name":"Chrustenitz"},{"id":"542999","latitude":"50.30000000","longitude":"14.26666670","name":"Chrzin"},{"id":"543020","latitude":"50.46666670","longitude":"14.46666670","name":"Chudolas"},{"id":"543021","latitude":"50.46666670","longitude":"14.46666670","name":"Chudolazy"},{"id":"543023","latitude":"50.45000000","longitude":"14.93333330","name":"Chudoplesy"},{"id":"543056","latitude":"50.16666670","longitude":"15.06666670","name":"Chvalovice"},{"id":"543062","latitude":"49.76666670","longitude":"14.63333330","name":"Chvojen"},{"id":"543065","latitude":"49.76666670","longitude":"14.56666670","name":"Chvoj\u00ednek"},{"id":"543069","latitude":"49.76666670","longitude":"14.63333330","name":"Chwojen"},{"id":"543076","latitude":"50.01666670","longitude":"14.08333330","name":"Chynava"},{"id":"543077","latitude":"50.01666670","longitude":"14.08333330","name":"Chynawa"},{"id":"543106","latitude":"50.23333330","longitude":"14.78333330","name":"Cihadla"},{"id":"543114","latitude":"50.50000000","longitude":"14.93333330","name":"Cihatka"},{"id":"543125","latitude":"50.21666670","longitude":"14.98333330","name":"Cilec"},{"id":"543126","latitude":"49.78333330","longitude":"14.38333330","name":"Cim"},{"id":"543146","latitude":"49.95000000","longitude":"15.33333330","name":"C\u00edrkvice"},{"id":"543153","latitude":"49.86666670","longitude":"14.31666670","name":"Cisovice"},{"id":"543158","latitude":"50.03333330","longitude":"13.58333330","name":"Cista"},{"id":"543160","latitude":"49.85000000","longitude":"14.75000000","name":"Cistec"},{"id":"543162","latitude":"49.60000000","longitude":"14.58333330","name":"Cistovice"},{"id":"543168","latitude":"50.36666670","longitude":"14.40000000","name":"C\u00edtov"},{"id":"543196","latitude":"49.73333330","longitude":"14.90000000","name":"Ctibor"},{"id":"543198","latitude":"50.38333330","longitude":"15.00000000","name":"Ctimerice"},{"id":"543199","latitude":"50.38333330","longitude":"14.31666670","name":"Ctineves"},{"id":"543206","latitude":"49.86666670","longitude":"14.71666670","name":"Ctyrkoly"},{"id":"543218","latitude":"50.18333330","longitude":"14.15000000","name":"Cvrcovice"},{"id":"543233","latitude":"49.73333330","longitude":"14.18333330","name":"Daleke Dusniky"},{"id":"543235","latitude":"49.78333330","longitude":"14.48333330","name":"Daleschitz"},{"id":"543238","latitude":"49.78333330","longitude":"14.48333330","name":"Dalesice"},{"id":"543245","latitude":"50.43333330","longitude":"14.88333330","name":"Dalovice"},{"id":"543246","latitude":"49.80000000","longitude":"14.85000000","name":"Dalovy"},{"id":"543254","latitude":"49.58333330","longitude":"14.88333330","name":"Damenice"},{"id":"543258","latitude":"50.36666670","longitude":"14.38333330","name":"Damineves"},{"id":"543295","latitude":"50.45000000","longitude":"14.88333330","name":"Debr"},{"id":"543305","latitude":"50.31666670","longitude":"14.36666670","name":"Dedibaby"},{"id":"543314","latitude":"49.61666670","longitude":"14.55000000","name":"Dedkov"},{"id":"543331","latitude":"50.16666670","longitude":"13.55000000","name":"Dekov"},{"id":"543338","latitude":"50.13333330","longitude":"13.56666670","name":"Dereisen"},{"id":"543458","latitude":"49.78333330","longitude":"14.88333330","name":"Divisov"},{"id":"543460","latitude":"49.60000000","longitude":"14.53333330","name":"Divisovice"},{"id":"543462","latitude":"49.78333330","longitude":"14.88333330","name":"Diwischau"},{"id":"543474","latitude":"49.71666670","longitude":"14.11666670","name":"Dlouh\u00e1 Lhota"},{"id":"543494","latitude":"49.78333330","longitude":"14.73333330","name":"Dlouh\u00e9 Pole"},{"id":"543513","latitude":"49.86666670","longitude":"14.66666670","name":"Dnespek"},{"id":"543546","latitude":"49.55000000","longitude":"14.00000000","name":"Dobr\u00e1 Voda"},{"id":"543559","latitude":"50.48333330","longitude":"14.55000000","name":"Dobren"},{"id":"543569","latitude":"49.93333330","longitude":"14.28333330","name":"Dobrichovice"},{"id":"543571","latitude":"49.93333330","longitude":"14.28333330","name":"Dobrichowitz"},{"id":"543572","latitude":"49.75000000","longitude":"14.76666670","name":"Dobrickov"},{"id":"543576","latitude":"49.63333330","longitude":"14.96666670","name":"Dobrikovice"},{"id":"543579","latitude":"49.76666670","longitude":"14.18333330","name":"Dobris"},{"id":"543581","latitude":"49.75000000","longitude":"14.76666670","name":"Dobritschkau"},{"id":"543612","latitude":"49.60000000","longitude":"14.50000000","name":"Dobrosovice"},{"id":"543618","latitude":"50.36666670","longitude":"14.95000000","name":"Dobrovice"},{"id":"543621","latitude":"50.11666670","longitude":"14.21666670","name":"Dobrov\u00edz"},{"id":"543623","latitude":"50.36666670","longitude":"14.95000000","name":"Dobrowitz"},{"id":"543643","latitude":"49.63333330","longitude":"14.46666670","name":"Dohnalova Lhota"},{"id":"543648","latitude":"50.11666670","longitude":"14.05000000","name":"Doksy"},{"id":"543655","latitude":"50.40000000","longitude":"15.00000000","name":"Dol\u00e1nky"},{"id":"543664","latitude":"49.95000000","longitude":"13.65000000","name":"Dolany"},{"id":"543675","latitude":"50.25000000","longitude":"14.11666670","name":"Dol\u00edn"},{"id":"543691","latitude":"50.40000000","longitude":"14.45000000","name":"Dolni Berkovice"},{"id":"543692","latitude":"50.08333330","longitude":"14.03333330","name":"Dolni Bezdekov"},{"id":"543708","latitude":"49.90000000","longitude":"14.55000000","name":"Dolni Brezky"},{"id":"543724","latitude":"50.40000000","longitude":"14.80000000","name":"Doln\u00ed Cetno"},{"id":"543772","latitude":"50.35000000","longitude":"14.61666670","name":"Doln\u00ed Harbasko"},{"id":"543773","latitude":"49.66666670","longitude":"14.18333330","name":"Doln\u00ed Hbity"},{"id":"543803","latitude":"50.30000000","longitude":"14.25000000","name":"Doln\u00ed Kamenice"},{"id":"543813","latitude":"50.53333330","longitude":"14.86666670","name":"Doln\u00ed Krup\u00e1"},{"id":"543819","latitude":"49.65000000","longitude":"13.91666670","name":"Doln\u00ed L\u00e1z"},{"id":"543842","latitude":"49.61666670","longitude":"14.20000000","name":"Dolni Lisnice"},{"id":"543849","latitude":"49.91666670","longitude":"14.68333330","name":"Doln\u00ed Lomnice"},{"id":"543909","latitude":"50.28333330","longitude":"14.56666670","name":"Dolni Privory"},{"id":"543913","latitude":"50.05000000","longitude":"14.16666670","name":"Doln\u00ed Ptice"},{"id":"543950","latitude":"50.31666670","longitude":"14.73333330","name":"Doln\u00ed Slivno"},{"id":"543959","latitude":"50.43333330","longitude":"14.96666670","name":"Doln\u00ed Stakory"},{"id":"543985","latitude":"49.65000000","longitude":"14.23333330","name":"Dolni Trti"},{"id":"543998","latitude":"50.46666670","longitude":"14.53333330","name":"Doln\u00ed Vidim"},{"id":"544005","latitude":"49.91666670","longitude":"14.15000000","name":"Doln\u00ed Vlence"},{"id":"544017","latitude":"50.43333330","longitude":"14.50000000","name":"Dolni Zimor"},{"id":"544040","latitude":"49.71666670","longitude":"14.88333330","name":"Domaschin"},{"id":"544046","latitude":"49.71666670","longitude":"14.88333330","name":"Domasin"},{"id":"544062","latitude":"49.75000000","longitude":"14.00000000","name":"Dominik\u00e1ln\u00ed Paseky"},{"id":"544110","latitude":"50.16666670","longitude":"14.96666670","name":"Doubrava"},{"id":"544123","latitude":"49.63333330","longitude":"14.41666670","name":"Doubravice"},{"id":"544127","latitude":"50.40000000","longitude":"14.76666670","name":"Doubravicka"},{"id":"544145","latitude":"49.71666670","longitude":"14.61666670","name":"Drachkov"},{"id":"544152","latitude":"50.03333330","longitude":"14.20000000","name":"Drahelcice"},{"id":"544153","latitude":"50.18333330","longitude":"15.01666670","name":"Drahelice"},{"id":"544154","latitude":"49.51666670","longitude":"13.96666670","name":"Drahenice"},{"id":"544155","latitude":"49.51666670","longitude":"13.98333330","name":"Drahenicky"},{"id":"544158","latitude":"49.73333330","longitude":"13.96666670","name":"Drahl\u00edn"},{"id":"544161","latitude":"49.86666670","longitude":"14.15000000","name":"Drahlovice"},{"id":"544163","latitude":"49.81666670","longitude":"14.90000000","name":"Drahnovice"},{"id":"544166","latitude":"50.21666670","longitude":"15.08333330","name":"Draho"},{"id":"544182","latitude":"50.08333330","longitude":"13.48333330","name":"Drahous"},{"id":"544186","latitude":"50.30000000","longitude":"14.85000000","name":"Draschitz"},{"id":"544188","latitude":"49.70000000","longitude":"14.11666670","name":"Dr\u00e1sov"},{"id":"544196","latitude":"49.75000000","longitude":"14.30000000","name":"Drazetice"},{"id":"544199","latitude":"50.30000000","longitude":"14.85000000","name":"Drazice"},{"id":"544200","latitude":"50.30000000","longitude":"14.85000000","name":"Drazice nad Jizerou"},{"id":"544211","latitude":"50.26666670","longitude":"14.08333330","name":"Drchkov"},{"id":"544229","latitude":"50.18333330","longitude":"14.21666670","name":"Dretovice"},{"id":"544233","latitude":"49.96666670","longitude":"13.55000000","name":"Drevec"},{"id":"544238","latitude":"49.71666670","longitude":"14.28333330","name":"Drevn\u00edky"},{"id":"544244","latitude":"49.73333330","longitude":"14.23333330","name":"Drhovce"},{"id":"544247","latitude":"49.73333330","longitude":"14.23333330","name":"Drhovy"},{"id":"544249","latitude":"50.28333330","longitude":"14.06666670","name":"Drinov"},{"id":"544254","latitude":"50.25000000","longitude":"14.65000000","name":"Drisy"},{"id":"544260","latitude":"50.20000000","longitude":"13.98333330","name":"Drnek"},{"id":"544265","latitude":"50.23333330","longitude":"14.15000000","name":"Drnov"},{"id":"544282","latitude":"49.86666670","longitude":"13.83333330","name":"Drozdov"},{"id":"544287","latitude":"49.63333330","longitude":"14.10000000","name":"Drsn\u00edk"},{"id":"544292","latitude":"49.73333330","longitude":"14.16666670","name":"Druhlice"},{"id":"544296","latitude":"50.10000000","longitude":"14.05000000","name":"Druzec"},{"id":"544319","latitude":"49.68333330","longitude":"14.86666670","name":"Dub"},{"id":"544326","latitude":"49.70000000","longitude":"14.08333330","name":"Dubenec"},{"id":"544335","latitude":"50.16666670","longitude":"14.15000000","name":"Dub\u00ed"},{"id":"544342","latitude":"49.88333330","longitude":"14.65000000","name":"Dubiny"},{"id":"544345","latitude":"49.66666670","longitude":"14.36666670","name":"Dublovice"},{"id":"544352","latitude":"49.70000000","longitude":"14.05000000","name":"Dubno"},{"id":"544359","latitude":"49.76666670","longitude":"14.55000000","name":"Dubovka"},{"id":"544360","latitude":"49.76666670","longitude":"14.55000000","name":"Dubowka"},{"id":"544363","latitude":"49.86666670","longitude":"14.73333330","name":"Dubsko"},{"id":"544364","latitude":"50.48333330","longitude":"14.58333330","name":"Dubus"},{"id":"544366","latitude":"50.21666670","longitude":"13.83333330","name":"Ducice"},{"id":"544376","latitude":"49.81666670","longitude":"14.55000000","name":"Dun\u00e1vice"},{"id":"544377","latitude":"49.81666670","longitude":"14.55000000","name":"Dunawitz"},{"id":"544383","latitude":"49.61666670","longitude":"14.58333330","name":"Durdice"},{"id":"544393","latitude":"50.03333330","longitude":"14.23333330","name":"Duschnik"},{"id":"544396","latitude":"50.03333330","longitude":"14.23333330","name":"Dusniky"},{"id":"544398","latitude":"50.31666670","longitude":"14.33333330","name":"Dusniky nad Vltavou"},{"id":"544408","latitude":"50.20000000","longitude":"14.80000000","name":"Dvorce"},{"id":"544435","latitude":"50.21666670","longitude":"15.00000000","name":"Dvory"},{"id":"544440","latitude":"49.65000000","longitude":"14.91666670","name":"Dvur Castrovice"},{"id":"544444","latitude":"50.06666670","longitude":"13.83333330","name":"Dvur Emilov"},{"id":"544477","latitude":"50.10000000","longitude":"13.96666670","name":"Dvur Ploskov"},{"id":"544478","latitude":"50.06666670","longitude":"13.90000000","name":"Dvur Pozary"},{"id":"544485","latitude":"49.68333330","longitude":"14.91666670","name":"Dvur Skalkov"},{"id":"544493","latitude":"50.41666670","longitude":"14.70000000","name":"Dvur Zebice"},{"id":"544577","latitude":"49.86666670","longitude":"14.71666670","name":"Elschtien"},{"id":"544581","latitude":"50.06666670","longitude":"13.83333330","name":"Emilov"},{"id":"544629","latitude":"49.81666670","longitude":"13.95000000","name":"Felbabka"},{"id":"544789","latitude":"50.48333330","longitude":"14.45000000","name":"Fr\u00f6hlichsdorf"},{"id":"544856","latitude":"49.98333330","longitude":"15.26666670","name":"Gang"},{"id":"544895","latitude":"50.10000000","longitude":"13.43333330","name":"Gerten"},{"id":"544902","latitude":"50.41666670","longitude":"14.45000000","name":"Geweihtenbrunn"},{"id":"545027","latitude":"50.03333330","longitude":"13.71666670","name":"Gross Aujezd"},{"id":"545035","latitude":"50.50000000","longitude":"14.60000000","name":"Gross Blatzen"},{"id":"545041","latitude":"50.41666670","longitude":"14.86666670","name":"Gross Cejtitz"},{"id":"545044","latitude":"49.58333330","longitude":"14.08333330","name":"Gross Chrastitz"},{"id":"545071","latitude":"50.08333330","longitude":"14.21666670","name":"Gross Jentsch"},{"id":"545078","latitude":"50.18333330","longitude":"14.96666670","name":"Gross-Kostomlat"},{"id":"545105","latitude":"49.93333330","longitude":"14.65000000","name":"Grosspopowitz"},{"id":"545111","latitude":"49.81666670","longitude":"14.71666670","name":"Gross-Schinian"},{"id":"545118","latitude":"49.66666670","longitude":"14.66666670","name":"Gross Semtin"},{"id":"545131","latitude":"49.86666670","longitude":"14.60000000","name":"Gross-Tschakowitz"},{"id":"545132","latitude":"50.20000000","longitude":"13.58333330","name":"Gross-Tschernitz"},{"id":"545176","latitude":"49.96666670","longitude":"15.25000000","name":"Grunta"},{"id":"545227","latitude":"50.51666670","longitude":"14.93333330","name":"Habr"},{"id":"545232","latitude":"49.85000000","longitude":"15.28333330","name":"Habrina"},{"id":"545277","latitude":"49.66666670","longitude":"14.05000000","name":"H\u00e1je"},{"id":"545285","latitude":"50.06666670","longitude":"14.18333330","name":"H\u00e1jek"},{"id":"545314","latitude":"49.88333330","longitude":"14.20000000","name":"Halouny"},{"id":"545336","latitude":"49.76666670","longitude":"14.23333330","name":"Hamry"},{"id":"545405","latitude":"49.86666670","longitude":"14.16666670","name":"Hate"},{"id":"545419","latitude":"49.66666670","longitude":"13.96666670","name":"Hav\u00edrna"},{"id":"545437","latitude":"49.98333330","longitude":"13.56666670","name":"Hedcany"},{"id":"545450","latitude":"49.68333330","longitude":"14.01666670","name":"Heiliger Berg"},{"id":"545524","latitude":"49.60000000","longitude":"14.58333330","name":"Hermanicky"},{"id":"545542","latitude":"50.15000000","longitude":"13.56666670","name":"Hermanov"},{"id":"545562","latitude":"50.15000000","longitude":"13.63333330","name":"Herrndorf"},{"id":"545590","latitude":"50.23333330","longitude":"14.78333330","name":"Hieronimberg"},{"id":"545601","latitude":"50.16666670","longitude":"14.13333330","name":"Hindous"},{"id":"545613","latitude":"49.91666670","longitude":"14.21666670","name":"Hinter Trebau"},{"id":"545639","latitude":"49.91666670","longitude":"14.20000000","name":"Hlasna Treban"},{"id":"545647","latitude":"50.23333330","longitude":"14.70000000","name":"Hlavenec"},{"id":"545656","latitude":"50.28333330","longitude":"14.30000000","name":"Hledsebe"},{"id":"545660","latitude":"50.21666670","longitude":"13.96666670","name":"Hl\u00edna"},{"id":"545662","latitude":"49.95000000","longitude":"13.61666670","name":"Hlince"},{"id":"545678","latitude":"50.51666670","longitude":"14.75000000","name":"Hlinoviste"},{"id":"545685","latitude":"49.68333330","longitude":"14.71666670","name":"Hliv\u00edn"},{"id":"545686","latitude":"49.98333330","longitude":"15.30000000","name":"Hl\u00edzov"},{"id":"545692","latitude":"49.61666670","longitude":"14.78333330","name":"Hlohov"},{"id":"545713","latitude":"50.00000000","longitude":"15.21666670","name":"Hluboky Dul"},{"id":"545716","latitude":"49.75000000","longitude":"14.01666670","name":"Hlubosch"},{"id":"545717","latitude":"49.75000000","longitude":"14.01666670","name":"Hlubos"},{"id":"545718","latitude":"49.55000000","longitude":"13.93333330","name":"Hlubyne"},{"id":"545738","latitude":"50.45000000","longitude":"14.36666670","name":"Hnevice"},{"id":"545747","latitude":"49.75000000","longitude":"14.38333330","name":"Hnevsin"},{"id":"545748","latitude":"50.45000000","longitude":"14.36666670","name":"Hnewitz"},{"id":"545749","latitude":"50.16666670","longitude":"14.13333330","name":"Hnidousy"},{"id":"545751","latitude":"49.75000000","longitude":"14.38333330","name":"Hniewschin"},{"id":"545758","latitude":"50.26666670","longitude":"14.16666670","name":"Hobsovice"},{"id":"545759","latitude":"49.81666670","longitude":"14.48333330","name":"Hoch-Aujest"},{"id":"545762","latitude":"49.61666670","longitude":"14.38333330","name":"Hoch Chlumetz"},{"id":"545768","latitude":"50.03333330","longitude":"13.45000000","name":"Hochlibin"},{"id":"545783","latitude":"49.61666670","longitude":"13.88333330","name":"Hodemysl"},{"id":"545786","latitude":"49.70000000","longitude":"14.51666670","name":"Hodetice"},{"id":"545819","latitude":"49.88333330","longitude":"14.18333330","name":"Hodyne"},{"id":"545861","latitude":"49.65000000","longitude":"14.26666670","name":"Hojsin"},{"id":"545863","latitude":"50.15000000","longitude":"13.56666670","name":"Hokov"},{"id":"545870","latitude":"49.70000000","longitude":"14.78333330","name":"Holcovice"},{"id":"545874","latitude":"50.18333330","longitude":"14.26666670","name":"Hole"},{"id":"545884","latitude":"50.40000000","longitude":"14.98333330","name":"Hol\u00e9 Vrchy"},{"id":"545910","latitude":"50.20000000","longitude":"14.16666670","name":"Holousy"},{"id":"545913","latitude":"49.96666670","longitude":"13.61666670","name":"Holovousy"},{"id":"545916","latitude":"49.75000000","longitude":"14.10000000","name":"Holsiny"},{"id":"545928","latitude":"49.56666670","longitude":"14.11666670","name":"Holusice"},{"id":"545929","latitude":"49.68333330","longitude":"14.01666670","name":"Holy Mountain"},{"id":"545939","latitude":"49.73333330","longitude":"14.26666670","name":"Homole"},{"id":"545948","latitude":"50.15000000","longitude":"13.95000000","name":"Honice"},{"id":"545963","latitude":"49.96666670","longitude":"15.23333330","name":"Horany"},{"id":"545968","latitude":"50.15000000","longitude":"15.05000000","name":"Horatev"},{"id":"545974","latitude":"49.58333330","longitude":"13.98333330","name":"Horcapsko"},{"id":"545976","latitude":"49.58333330","longitude":"14.01666670","name":"Horejany"},{"id":"545982","latitude":"50.03333330","longitude":"14.21666670","name":"Horelice"},{"id":"545983","latitude":"50.03333330","longitude":"14.21666670","name":"Horelitz"},{"id":"545992","latitude":"50.16666670","longitude":"13.61666670","name":"Horesedly"},{"id":"545996","latitude":"49.70000000","longitude":"14.51666670","name":"Horetice"},{"id":"546008","latitude":"50.35000000","longitude":"14.46666670","name":"Horin"},{"id":"546016","latitude":"50.33333330","longitude":"14.85000000","name":"Horka"},{"id":"546026","latitude":"50.33333330","longitude":"14.85000000","name":"Horky nad Jizerou"},{"id":"546027","latitude":"50.25000000","longitude":"14.48333330","name":"Hornatky"},{"id":"546036","latitude":"50.35000000","longitude":"14.35000000","name":"Horni Berkovice"},{"id":"546037","latitude":"50.08333330","longitude":"14.08333330","name":"Horni Bezdekov"},{"id":"546070","latitude":"50.40000000","longitude":"14.80000000","name":"Horn\u00ed Cetno"},{"id":"546110","latitude":"50.33333330","longitude":"14.61666670","name":"Horn\u00ed Harbasko"},{"id":"546111","latitude":"49.65000000","longitude":"14.16666670","name":"Horn\u00ed Hbity"},{"id":"546152","latitude":"50.38333330","longitude":"14.85000000","name":"Horn\u00ed Krnsko"},{"id":"546161","latitude":"49.65000000","longitude":"13.91666670","name":"Horn\u00ed L\u00e1z"},{"id":"546183","latitude":"49.63333330","longitude":"14.16666670","name":"Horni Lisnice"},{"id":"546192","latitude":"49.91666670","longitude":"14.68333330","name":"Horn\u00ed Lomnice"},{"id":"546209","latitude":"49.83333330","longitude":"14.68333330","name":"Horni Mrac"},{"id":"546241","latitude":"50.41666670","longitude":"14.38333330","name":"Horni Pocaply"},{"id":"546244","latitude":"50.05000000","longitude":"14.11666670","name":"Horn\u00ed Podkoz\u00ed"},{"id":"546258","latitude":"50.28333330","longitude":"14.58333330","name":"Horni Privory"},{"id":"546262","latitude":"50.05000000","longitude":"14.16666670","name":"Horn\u00ed Ptice"},{"id":"546298","latitude":"50.30000000","longitude":"14.70000000","name":"Horn\u00ed Slivno"},{"id":"546307","latitude":"50.45000000","longitude":"14.96666670","name":"Horn\u00ed Stakory"},{"id":"546338","latitude":"49.65000000","longitude":"14.21666670","name":"Horni Trti"},{"id":"546357","latitude":"50.46666670","longitude":"14.53333330","name":"Horn\u00ed Vidim"},{"id":"546363","latitude":"49.91666670","longitude":"14.15000000","name":"Horn\u00ed Vlence"},{"id":"546376","latitude":"50.43333330","longitude":"14.50000000","name":"Horni Zimor"},{"id":"546386","latitude":"50.16666670","longitude":"13.61666670","name":"Horosedl"},{"id":"546388","latitude":"49.51666670","longitude":"14.05000000","name":"Horosedly"},{"id":"546393","latitude":"49.83333330","longitude":"13.91666670","name":"Horovice"},{"id":"546394","latitude":"50.15000000","longitude":"13.53333330","name":"Horovicky"},{"id":"546395","latitude":"49.83333330","longitude":"13.91666670","name":"Horowitz"},{"id":"546396","latitude":"49.83333330","longitude":"13.91666670","name":"Horschowitz"},{"id":"546420","latitude":"50.30000000","longitude":"14.18333330","name":"Hospoz\u00edn"},{"id":"546443","latitude":"49.86666670","longitude":"14.50000000","name":"Hosteradice"},{"id":"546460","latitude":"49.86666670","longitude":"14.50000000","name":"Hostieraditz"},{"id":"546463","latitude":"49.96666670","longitude":"14.13333330","name":"Hostim"},{"id":"546465","latitude":"50.30000000","longitude":"14.40000000","name":"Host\u00edn"},{"id":"546471","latitude":"49.61666670","longitude":"14.66666670","name":"Hostisov"},{"id":"546480","latitude":"50.08333330","longitude":"13.66666670","name":"Hostokryje"},{"id":"546481","latitude":"49.83333330","longitude":"14.05000000","name":"Hostomice"},{"id":"546483","latitude":"49.83333330","longitude":"14.05000000","name":"Hostomitz"},{"id":"546486","latitude":"50.11666670","longitude":"14.20000000","name":"Hostoun"},{"id":"546491","latitude":"49.60000000","longitude":"14.30000000","name":"Hostovnice"},{"id":"546499","latitude":"50.48333330","longitude":"14.63333330","name":"Houska"},{"id":"546511","latitude":"49.85000000","longitude":"15.33333330","name":"Hrabesin"},{"id":"546530","latitude":"50.00000000","longitude":"13.76666670","name":"Hracholusky"},{"id":"546533","latitude":"49.66666670","longitude":"14.30000000","name":"Hrachov"},{"id":"546537","latitude":"50.53333330","longitude":"14.71666670","name":"Hrad Bezdez"},{"id":"546546","latitude":"49.51666670","longitude":"13.95000000","name":"Hradcany"},{"id":"546557","latitude":"50.01666670","longitude":"13.50000000","name":"Hradecko"},{"id":"546562","latitude":"50.18333330","longitude":"14.00000000","name":"Hradecno"},{"id":"546571","latitude":"49.73333330","longitude":"14.91666670","name":"Hr\u00e1dek"},{"id":"546581","latitude":"49.86666670","longitude":"14.41666670","name":"Hradischko"},{"id":"546582","latitude":"50.16666670","longitude":"14.93333330","name":"Hradiska"},{"id":"546584","latitude":"50.16666670","longitude":"14.93333330","name":"Hradisko"},{"id":"546592","latitude":"49.68333330","longitude":"14.85000000","name":"Hradiste"},{"id":"546600","latitude":"49.68333330","longitude":"14.46666670","name":"Hradistko"},{"id":"546609","latitude":"49.90000000","longitude":"14.81666670","name":"Hradove Strimelice"},{"id":"546611","latitude":"50.43333330","longitude":"14.58333330","name":"Hradsko"},{"id":"546614","latitude":"49.61666670","longitude":"14.85000000","name":"Hrajovice"},{"id":"546620","latitude":"49.75000000","longitude":"14.25000000","name":"Hranice"},{"id":"546632","latitude":"49.73333330","longitude":"14.40000000","name":"Hrazany"},{"id":"546633","latitude":"49.70000000","longitude":"14.85000000","name":"Hrazen\u00e1 Lhota"},{"id":"546643","latitude":"50.20000000","longitude":"14.08333330","name":"Hrdl\u00edv"},{"id":"546644","latitude":"50.45000000","longitude":"14.90000000","name":"Hrdlorez"},{"id":"546647","latitude":"50.45000000","longitude":"14.90000000","name":"Hrdlorezy"},{"id":"546654","latitude":"50.13333330","longitude":"14.16666670","name":"Hrebec"},{"id":"546656","latitude":"49.98333330","longitude":"13.75000000","name":"Hrebecniky"},{"id":"546658","latitude":"49.90000000","longitude":"13.91666670","name":"Hredle"},{"id":"546659","latitude":"50.18333330","longitude":"13.75000000","name":"Hredl"},{"id":"546663","latitude":"50.23333330","longitude":"13.93333330","name":"Hresice"},{"id":"546673","latitude":"49.70000000","longitude":"14.28333330","name":"Hrimezdice"},{"id":"546681","latitude":"50.31666670","longitude":"14.76666670","name":"Hrivno"},{"id":"546684","latitude":"49.58333330","longitude":"14.86666670","name":"Hrncire"},{"id":"546699","latitude":"50.20000000","longitude":"14.95000000","name":"Hronetice"},{"id":"546728","latitude":"49.91666670","longitude":"14.73333330","name":"Hrusice"},{"id":"546729","latitude":"49.91666670","longitude":"14.73333330","name":"Hrusitz"},{"id":"546741","latitude":"50.35000000","longitude":"14.85000000","name":"Hrusov"},{"id":"546750","latitude":"49.66666670","longitude":"14.78333330","name":"Hrz\u00edn"},{"id":"546756","latitude":"49.73333330","longitude":"14.30000000","name":"Hubenov"},{"id":"546762","latitude":"49.53333330","longitude":"13.93333330","name":"Hudcice"},{"id":"546766","latitude":"49.95000000","longitude":"13.98333330","name":"Hudlice"},{"id":"546767","latitude":"49.95000000","longitude":"13.98333330","name":"Hudlitz"},{"id":"546781","latitude":"49.80000000","longitude":"14.81666670","name":"Humenec"},{"id":"546782","latitude":"49.80000000","longitude":"14.81666670","name":"Humenetz"},{"id":"546785","latitude":"50.20000000","longitude":"14.11666670","name":"Humny"},{"id":"546804","latitude":"49.71666670","longitude":"14.51666670","name":"Hurka"},{"id":"546805","latitude":"49.73333330","longitude":"14.53333330","name":"Hurka Kapinos"},{"id":"546819","latitude":"50.43333330","longitude":"15.00000000","name":"Hus\u00ed Lhota"},{"id":"546837","latitude":"49.70000000","longitude":"13.98333330","name":"Hut"},{"id":"546850","latitude":"50.21666670","longitude":"13.98333330","name":"Hvezda"},{"id":"546851","latitude":"49.86666670","longitude":"14.78333330","name":"Hvezdonice"},{"id":"546861","latitude":"49.81666670","longitude":"13.88333330","name":"Hvozdec"},{"id":"546866","latitude":"50.05000000","longitude":"13.70000000","name":"Hvozd"},{"id":"546869","latitude":"49.86666670","longitude":"14.36666670","name":"Hvozdnice"},{"id":"546871","latitude":"49.86666670","longitude":"14.78333330","name":"Hwiesdonitz"},{"id":"546872","latitude":"49.85000000","longitude":"14.65000000","name":"Hwostetz"},{"id":"546883","latitude":"49.98333330","longitude":"14.05000000","name":"H\u00fdskov"},{"id":"546884","latitude":"49.98333330","longitude":"14.05000000","name":"Hyskow"},{"id":"546914","latitude":"49.68333330","longitude":"14.23333330","name":"Jablonce"},{"id":"546926","latitude":"49.66666670","longitude":"14.13333330","name":"Jablonn\u00e1"},{"id":"547011","latitude":"49.65000000","longitude":"14.73333330","name":"Jankov"},{"id":"547012","latitude":"49.66666670","longitude":"14.71666670","name":"Jankovsk\u00e1 Lhota"},{"id":"547019","latitude":"50.41666670","longitude":"14.55000000","name":"Janova Ves"},{"id":"547030","latitude":"49.66666670","longitude":"14.58333330","name":"Janovice"},{"id":"547042","latitude":"49.65000000","longitude":"14.45000000","name":"Janov"},{"id":"547048","latitude":"49.68333330","longitude":"14.60000000","name":"Janowitz"},{"id":"547064","latitude":"49.76666670","longitude":"14.65000000","name":"Jarkovice"},{"id":"547065","latitude":"49.76666670","longitude":"14.65000000","name":"Jarkowitz"},{"id":"547093","latitude":"49.95000000","longitude":"14.06666670","name":"Jarov"},{"id":"547132","latitude":"49.86666670","longitude":"14.71666670","name":"Javorn\u00edk"},{"id":"547134","latitude":"49.86666670","longitude":"14.71666670","name":"Javorniky"},{"id":"547139","latitude":"49.86666670","longitude":"14.71666670","name":"Jawornik"},{"id":"547142","latitude":"50.10000000","longitude":"13.48333330","name":"Jechnitz"},{"id":"547160","latitude":"50.23333330","longitude":"13.96666670","name":"Jedomelice"},{"id":"547178","latitude":"49.66666670","longitude":"14.16666670","name":"Jelence"},{"id":"547180","latitude":"50.33333330","longitude":"14.53333330","name":"Jelenice"},{"id":"547193","latitude":"50.20000000","longitude":"14.11666670","name":"Jemn\u00edky"},{"id":"547194","latitude":"49.75000000","longitude":"14.78333330","name":"Jemniste"},{"id":"547198","latitude":"50.08333330","longitude":"14.21666670","name":"Jenec"},{"id":"547201","latitude":"50.38333330","longitude":"14.58333330","name":"Jenichov"},{"id":"547213","latitude":"50.35000000","longitude":"14.40000000","name":"Jenisovice"},{"id":"547229","latitude":"49.66666670","longitude":"14.03333330","name":"Jerusalem"},{"id":"547236","latitude":"49.60000000","longitude":"14.48333330","name":"Jesenice"},{"id":"547241","latitude":"49.60000000","longitude":"14.48333330","name":"Jesenitz"},{"id":"547245","latitude":"49.78333330","longitude":"14.78333330","name":"Jesero"},{"id":"547248","latitude":"50.26666670","longitude":"14.20000000","name":"Jesin"},{"id":"547250","latitude":"50.43333330","longitude":"14.43333330","name":"Jesovice"},{"id":"547263","latitude":"50.46666670","longitude":"14.56666670","name":"Jestrebice"},{"id":"547283","latitude":"50.35000000","longitude":"14.33333330","name":"Jevineves"},{"id":"547298","latitude":"49.78333330","longitude":"14.78333330","name":"Jezero"},{"id":"547311","latitude":"49.63333330","longitude":"14.36666670","name":"Jezvina"},{"id":"547345","latitude":"49.78333330","longitude":"13.98333330","name":"Jince"},{"id":"547363","latitude":"49.78333330","longitude":"13.98333330","name":"Jinetz"},{"id":"547370","latitude":"49.70000000","longitude":"14.68333330","name":"Jinosice"},{"id":"547374","latitude":"49.60000000","longitude":"14.73333330","name":"Jiretice"},{"id":"547397","latitude":"49.68333330","longitude":"14.68333330","name":"Jirin"},{"id":"547403","latitude":"49.75000000","longitude":"14.66666670","name":"J\u00edrovice"},{"id":"547405","latitude":"49.75000000","longitude":"14.66666670","name":"Jirowitz"},{"id":"547432","latitude":"50.36666670","longitude":"14.85000000","name":"Jizern\u00ed Vtelno"},{"id":"547437","latitude":"49.98333330","longitude":"13.95000000","name":"Joachimstahl"},{"id":"547482","latitude":"49.76666670","longitude":"14.21666670","name":"Josefovo \u00dadol\u00ed"},{"id":"547495","latitude":"50.45000000","longitude":"14.90000000","name":"Josefuv Dul"},{"id":"547509","latitude":"50.41666670","longitude":"14.90000000","name":"Jungbunzlau"},{"id":"547516","latitude":"49.65000000","longitude":"14.73333330","name":"Junkau"},{"id":"547521","latitude":"49.88333330","longitude":"14.50000000","name":"Kabat"},{"id":"547522","latitude":"49.88333330","longitude":"14.50000000","name":"Kab\u00e1ty"},{"id":"547530","latitude":"50.16666670","longitude":"13.98333330","name":"Kacice"},{"id":"547531","latitude":"49.65000000","longitude":"14.13333330","name":"Kacin"},{"id":"547533","latitude":"49.81666670","longitude":"14.78333330","name":"K\u00e1cova Lhota"},{"id":"547536","latitude":"50.26666670","longitude":"14.78333330","name":"Kacov"},{"id":"547544","latitude":"50.40000000","longitude":"14.70000000","name":"Kadl\u00edn"},{"id":"547575","latitude":"49.96666670","longitude":"13.70000000","name":"Kalinova Ves"},{"id":"547576","latitude":"49.88333330","longitude":"14.78333330","name":"Kalischt"},{"id":"547581","latitude":"49.66666670","longitude":"14.68333330","name":"Kaliste"},{"id":"547582","latitude":"50.20000000","longitude":"13.83333330","name":"Kalivody"},{"id":"547600","latitude":"49.88333330","longitude":"14.48333330","name":"Kaltengrund"},{"id":"547604","latitude":"50.05000000","longitude":"13.81666670","name":"Kalubice"},{"id":"547609","latitude":"49.63333330","longitude":"14.25000000","name":"Kamaik"},{"id":"547610","latitude":"49.60000000","longitude":"14.83333330","name":"Kamberg"},{"id":"547611","latitude":"49.60000000","longitude":"14.83333330","name":"Kamberk"},{"id":"547626","latitude":"49.90000000","longitude":"14.58333330","name":"Kamenice"},{"id":"547642","latitude":"49.90000000","longitude":"14.58333330","name":"Kamenitz"},{"id":"547653","latitude":"49.60000000","longitude":"14.13333330","name":"Kamenn\u00e1"},{"id":"547658","latitude":"49.70000000","longitude":"14.76666670","name":"Kamenn\u00e1 Lhota"},{"id":"547664","latitude":"50.20000000","longitude":"15.00000000","name":"Kamenne Zbozi"},{"id":"547665","latitude":"50.13333330","longitude":"14.01666670","name":"Kamenne Zehrovice"},{"id":"547669","latitude":"50.23333330","longitude":"14.21666670","name":"Kamenn\u00fd Most"},{"id":"547670","latitude":"49.86666670","longitude":"14.50000000","name":"Kamenny Privoz"},{"id":"547671","latitude":"49.85000000","longitude":"14.51666670","name":"Kamenn\u00fd \u00dajezdec"},{"id":"547685","latitude":"49.63333330","longitude":"14.25000000","name":"Kam\u00fdk"},{"id":"547687","latitude":"49.63333330","longitude":"14.25000000","name":"Kam\u00fdk nad Vltavou"},{"id":"547693","latitude":"50.41666670","longitude":"14.60000000","name":"Kanina"},{"id":"547695","latitude":"50.45000000","longitude":"14.58333330","name":"Kaninsky Dul"},{"id":"547697","latitude":"49.98333330","longitude":"15.26666670","name":"Kank"},{"id":"547719","latitude":"49.73333330","longitude":"14.01666670","name":"Kardavec"},{"id":"547722","latitude":"49.63333330","longitude":"14.90000000","name":"Karhule"},{"id":"547726","latitude":"49.93333330","longitude":"14.26666670","name":"Karl\u00edk"},{"id":"547732","latitude":"50.03333330","longitude":"14.03333330","name":"Karlova Bouda"},{"id":"547733","latitude":"49.93333330","longitude":"14.03333330","name":"Karlova Hut"},{"id":"547735","latitude":"49.98333330","longitude":"13.86666670","name":"Karlova Ves"},{"id":"547756","latitude":"49.93333330","longitude":"15.16666670","name":"Karlov"},{"id":"547770","latitude":"49.93333330","longitude":"14.18333330","name":"Karlstein"},{"id":"547772","latitude":"49.93333330","longitude":"14.18333330","name":"Karlstejn"},{"id":"547845","latitude":"50.45000000","longitude":"14.78333330","name":"Katusice"},{"id":"547846","latitude":"50.45000000","longitude":"14.78333330","name":"Katusitz"},{"id":"547850","latitude":"50.21666670","longitude":"13.66666670","name":"Kaunowa"},{"id":"547886","latitude":"50.30000000","longitude":"14.51666670","name":"Kelske Vetrusice"},{"id":"547943","latitude":"50.15000000","longitude":"14.10000000","name":"Kladno"},{"id":"547954","latitude":"49.71666670","longitude":"14.95000000","name":"Kladruby"},{"id":"547990","latitude":"50.08333330","longitude":"13.56666670","name":"Klecetne"},{"id":"547997","latitude":"50.50000000","longitude":"14.58333330","name":"Klein Blatzen"},{"id":"548002","latitude":"50.48333330","longitude":"14.70000000","name":"Klein-B\u00f6sig"},{"id":"548007","latitude":"49.76666670","longitude":"14.56666670","name":"Klein-chwojen"},{"id":"548026","latitude":"50.41666670","longitude":"14.46666670","name":"Klein Hubina"},{"id":"548046","latitude":"50.18333330","longitude":"13.46666670","name":"Klein Otschehau"},{"id":"548054","latitude":"49.83333330","longitude":"14.71666670","name":"Klein-Schinian"},{"id":"548064","latitude":"50.30000000","longitude":"14.73333330","name":"Klein Sliwno"},{"id":"548074","latitude":"50.20000000","longitude":"13.55000000","name":"Klein-Tschernitz"},{"id":"548101","latitude":"49.58333330","longitude":"14.20000000","name":"Klenovice"},{"id":"548120","latitude":"49.58333330","longitude":"14.05000000","name":"Kletice"},{"id":"548132","latitude":"49.68333330","longitude":"14.51666670","name":"Klimetice"},{"id":"548134","latitude":"49.90000000","longitude":"14.33333330","name":"Kl\u00ednec"},{"id":"548136","latitude":"49.90000000","longitude":"14.33333330","name":"Klinetz"},{"id":"548165","latitude":"50.28333330","longitude":"14.45000000","name":"Klomin"},{"id":"548180","latitude":"49.55000000","longitude":"14.21666670","name":"Klucenice"},{"id":"548183","latitude":"50.46666670","longitude":"14.60000000","name":"Klucno"},{"id":"548191","latitude":"49.90000000","longitude":"15.31666670","name":"Kluky"},{"id":"548194","latitude":"50.31666670","longitude":"14.50000000","name":"Kly"},{"id":"548204","latitude":"50.15000000","longitude":"13.63333330","name":"Knezeves"},{"id":"548239","latitude":"49.91666670","longitude":"13.95000000","name":"Knizkovice"},{"id":"548243","latitude":"49.68333330","longitude":"14.40000000","name":"Knovice"},{"id":"548244","latitude":"49.68333330","longitude":"14.40000000","name":"Knovicky"},{"id":"548245","latitude":"50.21666670","longitude":"14.13333330","name":"Knov\u00edz"},{"id":"548268","latitude":"49.70000000","longitude":"14.71666670","name":"Kobyl\u00ed"},{"id":"548284","latitude":"49.88333330","longitude":"14.80000000","name":"Kocerad"},{"id":"548285","latitude":"50.28333330","longitude":"14.78333330","name":"Kochanek"},{"id":"548286","latitude":"50.28333330","longitude":"14.78333330","name":"Koch\u00e1nky"},{"id":"548290","latitude":"49.80000000","longitude":"14.78333330","name":"Koch\u00e1nov"},{"id":"548291","latitude":"49.80000000","longitude":"14.78333330","name":"Kochanow"},{"id":"548311","latitude":"49.86666670","longitude":"13.96666670","name":"Kocvary"},{"id":"548357","latitude":"49.63333330","longitude":"14.05000000","name":"Kojet\u00edn"},{"id":"548366","latitude":"50.30000000","longitude":"14.65000000","name":"Kojovice"},{"id":"548372","latitude":"50.43333330","longitude":"14.56666670","name":"Kokorin"},{"id":"548384","latitude":"50.20000000","longitude":"14.23333330","name":"Kolec"},{"id":"548385","latitude":"49.93333330","longitude":"14.08333330","name":"Koledn\u00edk"},{"id":"548390","latitude":"50.13333330","longitude":"13.61666670","name":"Kolesovice"},{"id":"548392","latitude":"50.16666670","longitude":"13.51666670","name":"Kolesov"},{"id":"548396","latitude":"50.02388890","longitude":"15.20444440","name":"Kol\u00edn"},{"id":"548400","latitude":"50.13333330","longitude":"13.61666670","name":"Kolleschowitz"},{"id":"548413","latitude":"50.40000000","longitude":"14.98333330","name":"Kolomuty"},{"id":"548437","latitude":"49.80000000","longitude":"13.86666670","name":"Kom\u00e1rov"},{"id":"548448","latitude":"49.86666670","longitude":"14.80000000","name":"Komorn\u00ed Hr\u00e1dek"},{"id":"548449","latitude":"49.86666670","longitude":"14.80000000","name":"Komorni"},{"id":"548464","latitude":"49.66666670","longitude":"14.88333330","name":"Kondrac"},{"id":"548467","latitude":"49.91666670","longitude":"14.06666670","name":"Koneprus"},{"id":"548468","latitude":"49.91666670","longitude":"14.06666670","name":"Koneprusy"},{"id":"548471","latitude":"49.65000000","longitude":"14.03333330","name":"Konetopy"},{"id":"548492","latitude":"49.93333330","longitude":"14.05000000","name":"K\u00f6nigshof"},{"id":"548505","latitude":"49.76666670","longitude":"14.66666670","name":"Konopischt"},{"id":"548507","latitude":"49.76666670","longitude":"14.66666670","name":"Konopiste"},{"id":"548510","latitude":"50.48333330","longitude":"14.60000000","name":"Konr\u00e1dov"},{"id":"548513","latitude":"50.48333330","longitude":"14.60000000","name":"Konradsthal"},{"id":"548528","latitude":"49.71666670","longitude":"14.71666670","name":"Kopaniny"},{"id":"548530","latitude":"50.25000000","longitude":"14.41666670","name":"Kopec"},{"id":"548555","latitude":"49.78333330","longitude":"14.35000000","name":"Korkin"},{"id":"548558","latitude":"49.78333330","longitude":"14.35000000","name":"Korkyne"},{"id":"548561","latitude":"50.20000000","longitude":"13.91666670","name":"Kornhaus"},{"id":"548564","latitude":"49.91666670","longitude":"14.13333330","name":"Korno"},{"id":"548568","latitude":"49.86666670","longitude":"15.26666670","name":"Korotice"},{"id":"548576","latitude":"50.25000000","longitude":"14.45000000","name":"Korycany"},{"id":"548582","latitude":"50.03333330","longitude":"13.43333330","name":"Koryta"},{"id":"548599","latitude":"49.90000000","longitude":"15.15000000","name":"Kosice"},{"id":"548612","latitude":"50.43333330","longitude":"14.93333330","name":"Kosmanos"},{"id":"548613","latitude":"49.83333330","longitude":"14.80000000","name":"Kosmitz"},{"id":"548614","latitude":"49.81666670","longitude":"14.78333330","name":"Kosmitz-Lhota"},{"id":"548616","latitude":"50.43333330","longitude":"14.93333330","name":"Kosmonosy"},{"id":"548619","latitude":"50.10000000","longitude":"13.51666670","name":"Kosobody"},{"id":"548620","latitude":"49.58333330","longitude":"14.23333330","name":"Kosobudy"},{"id":"548625","latitude":"49.65000000","longitude":"14.48333330","name":"Kosova Hora"},{"id":"548626","latitude":"49.65000000","longitude":"14.60000000","name":"Kosovice"},{"id":"548653","latitude":"50.45000000","longitude":"14.46666670","name":"Kostelec"},{"id":"548670","latitude":"49.96666670","longitude":"13.71666670","name":"Kostel\u00edk"},{"id":"548672","latitude":"50.25000000","longitude":"14.70000000","name":"Kosteln\u00ed Hlavno"},{"id":"548687","latitude":"50.38333330","longitude":"14.33333330","name":"Kostomlat"},{"id":"548689","latitude":"50.18333330","longitude":"14.96666670","name":"Kostomlatky"},{"id":"548690","latitude":"50.18333330","longitude":"14.96666670","name":"Kostomlaty"},{"id":"548692","latitude":"50.38333330","longitude":"14.33333330","name":"Kostomlaty pod Ripem"},{"id":"548703","latitude":"49.73333330","longitude":"14.10000000","name":"Kotencice"},{"id":"548709","latitude":"49.86666670","longitude":"13.91666670","name":"Kotopeky"},{"id":"548724","latitude":"49.56666670","longitude":"14.21666670","name":"Koubalova Lhota"},{"id":"548732","latitude":"50.21666670","longitude":"13.66666670","name":"Kounov"},{"id":"548741","latitude":"49.61666670","longitude":"14.63333330","name":"Kouty"},{"id":"548746","latitude":"50.41666670","longitude":"14.76666670","name":"Kovanec"},{"id":"548747","latitude":"50.16666670","longitude":"15.06666670","name":"Kovanice"},{"id":"548749","latitude":"50.41666670","longitude":"14.76666670","name":"Kovan"},{"id":"548750","latitude":"50.20000000","longitude":"15.06666670","name":"Kovansko"},{"id":"548751","latitude":"49.68333330","longitude":"14.28333330","name":"Kovarna"},{"id":"548759","latitude":"50.18333330","longitude":"14.25000000","name":"Kov\u00e1ry"},{"id":"548762","latitude":"49.55000000","longitude":"14.10000000","name":"Koz\u00e1rovice"},{"id":"548769","latitude":"49.68333330","longitude":"13.95000000","name":"Kozicin"},{"id":"548770","latitude":"49.76666670","longitude":"14.26666670","name":"Koz\u00ed Hory"},{"id":"548778","latitude":"49.98333330","longitude":"13.55000000","name":"Kozlan"},{"id":"548781","latitude":"49.98333330","longitude":"13.55000000","name":"Kozlany"},{"id":"548800","latitude":"50.25000000","longitude":"14.56666670","name":"Kozly"},{"id":"548805","latitude":"49.83333330","longitude":"14.80000000","name":"Kozmice"},{"id":"548812","latitude":"49.78333330","longitude":"13.85000000","name":"Kozojedy"},{"id":"548817","latitude":"49.96666670","longitude":"14.20000000","name":"Kozolupy"},{"id":"548826","latitude":"50.40000000","longitude":"14.30000000","name":"Krabcice"},{"id":"548843","latitude":"50.01666670","longitude":"13.63333330","name":"Krakovec"},{"id":"548845","latitude":"50.03333330","longitude":"13.65000000","name":"Krakov"},{"id":"548866","latitude":"50.26666670","longitude":"14.06666670","name":"Kr\u00e1lovice"},{"id":"548869","latitude":"49.81666670","longitude":"14.36666670","name":"Kr\u00e1lovky"},{"id":"548870","latitude":"49.63333330","longitude":"14.73333330","name":"Kr\u00e1lovna"},{"id":"548883","latitude":"49.93333330","longitude":"14.05000000","name":"Kraluv Dvur"},{"id":"548885","latitude":"49.80000000","longitude":"14.33333330","name":"Kram"},{"id":"548893","latitude":"49.80000000","longitude":"14.33333330","name":"Kr\u00e1my"},{"id":"548910","latitude":"49.60000000","longitude":"14.30000000","name":"Kr\u00e1sn\u00e1 Hora"},{"id":"548911","latitude":"49.60000000","longitude":"14.30000000","name":"Kr\u00e1sn\u00e1 Hora nad Vltavou"},{"id":"548920","latitude":"50.41666670","longitude":"14.80000000","name":"Kr\u00e1sn\u00e1 Ves"},{"id":"548946","latitude":"49.88333330","longitude":"15.23333330","name":"Krasonovice"},{"id":"548951","latitude":"49.58333330","longitude":"14.30000000","name":"Krasovice"},{"id":"548986","latitude":"49.73333330","longitude":"14.46666670","name":"Krchleby"},{"id":"549003","latitude":"49.71666670","longitude":"14.48333330","name":"Krecovice"},{"id":"549009","latitude":"49.58333330","longitude":"14.80000000","name":"Krekovice"},{"id":"549019","latitude":"49.58333330","longitude":"14.41666670","name":"Kremenice"},{"id":"549032","latitude":"49.76666670","longitude":"14.40000000","name":"Krenicna"},{"id":"549033","latitude":"49.76666670","longitude":"14.40000000","name":"Krenitschna"},{"id":"549036","latitude":"49.63333330","longitude":"14.53333330","name":"Krenovice"},{"id":"549038","latitude":"49.61666670","longitude":"14.53333330","name":"Krenovicky"},{"id":"549048","latitude":"49.70000000","longitude":"14.35000000","name":"Krepenice"},{"id":"549056","latitude":"49.91666670","longitude":"15.26666670","name":"Kresetice"},{"id":"549059","latitude":"49.66666670","longitude":"14.61666670","name":"Kresice"},{"id":"549061","latitude":"49.55000000","longitude":"14.16666670","name":"Kresina"},{"id":"549063","latitude":"49.80000000","longitude":"13.95000000","name":"Kresin"},{"id":"549079","latitude":"49.85000000","longitude":"14.55000000","name":"Krhanice"},{"id":"549080","latitude":"49.85000000","longitude":"14.55000000","name":"Krhanitz"},{"id":"549098","latitude":"50.18333330","longitude":"13.43333330","name":"Kriegern"},{"id":"549108","latitude":"49.85000000","longitude":"14.48333330","name":"Krinian"},{"id":"549117","latitude":"49.78333330","longitude":"14.35000000","name":"Krischau"},{"id":"549131","latitude":"50.41666670","longitude":"14.43333330","name":"Krivenice"},{"id":"549133","latitude":"50.03333330","longitude":"13.88333330","name":"Krivoklat"},{"id":"549135","latitude":"50.30000000","longitude":"14.36666670","name":"Krivousy"},{"id":"549149","latitude":"49.91666670","longitude":"14.03333330","name":"Krizatka"},{"id":"549162","latitude":"49.65000000","longitude":"14.90000000","name":"Krizov"},{"id":"549165","latitude":"49.85000000","longitude":"14.48333330","name":"Krnany"},{"id":"549171","latitude":"50.38333330","longitude":"14.85000000","name":"Krnsko"},{"id":"549172","latitude":"50.13333330","longitude":"14.11666670","name":"Krocehlavy"},{"id":"549188","latitude":"50.33333330","longitude":"14.71666670","name":"Kropacova Vrutice"},{"id":"549197","latitude":"50.20000000","longitude":"13.78333330","name":"Kroucova"},{"id":"549201","latitude":"50.28333330","longitude":"14.15000000","name":"Krovice"},{"id":"549203","latitude":"50.33333330","longitude":"14.68333330","name":"Krpy"},{"id":"549221","latitude":"50.10000000","longitude":"13.43333330","name":"Krty"},{"id":"549226","latitude":"50.50000000","longitude":"14.66666670","name":"Kruh"},{"id":"549238","latitude":"49.90000000","longitude":"15.25000000","name":"Krup\u00e1"},{"id":"549243","latitude":"49.93333330","longitude":"14.16666670","name":"Krupn\u00e1"},{"id":"549244","latitude":"49.80000000","longitude":"14.60000000","name":"Krusicany"},{"id":"549245","latitude":"50.36666670","longitude":"14.76666670","name":"Krusiny"},{"id":"549246","latitude":"49.80000000","longitude":"14.60000000","name":"Krusitschan"},{"id":"549248","latitude":"49.96666670","longitude":"13.95000000","name":"Krusna Hora"},{"id":"549249","latitude":"50.16666670","longitude":"13.76666670","name":"Krusovice"},{"id":"549255","latitude":"50.41666670","longitude":"14.43333330","name":"Krwenitz"},{"id":"549259","latitude":"50.18333330","longitude":"13.43333330","name":"Kryry"},{"id":"549273","latitude":"49.95000000","longitude":"13.88333330","name":"Kublov"},{"id":"549278","latitude":"49.98333330","longitude":"14.23333330","name":"Kuchar"},{"id":"549339","latitude":"49.56666670","longitude":"14.31666670","name":"Kunicek"},{"id":"549341","latitude":"49.93333330","longitude":"14.66666670","name":"Kunice"},{"id":"549343","latitude":"49.56666670","longitude":"14.31666670","name":"Kun\u00ed"},{"id":"549346","latitude":"49.93333330","longitude":"14.66666670","name":"Kunitz"},{"id":"549353","latitude":"49.66666670","longitude":"15.00000000","name":"Kunovice"},{"id":"549357","latitude":"49.66666670","longitude":"15.00000000","name":"Kunowitz"},{"id":"549399","latitude":"49.70000000","longitude":"14.21666670","name":"Kurzbach II"},{"id":"549400","latitude":"49.70000000","longitude":"14.20000000","name":"Kurzbach I"},{"id":"549401","latitude":"49.70000000","longitude":"14.20000000","name":"Kurzbach"},{"id":"549410","latitude":"49.95000000","longitude":"15.26666670","name":"Kutn\u00e1 Hora"},{"id":"549412","latitude":"50.26666670","longitude":"14.01666670","name":"Kutrovice"},{"id":"549417","latitude":"49.95000000","longitude":"15.26666670","name":"Kuttenberg"},{"id":"549421","latitude":"50.33333330","longitude":"14.80000000","name":"Kuttenthal"},{"id":"549425","latitude":"50.03333330","longitude":"13.53333330","name":"Kuzova"},{"id":"549427","latitude":"49.76666670","longitude":"13.86666670","name":"Kvan"},{"id":"549429","latitude":"49.58333330","longitude":"14.50000000","name":"Kvasejovice"},{"id":"549454","latitude":"50.21666670","longitude":"14.08333330","name":"Kvicek"},{"id":"549455","latitude":"50.21666670","longitude":"14.06666670","name":"Kv\u00edc"},{"id":"549495","latitude":"50.08333330","longitude":"14.10000000","name":"Kysice"},{"id":"549500","latitude":"49.85000000","longitude":"14.21666670","name":"Kyt\u00edn"},{"id":"549510","latitude":"50.25000000","longitude":"14.53333330","name":"Labkovice"},{"id":"549521","latitude":"49.61666670","longitude":"14.81666670","name":"Laby"},{"id":"549537","latitude":"49.90000000","longitude":"14.61666670","name":"L\u00e1dv\u00ed"},{"id":"549538","latitude":"49.90000000","longitude":"14.61666670","name":"Ladwi"},{"id":"549544","latitude":"49.83333330","longitude":"14.36666670","name":"Lahovska"},{"id":"549553","latitude":"50.11666670","longitude":"13.96666670","name":"Lana"},{"id":"549571","latitude":"49.78333330","longitude":"14.73333330","name":"Langenfeld"},{"id":"549582","latitude":"49.71666670","longitude":"14.11666670","name":"Lang Lhota"},{"id":"549592","latitude":"49.85000000","longitude":"15.28333330","name":"L\u00e1ny"},{"id":"549604","latitude":"49.63333330","longitude":"14.88333330","name":"Las\u00e1ky"},{"id":"549611","latitude":"49.55000000","longitude":"14.23333330","name":"Lasovice"},{"id":"549638","latitude":"49.63333330","longitude":"14.50000000","name":"Lavicky"},{"id":"549658","latitude":"49.68333330","longitude":"13.95000000","name":"Lazec"},{"id":"549678","latitude":"49.86666670","longitude":"14.08333330","name":"Lazovice"},{"id":"549679","latitude":"49.61666670","longitude":"14.00000000","name":"Lazsko"},{"id":"549685","latitude":"49.78333330","longitude":"14.83333330","name":"Lbos\u00edn"},{"id":"549688","latitude":"49.78333330","longitude":"14.83333330","name":"Lebosin"},{"id":"549694","latitude":"50.33333330","longitude":"14.30000000","name":"Lecitz"},{"id":"549699","latitude":"49.85000000","longitude":"14.61666670","name":"Ledce"},{"id":"549700","latitude":"50.33333330","longitude":"14.30000000","name":"Ledcice"},{"id":"549708","latitude":"49.85000000","longitude":"14.61666670","name":"Ledetz"},{"id":"549718","latitude":"50.51666670","longitude":"14.75000000","name":"Leimgrieben"},{"id":"549743","latitude":"49.90000000","longitude":"14.75000000","name":"Lensedel"},{"id":"549744","latitude":"49.90000000","longitude":"14.75000000","name":"Lensedly"},{"id":"549761","latitude":"49.63333330","longitude":"14.88333330","name":"Les\u00e1ky"},{"id":"549764","latitude":"49.85000000","longitude":"14.53333330","name":"Lesany"},{"id":"549765","latitude":"49.85000000","longitude":"14.53333330","name":"Leschan"},{"id":"549768","latitude":"49.65000000","longitude":"14.01666670","name":"Lesetice"},{"id":"549817","latitude":"49.58333330","longitude":"14.73333330","name":"Lestina"},{"id":"549834","latitude":"50.00000000","longitude":"14.21666670","name":"Letn\u00edk"},{"id":"549847","latitude":"49.91666670","longitude":"14.25000000","name":"Lety"},{"id":"549852","latitude":"49.93333330","longitude":"14.00000000","name":"Lev\u00edn"},{"id":"549871","latitude":"49.75000000","longitude":"14.36666670","name":"Lhota Chotilsko"},{"id":"549884","latitude":"49.80000000","longitude":"14.50000000","name":"Lhota"},{"id":"549889","latitude":"50.21666670","longitude":"13.73333330","name":"Lhota pod Dzbanem"},{"id":"549911","latitude":"49.71666670","longitude":"13.98333330","name":"Lhota u Pribrame"},{"id":"549915","latitude":"49.73333330","longitude":"14.80000000","name":"Lhota Veselka"},{"id":"549919","latitude":"50.50000000","longitude":"15.00000000","name":"Lhotice"},{"id":"549929","latitude":"49.65000000","longitude":"14.43333330","name":"Lhotka"},{"id":"549945","latitude":"49.60000000","longitude":"14.80000000","name":"Lhysov"},{"id":"549959","latitude":"49.75000000","longitude":"14.31666670","name":"Libcice"},{"id":"549961","latitude":"50.41666670","longitude":"14.45000000","name":"Libechov"},{"id":"549964","latitude":"49.73333330","longitude":"14.58333330","name":"Libec"},{"id":"549965","latitude":"50.03333330","longitude":"14.10000000","name":"Libecov"},{"id":"549974","latitude":"49.98333330","longitude":"15.25000000","name":"Libenice"},{"id":"549987","latitude":"49.76666670","longitude":"14.91666670","name":"Libez"},{"id":"549993","latitude":"49.73333330","longitude":"14.21666670","name":"Libice"},{"id":"549997","latitude":"50.35000000","longitude":"14.91666670","name":"Libichov"},{"id":"550003","latitude":"49.63333330","longitude":"14.43333330","name":"Libin"},{"id":"550008","latitude":"50.28333330","longitude":"14.50000000","name":"Libisch"},{"id":"550009","latitude":"50.28333330","longitude":"14.50000000","name":"Libis"},{"id":"550017","latitude":"50.38333330","longitude":"14.35000000","name":"Libkovice pod Ripem"},{"id":"550021","latitude":"50.30000000","longitude":"14.58333330","name":"Liblice"},{"id":"550030","latitude":"50.41666670","longitude":"14.45000000","name":"Liboch"},{"id":"550033","latitude":"50.16666670","longitude":"14.25000000","name":"Libochovicky"},{"id":"550040","latitude":"49.86666670","longitude":"14.00000000","name":"Libomysl"},{"id":"550056","latitude":"49.63333330","longitude":"14.81666670","name":"Liboun"},{"id":"550058","latitude":"50.23333330","longitude":"14.01666670","name":"Libovice"},{"id":"550060","latitude":"50.46666670","longitude":"14.65000000","name":"Libowis"},{"id":"550064","latitude":"49.75000000","longitude":"14.31666670","name":"Libschitz"},{"id":"550071","latitude":"50.16666670","longitude":"14.05000000","name":"Libuschin"},{"id":"550073","latitude":"50.16666670","longitude":"14.05000000","name":"Libusin"},{"id":"550082","latitude":"49.68333330","longitude":"14.31666670","name":"L\u00edchovy"},{"id":"550105","latitude":"50.13333330","longitude":"14.20000000","name":"Lidice"},{"id":"550106","latitude":"50.13333330","longitude":"14.20000000","name":"Liditz"},{"id":"550107","latitude":"49.58333330","longitude":"14.50000000","name":"Lidkovice"},{"id":"550128","latitude":"50.30000000","longitude":"14.58333330","name":"Lieblitz"},{"id":"550139","latitude":"49.71666670","longitude":"14.08333330","name":"L\u00edha"},{"id":"550168","latitude":"50.45000000","longitude":"14.81666670","name":"L\u00edny"},{"id":"550202","latitude":"49.68333330","longitude":"14.25000000","name":"Lipiny"},{"id":"550203","latitude":"49.75000000","longitude":"14.88333330","name":"Lipiny u Radosovic"},{"id":"550207","latitude":"49.78333330","longitude":"14.55000000","name":"Lipka"},{"id":"550209","latitude":"50.38333330","longitude":"14.35000000","name":"Lipkowitz"},{"id":"550266","latitude":"50.15000000","longitude":"13.75000000","name":"Lisany"},{"id":"550268","latitude":"50.15000000","longitude":"13.75000000","name":"Lischan"},{"id":"550271","latitude":"49.88333330","longitude":"13.80000000","name":"Lischna"},{"id":"550278","latitude":"49.73333330","longitude":"14.78333330","name":"L\u00edsek"},{"id":"550306","latitude":"49.88333330","longitude":"13.80000000","name":"Lisna"},{"id":"550310","latitude":"49.88333330","longitude":"14.31666670","name":"Lisnice"},{"id":"550312","latitude":"49.73333330","longitude":"14.68333330","name":"Lisno"},{"id":"550314","latitude":"49.58333330","longitude":"13.96666670","name":"Lisovice"},{"id":"550317","latitude":"50.20000000","longitude":"14.83333330","name":"Lissa an der Elbe"},{"id":"550321","latitude":"49.61666670","longitude":"14.63333330","name":"Listenec"},{"id":"550326","latitude":"49.90000000","longitude":"14.15000000","name":"Liten"},{"id":"550331","latitude":"49.78333330","longitude":"14.85000000","name":"Litichovice"},{"id":"550346","latitude":"50.18333330","longitude":"14.85000000","name":"Litol"},{"id":"550353","latitude":"50.18333330","longitude":"14.85000000","name":"Litot"},{"id":"550356","latitude":"50.08333330","longitude":"14.23333330","name":"Litovice"},{"id":"550374","latitude":"50.25000000","longitude":"14.31666670","name":"Lobecek"},{"id":"550375","latitude":"50.46666670","longitude":"14.66666670","name":"Lobec"},{"id":"550382","latitude":"50.25000000","longitude":"14.53333330","name":"Lobkovice"},{"id":"550383","latitude":"50.25000000","longitude":"14.53333330","name":"Lobkowitz"},{"id":"550401","latitude":"49.85000000","longitude":"13.98333330","name":"Lochovice"},{"id":"550402","latitude":"49.85000000","longitude":"13.98333330","name":"Lochowitz"},{"id":"550408","latitude":"49.98333330","longitude":"14.16666670","name":"Lodenice"},{"id":"550410","latitude":"49.98333330","longitude":"14.16666670","name":"Lodenitz"},{"id":"550424","latitude":"49.90000000","longitude":"14.65000000","name":"Lojovice"},{"id":"550425","latitude":"49.90000000","longitude":"14.65000000","name":"Lojowes"},{"id":"550432","latitude":"49.86666670","longitude":"15.28333330","name":"Lomecek"},{"id":"550435","latitude":"49.86666670","longitude":"15.28333330","name":"Lomec"},{"id":"550484","latitude":"50.25000000","longitude":"14.03333330","name":"Lotous"},{"id":"550497","latitude":"50.33333330","longitude":"14.23333330","name":"Louck\u00e1"},{"id":"550537","latitude":"49.90000000","longitude":"14.01666670","name":"Loun\u00edn"},{"id":"550541","latitude":"49.63333330","longitude":"14.85000000","name":"Lounovice pod Blanikem"},{"id":"550542","latitude":"49.63333330","longitude":"14.85000000","name":"Lounowitz"},{"id":"550544","latitude":"49.80000000","longitude":"14.46666670","name":"Lout\u00ed"},{"id":"550554","latitude":"49.63333330","longitude":"14.50000000","name":"Lovcice"},{"id":"550570","latitude":"49.86666670","longitude":"14.71666670","name":"Lsteni"},{"id":"550571","latitude":"49.81666670","longitude":"14.06666670","name":"Lsten"},{"id":"550581","latitude":"50.08333330","longitude":"13.70000000","name":"Lubn\u00e1"},{"id":"550594","latitude":"50.05000000","longitude":"13.96666670","name":"Luby"},{"id":"550645","latitude":"49.66666670","longitude":"14.20000000","name":"Luhy"},{"id":"550651","latitude":"49.86666670","longitude":"14.46666670","name":"Luka"},{"id":"550667","latitude":"49.86666670","longitude":"14.46666670","name":"Luk"},{"id":"550688","latitude":"50.25000000","longitude":"14.16666670","name":"Lun\u00edkov"},{"id":"550721","latitude":"49.98333330","longitude":"14.20000000","name":"Luzce"},{"id":"550724","latitude":"50.31666670","longitude":"14.40000000","name":"Luzec"},{"id":"550727","latitude":"50.31666670","longitude":"14.40000000","name":"Luzec nad Vltavou"},{"id":"550742","latitude":"50.13333330","longitude":"13.76666670","name":"Luzna"},{"id":"550750","latitude":"49.63333330","longitude":"14.66666670","name":"Lys\u00e1"},{"id":"550752","latitude":"50.20000000","longitude":"14.83333330","name":"Lys\u00e1 nad Labem"},{"id":"550778","latitude":"49.85000000","longitude":"14.78333330","name":"Macovice"},{"id":"550817","latitude":"50.15000000","longitude":"14.21666670","name":"Makotrasy"},{"id":"550821","latitude":"50.25000000","longitude":"14.25000000","name":"Mala Bucina"},{"id":"550822","latitude":"49.76666670","longitude":"14.08333330","name":"Mal\u00e1 Bukov\u00e1"},{"id":"550829","latitude":"50.20000000","longitude":"13.55000000","name":"Mala Cernoc"},{"id":"550833","latitude":"49.80000000","longitude":"14.28333330","name":"Mala Hrastice"},{"id":"550835","latitude":"49.81666670","longitude":"14.33333330","name":"Mala Lecice"},{"id":"550864","latitude":"49.78333330","longitude":"13.88333330","name":"Mal\u00e1 V\u00edska"},{"id":"550867","latitude":"49.78333330","longitude":"14.53333330","name":"Malce"},{"id":"550877","latitude":"50.15000000","longitude":"14.25000000","name":"Male Cicovice"},{"id":"550883","latitude":"50.40000000","longitude":"14.83333330","name":"Mal\u00e9 Horky"},{"id":"550894","latitude":"50.06666670","longitude":"14.08333330","name":"Male Kysice"},{"id":"550906","latitude":"50.01666670","longitude":"14.11666670","name":"Male Prilepy"},{"id":"550907","latitude":"50.10000000","longitude":"14.13333330","name":"Male Pritocno"},{"id":"550909","latitude":"49.91666670","longitude":"15.23333330","name":"Maleschau"},{"id":"550916","latitude":"49.91666670","longitude":"15.23333330","name":"Malesov"},{"id":"550924","latitude":"50.38333330","longitude":"14.75000000","name":"Male Vselisy"},{"id":"550932","latitude":"50.21666670","longitude":"13.98333330","name":"Mal\u00edkovice"},{"id":"550937","latitude":"49.96666670","longitude":"15.30000000","name":"Mal\u00edn"},{"id":"550939","latitude":"50.05000000","longitude":"13.66666670","name":"Malinov\u00e1"},{"id":"550943","latitude":"49.88333330","longitude":"14.03333330","name":"M\u00e1lkov"},{"id":"550946","latitude":"50.11666670","longitude":"13.38333330","name":"Malmerice"},{"id":"550960","latitude":"49.58333330","longitude":"14.71666670","name":"Malovice"},{"id":"550963","latitude":"49.66666670","longitude":"14.96666670","name":"Malovidy"},{"id":"550974","latitude":"50.35000000","longitude":"14.51666670","name":"Mal\u00fd Borek"},{"id":"550978","latitude":"49.81666670","longitude":"14.08333330","name":"Mal\u00fd Chlumec"},{"id":"550987","latitude":"50.41666670","longitude":"14.46666670","name":"Mal\u00fd Hubenov"},{"id":"550994","latitude":"50.18333330","longitude":"13.46666670","name":"Maly Ocihovec"},{"id":"551008","latitude":"50.33333330","longitude":"14.53333330","name":"Mal\u00fd \u00dajezd"},{"id":"551013","latitude":"50.38333330","longitude":"14.63333330","name":"Maly Zivonin"},{"id":"551019","latitude":"49.68333330","longitude":"14.58333330","name":"Manelovice"},{"id":"551023","latitude":"50.51666670","longitude":"14.91666670","name":"Man\u00edkovice"},{"id":"551108","latitude":"49.71666670","longitude":"14.56666670","name":"Marschowitz"},{"id":"551114","latitude":"49.71666670","longitude":"14.56666670","name":"Marsovice"},{"id":"551133","latitude":"49.55000000","longitude":"13.96666670","name":"Martinice"},{"id":"551156","latitude":"49.85000000","longitude":"14.38333330","name":"Masecin"},{"id":"551157","latitude":"49.85000000","longitude":"14.38333330","name":"Masetschin"},{"id":"551158","latitude":"49.81666670","longitude":"14.50000000","name":"Maskovice"},{"id":"551160","latitude":"49.81666670","longitude":"14.50000000","name":"Maskowitz"},{"id":"551184","latitude":"49.85000000","longitude":"14.78333330","name":"Matschowitz"},{"id":"551202","latitude":"49.90000000","longitude":"15.21666670","name":"Maxovna"},{"id":"551208","latitude":"50.30000000","longitude":"14.73333330","name":"Meceriz"},{"id":"551210","latitude":"49.80000000","longitude":"14.90000000","name":"Mechnov"},{"id":"551236","latitude":"50.50000000","longitude":"14.48333330","name":"Medonost"},{"id":"551237","latitude":"50.50000000","longitude":"14.48333330","name":"Medonosy"},{"id":"551256","latitude":"50.35000000","longitude":"14.55000000","name":"Melnicka Vrutice"},{"id":"551257","latitude":"50.35000000","longitude":"14.70000000","name":"Melnicke Vtelno"},{"id":"551260","latitude":"50.35000000","longitude":"14.48333330","name":"Melnik"},{"id":"551262","latitude":"49.91666670","longitude":"14.11666670","name":"Menany"},{"id":"551263","latitude":"49.95000000","longitude":"14.70000000","name":"Mencice"},{"id":"551272","latitude":"49.95000000","longitude":"14.70000000","name":"Mentschitz"},{"id":"551280","latitude":"49.78333330","longitude":"14.43333330","name":"Merin"},{"id":"551300","latitude":"49.58333330","longitude":"14.51666670","name":"Mesetice"},{"id":"551303","latitude":"49.83333330","longitude":"14.73333330","name":"Mesihorsch"},{"id":"551310","latitude":"49.73333330","longitude":"14.81666670","name":"Mestecko"},{"id":"551346","latitude":"49.93333330","longitude":"15.18333330","name":"Mezholezy"},{"id":"551353","latitude":"49.60000000","longitude":"14.33333330","name":"Mezihori"},{"id":"551380","latitude":"49.61666670","longitude":"14.48333330","name":"Mezn\u00e9"},{"id":"551384","latitude":"50.00000000","longitude":"14.21666670","name":"Mezoun"},{"id":"551390","latitude":"50.43333330","longitude":"14.88333330","name":"Michalovice"},{"id":"551419","latitude":"49.78333330","longitude":"14.43333330","name":"Mierschin"},{"id":"551470","latitude":"49.58333330","longitude":"14.21666670","name":"Milesov"},{"id":"551473","latitude":"49.88333330","longitude":"15.16666670","name":"Miletice"},{"id":"551489","latitude":"50.00000000","longitude":"13.61666670","name":"Milicov"},{"id":"551496","latitude":"49.63333330","longitude":"14.05000000","name":"Mil\u00edn"},{"id":"551516","latitude":"50.20000000","longitude":"13.66666670","name":"Milost\u00edn"},{"id":"551524","latitude":"49.71666670","longitude":"14.80000000","name":"Milovanice"},{"id":"551543","latitude":"49.66666670","longitude":"14.53333330","name":"Minartice"},{"id":"551556","latitude":"50.28333330","longitude":"14.31666670","name":"Mirejovice"},{"id":"551562","latitude":"49.66666670","longitude":"14.98333330","name":"Miretice"},{"id":"551573","latitude":"49.91666670","longitude":"14.71666670","name":"Miroschowitz"},{"id":"551575","latitude":"49.70000000","longitude":"14.71666670","name":"Miroslav"},{"id":"551578","latitude":"49.91666670","longitude":"14.71666670","name":"Mirosovice"},{"id":"551591","latitude":"49.51666670","longitude":"14.05000000","name":"Mirovice"},{"id":"551594","latitude":"49.51666670","longitude":"14.05000000","name":"Mirowitz"},{"id":"551600","latitude":"49.95000000","longitude":"15.20000000","name":"Miskovice"},{"id":"551604","latitude":"49.76666670","longitude":"14.73333330","name":"Mislitsch"},{"id":"551634","latitude":"49.75000000","longitude":"14.35000000","name":"Mittel Lhota"},{"id":"551642","latitude":"50.41666670","longitude":"14.90000000","name":"Mlad\u00e1 Boleslav"},{"id":"551643","latitude":"50.41666670","longitude":"14.90000000","name":"Mlada Boleslaz"},{"id":"551670","latitude":"49.65000000","longitude":"14.63333330","name":"Mladousov"},{"id":"551671","latitude":"49.71666670","longitude":"14.76666670","name":"Mladovice"},{"id":"551675","latitude":"50.36666670","longitude":"14.45000000","name":"Mlasitz"},{"id":"551679","latitude":"50.36666670","longitude":"14.45000000","name":"Mlazice"},{"id":"551682","latitude":"50.31666670","longitude":"14.33333330","name":"Mlcechvosty"},{"id":"551686","latitude":"50.25000000","longitude":"14.53333330","name":"Ml\u00e9kojedy"},{"id":"551690","latitude":"49.78333330","longitude":"14.51666670","name":"Ml\u00e9kovice"},{"id":"551691","latitude":"49.78333330","longitude":"14.51666670","name":"Mlekowitz"},{"id":"551692","latitude":"50.25000000","longitude":"14.53333330","name":"Mlikojed"},{"id":"551712","latitude":"50.36666670","longitude":"14.28333330","name":"Mnetes"},{"id":"551718","latitude":"49.93333330","longitude":"14.70000000","name":"Mnichovice"},{"id":"551726","latitude":"49.93333330","longitude":"14.70000000","name":"Mnichowitz"},{"id":"551727","latitude":"49.86666670","longitude":"14.26666670","name":"Mnischek"},{"id":"551730","latitude":"49.86666670","longitude":"14.26666670","name":"Mnisek"},{"id":"551732","latitude":"49.86666670","longitude":"14.26666670","name":"Mnisek pod Brdy"},{"id":"551744","latitude":"49.90000000","longitude":"15.35000000","name":"Mocovice"},{"id":"551745","latitude":"49.90000000","longitude":"15.35000000","name":"Mocowitz"},{"id":"551765","latitude":"50.00000000","longitude":"13.68333330","name":"Modrejovice"},{"id":"551769","latitude":"49.61666670","longitude":"13.96666670","name":"Modrovice"},{"id":"551789","latitude":"49.90000000","longitude":"14.63333330","name":"Mokerschan"},{"id":"551794","latitude":"49.75000000","longitude":"14.70000000","name":"Mokr\u00e1 Lhota"},{"id":"551798","latitude":"49.90000000","longitude":"14.63333330","name":"Mokrany"},{"id":"551800","latitude":"49.80000000","longitude":"14.26666670","name":"Mokra Vrata"},{"id":"551804","latitude":"49.56666670","longitude":"14.28333330","name":"Mokrice"},{"id":"551811","latitude":"49.80000000","longitude":"14.26666670","name":"Mokrovraka"},{"id":"551812","latitude":"49.75000000","longitude":"14.33333330","name":"Mokrsko"},{"id":"551828","latitude":"49.78333330","longitude":"14.41666670","name":"Moran"},{"id":"551869","latitude":"49.76666670","longitude":"14.83333330","name":"Moravsko"},{"id":"551895","latitude":"49.95000000","longitude":"14.21666670","name":"Morina"},{"id":"551896","latitude":"49.93333330","longitude":"14.23333330","name":"Morinka"},{"id":"551935","latitude":"50.16666670","longitude":"14.11666670","name":"Motitschin"},{"id":"551939","latitude":"50.16666670","longitude":"14.11666670","name":"Motycin"},{"id":"551948","latitude":"49.83333330","longitude":"14.68333330","name":"Mrac"},{"id":"551952","latitude":"49.60000000","longitude":"14.55000000","name":"Mr\u00e1kotice"},{"id":"551958","latitude":"49.83333330","longitude":"14.68333330","name":"Mratsch"},{"id":"551972","latitude":"49.80000000","longitude":"13.88333330","name":"Mrtn\u00edk"},{"id":"551973","latitude":"49.68333330","longitude":"14.56666670","name":"Mrvice"},{"id":"551978","latitude":"50.45000000","longitude":"14.63333330","name":"Mscheno"},{"id":"551980","latitude":"49.83333330","longitude":"14.81666670","name":"Mschischowitz"},{"id":"551981","latitude":"50.18333330","longitude":"13.91666670","name":"Msecke Zehrovice"},{"id":"551982","latitude":"50.20000000","longitude":"13.91666670","name":"Msec"},{"id":"551984","latitude":"50.45000000","longitude":"14.63333330","name":"Mseno"},{"id":"551989","latitude":"49.73333330","longitude":"14.71666670","name":"Mstetice"},{"id":"552023","latitude":"50.26666670","longitude":"14.30000000","name":"M\u00fchlhausen"},{"id":"552032","latitude":"50.15000000","longitude":"13.50000000","name":"Mukhof"},{"id":"552033","latitude":"50.15000000","longitude":"13.40000000","name":"Mukodely"},{"id":"552055","latitude":"50.20000000","longitude":"13.70000000","name":"Mutejovice"},{"id":"552065","latitude":"50.20000000","longitude":"13.70000000","name":"Mutowitz"},{"id":"552081","latitude":"49.61666670","longitude":"14.66666670","name":"Mysletice"},{"id":"552085","latitude":"49.76666670","longitude":"14.73333330","name":"Myslic"},{"id":"552088","latitude":"49.53333330","longitude":"14.03333330","name":"Mysl\u00edn"},{"id":"552096","latitude":"49.61666670","longitude":"14.06666670","name":"Myslovice"},{"id":"552115","latitude":"49.83333330","longitude":"14.81666670","name":"Mzizovice"},{"id":"552117","latitude":"50.28333330","longitude":"14.20000000","name":"Nabd\u00edn"},{"id":"552119","latitude":"49.61666670","longitude":"14.91666670","name":"Naceradec"},{"id":"552120","latitude":"49.61666670","longitude":"14.91666670","name":"Naceradetz"},{"id":"552138","latitude":"49.56666670","longitude":"14.11666670","name":"Na Drah\u00e1ch"},{"id":"552145","latitude":"50.48333330","longitude":"14.65000000","name":"Na Fucikovskem"},{"id":"552156","latitude":"49.73333330","longitude":"14.45000000","name":"Nahoruby"},{"id":"552163","latitude":"49.91666670","longitude":"13.81666670","name":"Na Januskach"},{"id":"552181","latitude":"49.63333330","longitude":"14.98333330","name":"Nakvasovice"},{"id":"552187","latitude":"49.70000000","longitude":"14.36666670","name":"Nalzovice"},{"id":"552188","latitude":"49.71666670","longitude":"14.36666670","name":"Nalzovicke Podhaji"},{"id":"552195","latitude":"49.60000000","longitude":"13.91666670","name":"Namnice"},{"id":"552211","latitude":"49.65000000","longitude":"13.96666670","name":"Narysov"},{"id":"552219","latitude":"50.46666670","longitude":"15.00000000","name":"N\u00e1sedlnice"},{"id":"552232","latitude":"50.30000000","longitude":"14.50000000","name":"Na Stepane"},{"id":"552243","latitude":"49.63333330","longitude":"14.60000000","name":"Nazdice"},{"id":"552259","latitude":"49.98333330","longitude":"15.21666670","name":"Nebovidy"},{"id":"552264","latitude":"49.76666670","longitude":"14.43333330","name":"Nebrich"},{"id":"552266","latitude":"49.76666670","longitude":"14.43333330","name":"Nebschich"},{"id":"552267","latitude":"50.40000000","longitude":"14.58333330","name":"Nebuschel"},{"id":"552270","latitude":"50.40000000","longitude":"14.58333330","name":"Nebuzely"},{"id":"552273","latitude":"49.73333330","longitude":"14.25000000","name":"Nechalov"},{"id":"552281","latitude":"49.58333330","longitude":"14.40000000","name":"Nechvalice"},{"id":"552283","latitude":"49.58333330","longitude":"14.40000000","name":"Nechwalitz"},{"id":"552287","latitude":"49.70000000","longitude":"14.23333330","name":"Necin"},{"id":"552302","latitude":"50.26666670","longitude":"14.61666670","name":"Nedomice"},{"id":"552304","latitude":"50.06666670","longitude":"13.46666670","name":"Nedowitz"},{"id":"552305","latitude":"49.61666670","longitude":"14.45000000","name":"Nedrahovice"},{"id":"552306","latitude":"49.61666670","longitude":"14.43333330","name":"Nedrahovick\u00e9 Podh\u00e1j\u00ed"},{"id":"552315","latitude":"49.80000000","longitude":"14.46666670","name":"Nedvezi"},{"id":"552319","latitude":"49.80000000","longitude":"14.46666670","name":"Nedwies"},{"id":"552337","latitude":"50.26666670","longitude":"14.30000000","name":"Nelahozeves"},{"id":"552357","latitude":"50.35000000","longitude":"14.93333330","name":"Nemcice"},{"id":"552372","latitude":"49.71666670","longitude":"13.98333330","name":"Nemecka Lhota"},{"id":"552390","latitude":"50.15000000","longitude":"13.53333330","name":"Nemecke Horovice"},{"id":"552400","latitude":"49.73333330","longitude":"14.01666670","name":"Nemecke Paseky"},{"id":"552428","latitude":"49.75000000","longitude":"14.93333330","name":"Nemiz"},{"id":"552442","latitude":"50.36666670","longitude":"14.76666670","name":"Nemyslovice"},{"id":"552443","latitude":"50.01666670","longitude":"14.15000000","name":"Nenacovice"},{"id":"552445","latitude":"49.80000000","longitude":"14.36666670","name":"Nenhof"},{"id":"552454","latitude":"49.88333330","longitude":"15.15000000","name":"Nepomerice"},{"id":"552457","latitude":"49.65000000","longitude":"13.83333330","name":"Nepomuk"},{"id":"552461","latitude":"49.63333330","longitude":"14.18333330","name":"Neprejov"},{"id":"552462","latitude":"50.38333330","longitude":"14.91666670","name":"Neprevazka"},{"id":"552465","latitude":"50.26666670","longitude":"14.03333330","name":"Neprobylice"},{"id":"552471","latitude":"50.26666670","longitude":"14.51666670","name":"Nerarovice"},