[{"id":"633117","latitude":"12.42166670","longitude":"42.89555560","name":"Alaili Dadda`"},{"id":"633118","latitude":"12.42166670","longitude":"42.89555560","name":"Alayli Dadda`"},{"id":"633132","latitude":"12.38666670","longitude":"43.33472220","name":"Ang\u00e2rou"},{"id":"633133","latitude":"12.38666670","longitude":"43.33472220","name":"Anghar"},{"id":"633142","latitude":"12.64500000","longitude":"42.97333330","name":"Biss\u00eediro"},{"id":"633149","latitude":"12.37277780","longitude":"42.71138890","name":"Dadda`to"},{"id":"633161","latitude":"12.28694440","longitude":"43.35555560","name":"Gaherr\u00e9"},{"id":"633168","latitude":"11.96305560","longitude":"43.29055560","name":"Hayyou"},{"id":"633175","latitude":"12.38666670","longitude":"43.33472220","name":"Kh\u00f4r `Angar"},{"id":"633176","latitude":"12.38666670","longitude":"43.33472220","name":"Khor-Anghar"},{"id":"633178","latitude":"12.35583330","longitude":"43.15638890","name":"L\u00e2`assa"},{"id":"633184","latitude":"11.97305560","longitude":"43.02611110","name":"M\u00e9d\u00e9ho"},{"id":"633185","latitude":"11.97305560","longitude":"43.02611110","name":"M\u00e9\u00e9 D\u00f4ho"},{"id":"633187","latitude":"12.59166670","longitude":"43.20000000","name":"Moulhoul\u00e9"},{"id":"633188","latitude":"11.96305560","longitude":"43.29055560","name":"Obock"},{"id":"633189","latitude":"11.96305560","longitude":"43.29055560","name":"Obok"},{"id":"633192","latitude":"12.38666670","longitude":"43.33472220","name":"Poste d' Anghor"},{"id":"633194","latitude":"12.36333330","longitude":"43.18916670","name":"S\u00eadorre"}]