[{"id":"642021","latitude":"19.76666670","longitude":"-71.00000000","name":"Agua Hedionada"},{"id":"642022","latitude":"19.76666670","longitude":"-71.00000000","name":"Agua Hedionda"},{"id":"642025","latitude":"19.75000000","longitude":"-70.90000000","name":"Aguaj\u00ed"},{"id":"642026","latitude":"19.71666670","longitude":"-70.91666670","name":"Agua Larga"},{"id":"642032","latitude":"19.75000000","longitude":"-70.90000000","name":"Aguaqu\u00ed"},{"id":"642085","latitude":"19.65000000","longitude":"-70.88333330","name":"Altamira"},{"id":"642094","latitude":"19.68333330","longitude":"-70.76666670","name":"Alto de la Damajagua"},{"id":"642100","latitude":"19.83333330","longitude":"-70.86666670","name":"Alto del Burro"},{"id":"642104","latitude":"19.73333330","longitude":"-70.53333330","name":"Alto de los Castillos"},{"id":"642108","latitude":"19.75000000","longitude":"-70.53333330","name":"Alto de los Peregrines"},{"id":"642109","latitude":"19.75000000","longitude":"-70.53333330","name":"Alto de Los Peregrinos"},{"id":"642151","latitude":"19.73333330","longitude":"-70.83333330","name":"Amistad"},{"id":"642171","latitude":"19.78333330","longitude":"-70.90000000","name":"Angostura"},{"id":"642202","latitude":"19.88333330","longitude":"-70.88333330","name":"Arenoso"},{"id":"642219","latitude":"19.83333330","longitude":"-70.93333330","name":"Arroyo Amargo"},{"id":"642221","latitude":"19.66666670","longitude":"-70.66666670","name":"Arroyo Ancho"},{"id":"642237","latitude":"19.68333330","longitude":"-70.88333330","name":"Arroyo Blanco"},{"id":"642246","latitude":"19.71666670","longitude":"-70.58333330","name":"Arroyo Cacaballo"},{"id":"642254","latitude":"19.71666670","longitude":"-70.58333330","name":"Arroyo Caraballo"},{"id":"642278","latitude":"19.66666670","longitude":"-70.56666670","name":"Arroyo de Leche"},{"id":"642279","latitude":"19.61666670","longitude":"-70.55000000","name":"Arroyo del Grande"},{"id":"642282","latitude":"19.73333330","longitude":"-70.96666670","name":"Arroyo de Navas"},{"id":"642303","latitude":"19.61666670","longitude":"-70.55000000","name":"Arroyo Grande"},{"id":"642337","latitude":"19.80000000","longitude":"-70.95000000","name":"Arroyo Mezquino"},{"id":"642373","latitude":"19.71666670","longitude":"-70.50000000","name":"Arroyo Seco"},{"id":"642385","latitude":"19.73333330","longitude":"-70.91666670","name":"Arroyo Viejito"},{"id":"642413","latitude":"19.66666670","longitude":"-70.48333330","name":"Atollador"},{"id":"642429","latitude":"19.76666670","longitude":"-70.61666670","name":"Baca Nueva"},{"id":"642449","latitude":"19.71666670","longitude":"-70.83333330","name":"Bajabonico Arriba"},{"id":"642450","latitude":"19.75000000","longitude":"-70.83333330","name":"Bajabonico"},{"id":"642451","latitude":"19.68333330","longitude":"-70.73333330","name":"Bajaboniquito"},{"id":"642453","latitude":"19.80000000","longitude":"-71.11666670","name":"Bajo de Gran Diablo"},{"id":"642454","latitude":"19.86666670","longitude":"-70.81666670","name":"Bajo Hondo"},{"id":"642494","latitude":"19.83333330","longitude":"-70.76666670","name":"Barbarrusia"},{"id":"642495","latitude":"19.83333330","longitude":"-70.76666670","name":"Barba Rucia"},{"id":"642496","latitude":"19.83333330","longitude":"-70.76666670","name":"Barba Rusia"},{"id":"642502","latitude":"19.75000000","longitude":"-70.78333330","name":"Barrab\u00e1s"},{"id":"642513","latitude":"19.73333330","longitude":"-70.83333330","name":"Barranc\u00f3n"},{"id":"643052","latitude":"19.71666670","longitude":"-70.80000000","name":"Bellaco"},{"id":"643058","latitude":"19.71666670","longitude":"-70.51666670","name":"Bella Vista"},{"id":"643062","latitude":"19.83333330","longitude":"-71.01666670","name":"Belloso"},{"id":"643070","latitude":"19.56666670","longitude":"-70.63333330","name":"Benito Mart\u00ednez"},{"id":"643073","latitude":"19.76666670","longitude":"-70.61666670","name":"Bergant\u00edn"},{"id":"643094","latitude":"19.90000000","longitude":"-70.95000000","name":"Blanco"},{"id":"643114","latitude":"19.68333330","longitude":"-70.78333330","name":"Boca de Arroyo Blanco"},{"id":"643118","latitude":"19.78333330","longitude":"-70.91666670","name":"Boca de Cab\u00eda"},{"id":"643122","latitude":"19.76666670","longitude":"-70.58333330","name":"Boca de Cangrejo"},{"id":"643123","latitude":"19.76666670","longitude":"-70.58333330","name":"Boca de Cangrejos"},{"id":"643124","latitude":"19.80000000","longitude":"-70.91666670","name":"Boca de Caonao"},{"id":"643161","latitude":"19.73333330","longitude":"-70.81666670","name":"Boca de Obispo"},{"id":"643164","latitude":"19.68333330","longitude":"-70.78333330","name":"Boca de R\u00edo Blanco"},{"id":"643165","latitude":"19.70000000","longitude":"-70.80000000","name":"Boca de R\u00edo Grande"},{"id":"643178","latitude":"19.76666670","longitude":"-70.61666670","name":"Boca Nueva"},{"id":"643199","latitude":"19.76666670","longitude":"-70.46666670","name":"Bombita"},{"id":"643241","latitude":"19.63333330","longitude":"-70.60000000","name":"Bris\u00f3n"},{"id":"643250","latitude":"19.70000000","longitude":"-70.58333330","name":"B\u00facara"},{"id":"643285","latitude":"19.88333330","longitude":"-70.98333330","name":"Caballo"},{"id":"643288","latitude":"19.70000000","longitude":"-70.58333330","name":"Cabareta"},{"id":"643289","latitude":"19.75000000","longitude":"-70.40000000","name":"Cabarete"},{"id":"643303","latitude":"19.75000000","longitude":"-70.88333330","name":"Cab\u00eda"},{"id":"643353","latitude":"19.80000000","longitude":"-70.71666670","name":"Cafemba"},{"id":"643382","latitude":"19.73333330","longitude":"-70.70000000","name":"Calabacito"},{"id":"643383","latitude":"19.88333330","longitude":"-70.86666670","name":"Calabacitos"},{"id":"643388","latitude":"19.81666670","longitude":"-70.75000000","name":"Calamp\u00edn"},{"id":"643413","latitude":"19.90000000","longitude":"-70.88333330","name":"Cambiaso"},{"id":"643424","latitude":"19.90000000","longitude":"-71.06666670","name":"Cambronal"},{"id":"643440","latitude":"19.71666670","longitude":"-70.60000000","name":"Cam\u00fa"},{"id":"643475","latitude":"19.88333330","longitude":"-70.85000000","name":"Canada de las Berenjenas"},{"id":"643492","latitude":"19.76666670","longitude":"-71.05000000","name":"Ca\u00f1ada Grande"},{"id":"643552","latitude":"19.90000000","longitude":"-71.03333330","name":"Candel\u00f3n"},{"id":"643577","latitude":"19.85000000","longitude":"-71.10000000","name":"Ca\u00f1o de Miguel"},{"id":"643589","latitude":"19.75000000","longitude":"-70.66666670","name":"Cantabria Abajo"},{"id":"643590","latitude":"19.73333330","longitude":"-70.68333330","name":"Cantabria Arriba"},{"id":"643591","latitude":"19.75000000","longitude":"-70.66666670","name":"Cantabria"},{"id":"643610","latitude":"19.75000000","longitude":"-70.93333330","name":"Caonao"},{"id":"643630","latitude":"19.71666670","longitude":"-70.58333330","name":"Caraballo"},{"id":"643642","latitude":"19.71666670","longitude":"-70.58333330","name":"Caravallo"},{"id":"643661","latitude":"19.86666670","longitude":"-71.00000000","name":"Carmoni"},{"id":"643667","latitude":"19.86666670","longitude":"-71.00000000","name":"Caromn\u00ed"},{"id":"643691","latitude":"19.85000000","longitude":"-71.06666670","name":"Carreta Podrida"},{"id":"643731","latitude":"19.88333330","longitude":"-71.08333330","name":"Castillo de La Isabela"},{"id":"643740","latitude":"19.81666670","longitude":"-70.75000000","name":"Catampin"},{"id":"643751","latitude":"19.81666670","longitude":"-70.93333330","name":"Cayacoa"},{"id":"643757","latitude":"19.60000000","longitude":"-70.63333330","name":"Caya Quemada"},{"id":"643761","latitude":"19.65000000","longitude":"-70.88333330","name":"Cayota"},{"id":"643775","latitude":"19.73333330","longitude":"-70.98333330","name":"Cedros"},{"id":"643842","latitude":"19.81666670","longitude":"-70.98333330","name":"Cerro de Navas"},{"id":"643843","latitude":"19.81666670","longitude":"-70.98333330","name":"Cerro de Novas"},{"id":"643849","latitude":"19.70000000","longitude":"-70.90000000","name":"Cerro Gordo"},{"id":"643861","latitude":"19.70000000","longitude":"-70.58333330","name":"Ceveret"},{"id":"643906","latitude":"19.71666670","longitude":"-70.48333330","name":"Choco"},{"id":"644012","latitude":"19.78333330","longitude":"-71.08333330","name":"Comedero"},{"id":"644077","latitude":"19.61666670","longitude":"-70.75000000","name":"Corozo"},{"id":"644119","latitude":"19.63333330","longitude":"-70.73333330","name":"Cruce"},{"id":"644229","latitude":"19.66666670","longitude":"-70.41666670","name":"Cuesta Barrosa"},{"id":"644237","latitude":"19.60000000","longitude":"-70.73333330","name":"Cuesta de \u00darsula"},{"id":"644246","latitude":"19.90000000","longitude":"-71.00000000","name":"Culebra"},{"id":"644272","latitude":"19.68333330","longitude":"-70.83333330","name":"Damajagua"},{"id":"644303","latitude":"19.86666670","longitude":"-71.06666670","name":"Dieguito"},{"id":"644329","latitude":"19.81666670","longitude":"-70.76666670","name":"Don Gregorio"},{"id":"644382","latitude":"19.60000000","longitude":"-70.55000000","name":"El Aguacate"},{"id":"644393","latitude":"19.75000000","longitude":"-70.90000000","name":"El Aguaj\u00ed"},{"id":"644410","latitude":"19.63333330","longitude":"-70.73333330","name":"El Almac\u00e9n"},{"id":"644413","latitude":"19.63333330","longitude":"-70.55000000","name":"El Alto de Arroyo Grande"},{"id":"644419","latitude":"19.71666670","longitude":"-70.76666670","name":"El Alto de la Loma"},{"id":"644420","latitude":"19.75000000","longitude":"-70.91666670","name":"El Alto de las Canas"},{"id":"644421","latitude":"19.83333330","longitude":"-70.86666670","name":"El Alto del Burro"},{"id":"644423","latitude":"19.66666670","longitude":"-70.80000000","name":"El Alto del Fundo"},{"id":"644426","latitude":"19.75000000","longitude":"-70.91666670","name":"El Alto de Los Calvos"},{"id":"644427","latitude":"19.73333330","longitude":"-70.53333330","name":"El Alto de los Castillos"},{"id":"644465","latitude":"19.68333330","longitude":"-70.45000000","name":"El Aserradero"},{"id":"644535","latitude":"19.83333330","longitude":"-70.86666670","name":"El Burro"},{"id":"644541","latitude":"19.65000000","longitude":"-70.90000000","name":"El Cabirmar"},{"id":"644557","latitude":"19.81666670","longitude":"-70.91666670","name":"El Caf\u00e9"},{"id":"644605","latitude":"19.78333330","longitude":"-70.48333330","name":"El Canal"},{"id":"644626","latitude":"19.65000000","longitude":"-70.60000000","name":"El Capa de Horadad"},{"id":"644629","latitude":"19.65000000","longitude":"-70.60000000","name":"El Cap\u00e1"},{"id":"644633","latitude":"19.65000000","longitude":"-70.60000000","name":"El Cap\u00e1 Horadao"},{"id":"644648","latitude":"19.83333330","longitude":"-71.06666670","name":"El Carril"},{"id":"644659","latitude":"19.88333330","longitude":"-71.08333330","name":"El Castillo"},{"id":"644723","latitude":"19.71666670","longitude":"-70.48333330","name":"El Choco"},{"id":"644761","latitude":"19.65000000","longitude":"-70.83333330","name":"El Copey"},{"id":"644767","latitude":"19.76666670","longitude":"-70.75000000","name":"El Corazal"},{"id":"644777","latitude":"19.76666670","longitude":"-70.75000000","name":"El Corozal"},{"id":"644787","latitude":"19.61666670","longitude":"-70.75000000","name":"El Corozo"},{"id":"644831","latitude":"19.66666670","longitude":"-70.78333330","name":"El Cumb\u00ed"},{"id":"644832","latitude":"19.65000000","longitude":"-70.83333330","name":"El Cupey"},{"id":"644875","latitude":"19.83333330","longitude":"-70.78333330","name":"El Estero"},{"id":"644876","latitude":"19.81666670","longitude":"-70.95000000","name":"El Estrecho Abajo"},{"id":"644877","latitude":"19.81666670","longitude":"-70.93333330","name":"El Estrecho"},{"id":"644896","latitude":"19.66666670","longitude":"-70.80000000","name":"El Fundo"},{"id":"644906","latitude":"19.71666670","longitude":"-70.73333330","name":"El Gallo Abajo"},{"id":"644907","latitude":"19.70000000","longitude":"-70.75000000","name":"El Gallo Arriba"},{"id":"644908","latitude":"19.73333330","longitude":"-70.73333330","name":"El Gallo"},{"id":"644911","latitude":"19.73333330","longitude":"-70.90000000","name":"El Gato"},{"id":"644928","latitude":"19.73333330","longitude":"-70.50000000","name":"El Guamo"},{"id":"644938","latitude":"19.73333330","longitude":"-70.50000000","name":"El Guano"},{"id":"644956","latitude":"19.63333330","longitude":"-70.65000000","name":"El Guayabo"},{"id":"644963","latitude":"19.66666670","longitude":"-70.83333330","name":"El Guayabos"},{"id":"644970","latitude":"19.61666670","longitude":"-70.71666670","name":"El Guazaral"},{"id":"644972","latitude":"19.66666670","longitude":"-70.51666670","name":"El Gu\u00e1zaro"},{"id":"645005","latitude":"19.80000000","longitude":"-70.98333330","name":"El Higo"},{"id":"645015","latitude":"19.70000000","longitude":"-70.55000000","name":"El Hig\u00fcerito"},{"id":"645022","latitude":"19.75000000","longitude":"-70.93333330","name":"El Hig\u00fcero"},{"id":"645036","latitude":"19.75000000","longitude":"-70.91666670","name":"El Hoyaso"},{"id":"645039","latitude":"19.75000000","longitude":"-70.91666670","name":"El Hoyazo"},{"id":"645086","latitude":"19.66666670","longitude":"-70.83333330","name":"El Jamo"},{"id":"645157","latitude":"19.56666670","longitude":"-70.61666670","name":"El Llano"},{"id":"645193","latitude":"19.65000000","longitude":"-70.81666670","name":"El Mamey"},{"id":"645208","latitude":"19.68333330","longitude":"-70.70000000","name":"El Manaclar"},{"id":"645216","latitude":"19.61666670","longitude":"-70.56666670","name":"El Mango"},{"id":"645223","latitude":"19.65000000","longitude":"-70.73333330","name":"El Manguito"},{"id":"645282","latitude":"19.70000000","longitude":"-70.68333330","name":"El Naranjal"},{"id":"645317","latitude":"19.88333330","longitude":"-70.88333330","name":"El Or\u00e1n"},{"id":"645330","latitude":"19.81666670","longitude":"-71.01666670","name":"El Palero"},{"id":"645366","latitude":"19.91666670","longitude":"-71.01666670","name":"El Paradero"},{"id":"645429","latitude":"19.78333330","longitude":"-70.81666670","name":"El Piragual"},{"id":"645488","latitude":"19.61666670","longitude":"-70.61666670","name":"El Puerto"},{"id":"645507","latitude":"19.80000000","longitude":"-70.96666670","name":"El Ranchito Abajo"},{"id":"645508","latitude":"19.80000000","longitude":"-70.95000000","name":"El Ranchito al Medio"},{"id":"645509","latitude":"19.80000000","longitude":"-70.95000000","name":"El Ranchito Arriba"},{"id":"645510","latitude":"19.76666670","longitude":"-70.93333330","name":"El Ranchito de los Peralta"},{"id":"645511","latitude":"19.80000000","longitude":"-70.93333330","name":"El Ranchito de los Vargas"},{"id":"645519","latitude":"19.70000000","longitude":"-70.70000000","name":"El Rancho de Ambros\u00eda"},{"id":"645543","latitude":"19.75000000","longitude":"-70.60000000","name":"El Rinc\u00f3n"},{"id":"645576","latitude":"19.76666670","longitude":"-70.98333330","name":"El Ruise\u00f1or"},{"id":"645595","latitude":"19.55000000","longitude":"-70.53333330","name":"El Samo"},{"id":"645596","latitude":"19.63333330","longitude":"-70.58333330","name":"El Sanj\u00f3n"},{"id":"645655","latitude":"19.86666670","longitude":"-70.85000000","name":"El Toro"},{"id":"645664","latitude":"19.71666670","longitude":"-70.53333330","name":"El Valedor"},{"id":"645678","latitude":"19.66666670","longitude":"-70.61666670","name":"El Veinte"},{"id":"645694","latitude":"19.63333330","longitude":"-70.58333330","name":"El Zanj\u00f3n"},{"id":"645736","latitude":"19.61666670","longitude":"-70.78333330","name":"Escalera Arriba"},{"id":"645737","latitude":"19.63333330","longitude":"-70.78333330","name":"Escalera"},{"id":"645738","latitude":"19.80000000","longitude":"-70.91666670","name":"Escalereta"},{"id":"645739","latitude":"19.80000000","longitude":"-70.91666670","name":"Escalerete"},{"id":"645740","latitude":"19.80000000","longitude":"-70.91666670","name":"Escalereto"},{"id":"645744","latitude":"19.88333330","longitude":"-70.93333330","name":"Escoboso"},{"id":"645745","latitude":"19.88333330","longitude":"-70.93333330","name":"Escobozo"},{"id":"645751","latitude":"19.71666670","longitude":"-70.38333330","name":"Eslab\u00f3n"},{"id":"645768","latitude":"19.65000000","longitude":"-70.85000000","name":"Estado"},{"id":"645791","latitude":"19.83333330","longitude":"-71.16666670","name":"Estero Hondo"},{"id":"645859","latitude":"19.70000000","longitude":"-70.90000000","name":"Fundaci\u00f3n"},{"id":"645863","latitude":"19.68333330","longitude":"-70.90000000","name":"Gajo Alto"},{"id":"645901","latitude":"19.56666670","longitude":"-70.63333330","name":"General Benito Mart\u00ednez"},{"id":"645925","latitude":"19.81666670","longitude":"-71.10000000","name":"Gran Diablo"},{"id":"645928","latitude":"19.71666670","longitude":"-70.61666670","name":"Gran Parada"},{"id":"645933","latitude":"19.81666670","longitude":"-71.21666670","name":"Gregorio"},{"id":"645944","latitude":"19.83333330","longitude":"-71.06666670","name":"Guaconejal"},{"id":"645950","latitude":"19.70000000","longitude":"-70.61666670","name":"Guaimosa"},{"id":"645951","latitude":"19.70000000","longitude":"-70.61666670","name":"Guainamoca"},{"id":"645961","latitude":"19.76666670","longitude":"-71.10000000","name":"Gualete"},{"id":"645962","latitude":"19.81666670","longitude":"-71.06666670","name":"Gualetico"},{"id":"645984","latitude":"19.71666670","longitude":"-70.81666670","name":"Guan\u00e1bano"},{"id":"645993","latitude":"19.71666670","longitude":"-70.91666670","name":"Guananico"},{"id":"646009","latitude":"19.68333330","longitude":"-70.86666670","name":"Guaranal"},{"id":"646043","latitude":"19.66666670","longitude":"-70.83333330","name":"Guayabo"},{"id":"646097","latitude":"19.55000000","longitude":"-70.61666670","name":"Gurabito de la Cumbre"},{"id":"646098","latitude":"19.58333330","longitude":"-70.60000000","name":"Gurabito de Yaroa"},{"id":"646099","latitude":"19.58333330","longitude":"-70.60000000","name":"Gurabito"},{"id":"646101","latitude":"19.55000000","longitude":"-70.61666670","name":"Gurabito La Cumbre"},{"id":"646108","latitude":"19.75000000","longitude":"-71.13333330","name":"Gurabo"},{"id":"646113","latitude":"19.81666670","longitude":"-70.73333330","name":"Gurapito"},{"id":"646115","latitude":"19.90000000","longitude":"-70.85000000","name":"Guzm\u00e1n Abajo"},{"id":"646116","latitude":"19.86666670","longitude":"-70.83333330","name":"Guzm\u00e1n Arriba"},{"id":"646118","latitude":"19.88333330","longitude":"-70.81666670","name":"Guzmancito Abajo"},{"id":"646119","latitude":"19.86666670","longitude":"-70.81666670","name":"Guzmancito Arriba"},{"id":"646120","latitude":"19.88333330","longitude":"-70.83333330","name":"Guzmancito"},{"id":"646121","latitude":"19.90000000","longitude":"-70.85000000","name":"Guzm\u00e1n"},{"id":"646211","latitude":"19.70000000","longitude":"-70.80000000","name":"Hervedor"},{"id":"646212","latitude":"19.70000000","longitude":"-70.80000000","name":"Hervidor"},{"id":"646228","latitude":"19.71666670","longitude":"-70.55000000","name":"Higos Claros"},{"id":"646265","latitude":"19.68333330","longitude":"-70.85000000","name":"Hig\u00fcero"},{"id":"646286","latitude":"19.75000000","longitude":"-70.81666670","name":"Hojas Anchas"},{"id":"646287","latitude":"19.73333330","longitude":"-70.56666670","name":"Holgu\u00edn"},{"id":"646314","latitude":"19.71666670","longitude":"-70.93333330","name":"Hoya Grande"},{"id":"646354","latitude":"19.65000000","longitude":"-70.55000000","name":"Hozadero"},{"id":"646355","latitude":"19.65000000","longitude":"-70.55000000","name":"Hozaderos"},{"id":"646369","latitude":"19.75000000","longitude":"-70.83333330","name":"Imbert"},{"id":"646373","latitude":"19.61666670","longitude":"-70.61666670","name":"Indio Viejo"},{"id":"646378","latitude":"19.73333330","longitude":"-70.83333330","name":"Ingenio Amistad"},{"id":"646396","latitude":"19.78333330","longitude":"-70.70000000","name":"Isabel de Torres"},{"id":"646433","latitude":"19.66666670","longitude":"-70.50000000","name":"Jagua Mocha"},{"id":"646440","latitude":"19.80000000","longitude":"-71.15000000","name":"Jaiba"},{"id":"646483","latitude":"19.71666670","longitude":"-70.56666670","name":"Jarda de las Canas"},{"id":"646572","latitude":"19.65000000","longitude":"-70.55000000","name":"Josadero"},{"id":"646619","latitude":"19.73333330","longitude":"-70.61666670","name":"Juan de Nina"},{"id":"646620","latitude":"19.73333330","longitude":"-70.61666670","name":"Juan de Nina Mu\u00f1ez"},{"id":"646621","latitude":"19.73333330","longitude":"-70.61666670","name":"Juan de Nina Mu\u00f1os"},{"id":"646622","latitude":"19.73333330","longitude":"-70.61666670","name":"Juan de Nina Mu\u00f1oz"},{"id":"646699","latitude":"19.88333330","longitude":"-70.88333330","name":"La Aguada"},{"id":"646701","latitude":"19.76666670","longitude":"-70.76666670","name":"La Aguadita"},{"id":"646702","latitude":"19.76666670","longitude":"-70.76666670","name":"La Agua\u00edta"},{"id":"646731","latitude":"19.68333330","longitude":"-70.81666670","name":"La Atravesada"},{"id":"646736","latitude":"19.76666670","longitude":"-70.48333330","name":"La Atravezada"},{"id":"646748","latitude":"19.91666670","longitude":"-70.88333330","name":"La Ballena"},{"id":"646750","latitude":"19.81666670","longitude":"-71.05000000","name":"La Balsa"},{"id":"646767","latitude":"19.85000000","longitude":"-70.78333330","name":"La Barrica"},{"id":"646782","latitude":"19.75000000","longitude":"-70.71666670","name":"La Berenjena"},{"id":"646798","latitude":"19.78333330","longitude":"-70.91666670","name":"La Boca de Cab\u00eda"},{"id":"646799","latitude":"19.80000000","longitude":"-70.91666670","name":"La Boca de Caonao"},{"id":"646820","latitude":"19.76666670","longitude":"-71.03333330","name":"La Boca"},{"id":"646851","latitude":"19.70000000","longitude":"-70.58333330","name":"La B\u00facara"},{"id":"646868","latitude":"19.65000000","longitude":"-70.90000000","name":"La Cabirma"},{"id":"646897","latitude":"19.76666670","longitude":"-70.41666670","name":"La Caleta"},{"id":"646910","latitude":"19.70000000","longitude":"-70.56666670","name":"La Cana"},{"id":"646935","latitude":"19.76666670","longitude":"-71.06666670","name":"La Caoba"},{"id":"646942","latitude":"19.66666670","longitude":"-70.66666670","name":"La Caobane"},{"id":"646958","latitude":"19.66666670","longitude":"-70.80000000","name":"La Catalina"},{"id":"646965","latitude":"19.65000000","longitude":"-70.88333330","name":"La Cayota"},{"id":"646988","latitude":"19.76666670","longitude":"-70.96666670","name":"La Ceibita"},{"id":"647029","latitude":"19.65000000","longitude":"-70.66666670","name":"La China"},{"id":"647032","latitude":"19.65000000","longitude":"-70.66666670","name":"La Chiva"},{"id":"647052","latitude":"19.83333330","longitude":"-71.15000000","name":"La Ci\u00e9naga"},{"id":"647068","latitude":"19.83333330","longitude":"-71.15000000","name":"La Ci\u00e9nega"},{"id":"647092","latitude":"19.68333330","longitude":"-70.51666670","name":"La Colorada"},{"id":"647130","latitude":"19.55000000","longitude":"-70.55000000","name":"La Cruz"},{"id":"647172","latitude":"19.65000000","longitude":"-70.76666670","name":"La Cueva"},{"id":"647188","latitude":"19.90000000","longitude":"-71.00000000","name":"La Culebra"},{"id":"647196","latitude":"19.55000000","longitude":"-70.61666670","name":"La Cumbre"},{"id":"647206","latitude":"19.63333330","longitude":"-70.73333330","name":"La Damajagua"},{"id":"647212","latitude":"19.70000000","longitude":"-70.75000000","name":"La Descubierta"},{"id":"647236","latitude":"19.63333330","longitude":"-70.78333330","name":"La Escalera"},{"id":"647306","latitude":"19.75000000","longitude":"-70.91666670","name":"La Frontera"},{"id":"647328","latitude":"19.78333330","longitude":"-70.76666670","name":"La Gata"},{"id":"647340","latitude":"19.76666670","longitude":"-70.41666670","name":"La Goleta"},{"id":"647347","latitude":"19.70000000","longitude":"-70.75000000","name":"La Gotera"},{"id":"647352","latitude":"19.71666670","longitude":"-70.61666670","name":"La Gran Parada"},{"id":"647369","latitude":"19.66666670","longitude":"-70.78333330","name":"La Guama"},{"id":"647439","latitude":"19.78333330","longitude":"-70.50000000","name":"Laguna del Hig\u00fcero"},{"id":"647440","latitude":"19.76666670","longitude":"-71.15000000","name":"Laguna de Solim\u00e1n"},{"id":"647443","latitude":"19.85000000","longitude":"-71.08333330","name":"Laguna Grande"},{"id":"647471","latitude":"19.68333330","longitude":"-70.46666670","name":"La Hicotea"},{"id":"647502","latitude":"19.81666670","longitude":"-71.05000000","name":"La Isabela"},{"id":"647506","latitude":"19.85000000","longitude":"-70.80000000","name":"La Isla"},{"id":"647526","latitude":"19.63333330","longitude":"-70.71666670","name":"La Jagua"},{"id":"647549","latitude":"19.80000000","longitude":"-71.15000000","name":"La Jaiba"},{"id":"647558","latitude":"19.58333330","longitude":"-70.61666670","name":"Lajas de Yaroa"},{"id":"647561","latitude":"19.70000000","longitude":"-70.85000000","name":"Lajas"},{"id":"647585","latitude":"19.78333330","longitude":"-70.93333330","name":"La Joya de la Boca de Cab\u00eda"},{"id":"647608","latitude":"19.66666670","longitude":"-70.46666670","name":"La Laguna"},{"id":"647624","latitude":"19.68333330","longitude":"-70.75000000","name":"La Lagunita"},{"id":"647634","latitude":"19.86666670","longitude":"-71.05000000","name":"La Landra"},{"id":"647637","latitude":"19.80000000","longitude":"-70.86666670","name":"La Larga"},{"id":"647651","latitude":"19.76666670","longitude":"-70.88333330","name":"La Lima"},{"id":"647670","latitude":"19.70000000","longitude":"-70.78333330","name":"La Llanada"},{"id":"647677","latitude":"19.73333330","longitude":"-70.76666670","name":"La Loma de Corozo"},{"id":"647680","latitude":"19.73333330","longitude":"-71.08333330","name":"La Loma"},{"id":"647695","latitude":"19.80000000","longitude":"-70.80000000","name":"La Lomita del Guano"},{"id":"647706","latitude":"19.65000000","longitude":"-70.88333330","name":"La Lomota"},{"id":"647744","latitude":"19.60000000","longitude":"-70.75000000","name":"La Manacla"},{"id":"647766","latitude":"19.73333330","longitude":"-70.91666670","name":"La Mariposa"},{"id":"647794","latitude":"19.70000000","longitude":"-70.81666670","name":"La Media Luna"},{"id":"647819","latitude":"19.66666670","longitude":"-70.53333330","name":"La Monteada"},{"id":"647832","latitude":"19.76666670","longitude":"-70.48333330","name":"La Mulata"},{"id":"647836","latitude":"19.68333330","longitude":"-70.55000000","name":"La Munici\u00f3n"},{"id":"647859","latitude":"19.80000000","longitude":"-70.90000000","name":"La Paila"},{"id":"647883","latitude":"19.91666670","longitude":"-70.96666670","name":"La Palmita"},{"id":"647899","latitude":"19.76666670","longitude":"-70.51666670","name":"La Pared"},{"id":"647908","latitude":"19.90000000","longitude":"-70.85000000","name":"La Patilla"},{"id":"647913","latitude":"19.83333330","longitude":"-70.86666670","name":"La Patrona"},{"id":"647920","latitude":"19.63333330","longitude":"-70.53333330","name":"La Pelota"},{"id":"647925","latitude":"19.73333330","longitude":"-71.01666670","name":"La Pe\u00f1a"},{"id":"647941","latitude":"19.71666670","longitude":"-70.98333330","name":"La Pe\u00f1ita"},{"id":"647951","latitude":"19.86666670","longitude":"-70.83333330","name":"La Perrita"},{"id":"647963","latitude":"19.55000000","longitude":"-70.56666670","name":"La Piedra"},{"id":"647976","latitude":"19.86666670","longitude":"-70.86666670","name":"La Pi\u00f1a"},{"id":"647989","latitude":"19.78333330","longitude":"-70.88333330","name":"La Piragua Abajo"},{"id":"647991","latitude":"19.75000000","longitude":"-71.05000000","name":"La Piragua"},{"id":"648002","latitude":"19.83333330","longitude":"-70.78333330","name":"La Playa de Maim\u00f3n"},{"id":"648005","latitude":"19.83333330","longitude":"-70.78333330","name":"La Playa"},{"id":"648027","latitude":"19.83333330","longitude":"-70.86666670","name":"La Potranca"},{"id":"648033","latitude":"19.68333330","longitude":"-70.80000000","name":"La Prieta"},{"id":"648047","latitude":"19.83333330","longitude":"-70.96666670","name":"La Pulga"},{"id":"648048","latitude":"19.83333330","longitude":"-70.96666670","name":"La Punga"},{"id":"648092","latitude":"19.88333330","longitude":"-70.88333330","name":"La Roseta"},{"id":"648097","latitude":"19.91666670","longitude":"-70.98333330","name":"La Rusia"},{"id":"648099","latitude":"19.85000000","longitude":"-70.93333330","name":"La Sabana Abajo"},{"id":"648102","latitude":"19.83333330","longitude":"-71.03333330","name":"La Sabana de los Mieses"},{"id":"648110","latitude":"19.78333330","longitude":"-70.75000000","name":"La Sabana"},{"id":"648120","latitude":"19.63333330","longitude":"-70.75000000","name":"La Sabaneta"},{"id":"648128","latitude":"19.80000000","longitude":"-70.81666670","name":"Las Abispas"},{"id":"648131","latitude":"19.63333330","longitude":"-70.78333330","name":"Las Aguas"},{"id":"648137","latitude":"19.70000000","longitude":"-70.96666670","name":"Las Alforjas"},{"id":"648152","latitude":"19.70000000","longitude":"-70.81666670","name":"Las Aromas"},{"id":"648165","latitude":"19.80000000","longitude":"-70.81666670","name":"Las Avispas"},{"id":"648184","latitude":"19.71666670","longitude":"-70.81666670","name":"Las Bonillas"},{"id":"648210","latitude":"19.81666670","longitude":"-70.78333330","name":"Las Ca\u00f1as"},{"id":"648233","latitude":"19.76666670","longitude":"-71.06666670","name":"Las Caobas"},{"id":"648272","latitude":"19.71666670","longitude":"-70.61666670","name":"Las Ciruelas"},{"id":"648285","latitude":"19.85000000","longitude":"-70.98333330","name":"Las Cruces"},{"id":"648322","latitude":"19.85000000","longitude":"-71.05000000","name":"Las Eneas"},{"id":"648335","latitude":"19.80000000","longitude":"-70.70000000","name":"Las Flores"},{"id":"648373","latitude":"19.65000000","longitude":"-70.86666670","name":"La Sierra"},{"id":"648399","latitude":"19.66666670","longitude":"-70.46666670","name":"Las Lagunas"},{"id":"648410","latitude":"19.70000000","longitude":"-70.85000000","name":"Las Lajas"},{"id":"648426","latitude":"19.65000000","longitude":"-70.78333330","name":"Las Lomas"},{"id":"648430","latitude":"19.60000000","longitude":"-70.75000000","name":"Las Manaclas"},{"id":"648435","latitude":"19.91666670","longitude":"-70.98333330","name":"Las Maras"},{"id":"648436","latitude":"19.91666670","longitude":"-70.98333330","name":"Las Marras"},{"id":"648461","latitude":"19.91666670","longitude":"-70.98333330","name":"Las Moras"},{"id":"648467","latitude":"19.66666670","longitude":"-70.78333330","name":"La Solapa"},{"id":"648487","latitude":"19.70000000","longitude":"-70.76666670","name":"Las Paredes"},{"id":"648505","latitude":"19.78333330","longitude":"-70.88333330","name":"Las Piraguas Abajo"},{"id":"648506","latitude":"19.76666670","longitude":"-70.86666670","name":"Las Piraguas Arriba"},{"id":"648507","latitude":"19.71666670","longitude":"-70.90000000","name":"Las Piraguas"},{"id":"648522","latitude":"19.73333330","longitude":"-70.51666670","name":"Las Tablitas"},{"id":"648527","latitude":"19.80000000","longitude":"-70.75000000","name":"Las Tejas"},{"id":"648538","latitude":"19.71666670","longitude":"-70.68333330","name":"Las Tres Canas"},{"id":"648558","latitude":"19.83333330","longitude":"-70.83333330","name":"La Subida de Carlos"},{"id":"648561","latitude":"19.80000000","longitude":"-70.95000000","name":"La Subida del Higo"},{"id":"648562","latitude":"19.76666670","longitude":"-70.98333330","name":"La Subida de los Mosquitos"},{"id":"648591","latitude":"19.75000000","longitude":"-70.70000000","name":"La Tachuela"},{"id":"648649","latitude":"19.76666670","longitude":"-70.55000000","name":"La Uni\u00f3n"},{"id":"648671","latitude":"19.63333330","longitude":"-70.73333330","name":"La Vereda"},{"id":"648744","latitude":"19.66666670","longitude":"-70.53333330","name":"Lengua de Vaca"},{"id":"648766","latitude":"19.73333330","longitude":"-70.58333330","name":"Limoncillo"},{"id":"648791","latitude":"19.73333330","longitude":"-70.83333330","name":"Llanos de P\u00e9rez"},{"id":"648799","latitude":"19.71666670","longitude":"-70.63333330","name":"Loma al Medio"},{"id":"648802","latitude":"19.73333330","longitude":"-70.53333330","name":"Loma Bajita"},{"id":"648805","latitude":"19.70000000","longitude":"-70.53333330","name":"Loma Blanca"},{"id":"648823","latitude":"19.80000000","longitude":"-70.76666670","name":"Loma de Las Bestias"},{"id":"648828","latitude":"19.71666670","longitude":"-70.63333330","name":"Loma del Medio"},{"id":"648848","latitude":"19.71666670","longitude":"-70.91666670","name":"Loma"},{"id":"648867","latitude":"19.88333330","longitude":"-70.88333330","name":"Lor\u00e1n"},{"id":"648897","latitude":"19.75000000","longitude":"-70.53333330","name":"Los Altos de Jalisco"},{"id":"648899","latitude":"19.73333330","longitude":"-71.00000000","name":"Los Altos"},{"id":"648908","latitude":"19.73333330","longitude":"-70.70000000","name":"Los Amaceyes"},{"id":"648933","latitude":"19.81666670","longitude":"-71.01666670","name":"Los Arqu\u00edes"},{"id":"648939","latitude":"19.73333330","longitude":"-70.96666670","name":"Los Arroyos de Nava"},{"id":"648940","latitude":"19.73333330","longitude":"-70.96666670","name":"Los Arroyos de Navas"},{"id":"648948","latitude":"19.70000000","longitude":"-70.83333330","name":"Los Arroyos"},{"id":"648963","latitude":"19.88333330","longitude":"-70.98333330","name":"Los Balataces"},{"id":"648964","latitude":"19.88333330","longitude":"-70.98333330","name":"Los Balataes"},{"id":"648969","latitude":"19.68333330","longitude":"-70.71666670","name":"Los Ba\u00f1aderos"},{"id":"648980","latitude":"19.88333330","longitude":"-70.98333330","name":"Los Batataces"},{"id":"648984","latitude":"19.83333330","longitude":"-71.01666670","name":"Los Bellosos"},{"id":"648986","latitude":"19.75000000","longitude":"-71.00000000","name":"Los Berracos"},{"id":"648999","latitude":"19.71666670","longitude":"-70.81666670","name":"Los Bonillas"},{"id":"649040","latitude":"19.80000000","longitude":"-70.81666670","name":"Los Cacaos"},{"id":"649057","latitude":"19.80000000","longitude":"-70.90000000","name":"Los Cafeces"},{"id":"649072","latitude":"19.86666670","longitude":"-71.00000000","name":"Los Caimon\u00edes"},{"id":"649081","latitude":"19.88333330","longitude":"-70.86666670","name":"Los Calabacitos"},{"id":"649096","latitude":"19.81666670","longitude":"-70.75000000","name":"Los Camarones"},{"id":"649104","latitude":"19.76666670","longitude":"-70.83333330","name":"Los Campeches"},{"id":"649114","latitude":"19.81666670","longitude":"-70.78333330","name":"Los Ca\u00f1os"},{"id":"649123","latitude":"19.76666670","longitude":"-71.06666670","name":"Los Caobos"},{"id":"649132","latitude":"19.68333330","longitude":"-70.75000000","name":"Los Caraballos"},{"id":"649139","latitude":"19.88333330","longitude":"-70.86666670","name":"Los Carramanes"},{"id":"649143","latitude":"19.68333330","longitude":"-70.75000000","name":"Los Casajos"},{"id":"649149","latitude":"19.73333330","longitude":"-70.53333330","name":"Los Castillos"},{"id":"649154","latitude":"19.75000000","longitude":"-70.90000000","name":"Los Cayucos"},{"id":"649157","latitude":"19.73333330","longitude":"-70.98333330","name":"Los Cedros"},{"id":"649180","latitude":"19.76666670","longitude":"-70.51666670","name":"Los Charamicos"},{"id":"649201","latitude":"19.66666670","longitude":"-70.78333330","name":"Los Ciruelos"},{"id":"649203","latitude":"19.66666670","longitude":"-70.86666670","name":"Los Claveles"},{"id":"649215","latitude":"19.80000000","longitude":"-71.00000000","name":"Los Conucos Adentro"},{"id":"649217","latitude":"19.80000000","longitude":"-70.98333330","name":"Los Conucos"},{"id":"649228","latitude":"19.63333330","longitude":"-70.65000000","name":"Los Coquitos"},{"id":"649251","latitude":"19.61666670","longitude":"-70.75000000","name":"Los Corozos"},{"id":"649290","latitude":"19.78333330","longitude":"-70.70000000","name":"Los Dom\u00ednguez"},{"id":"649356","latitude":"19.66666670","longitude":"-70.55000000","name":"Los Guaos"},{"id":"649393","latitude":"19.73333330","longitude":"-71.03333330","name":"Los Hidalagos"},{"id":"649394","latitude":"19.73333330","longitude":"-71.03333330","name":"Los Hidalgos"},{"id":"649400","latitude":"19.71666670","longitude":"-71.00000000","name":"Los Higos"},{"id":"649419","latitude":"19.68333330","longitude":"-70.93333330","name":"Los Hoyos"},{"id":"649471","latitude":"19.63333330","longitude":"-70.66666670","name":"Los Jobos"},{"id":"649511","latitude":"19.66666670","longitude":"-70.85000000","name":"Los Llanos"},{"id":"649526","latitude":"19.78333330","longitude":"-70.68333330","name":"Los Mameyes"},{"id":"649543","latitude":"19.71666670","longitude":"-70.76666670","name":"Los Manantiales"},{"id":"649551","latitude":"19.65000000","longitude":"-70.75000000","name":"Los Mangos"},{"id":"649558","latitude":"19.63333330","longitude":"-70.56666670","name":"Los Mart\u00ednez"},{"id":"649564","latitude":"19.78333330","longitude":"-70.80000000","name":"Los Mates"},{"id":"649609","latitude":"19.71666670","longitude":"-70.60000000","name":"Los Muertos"},{"id":"649652","latitude":"19.68333330","longitude":"-70.66666670","name":"Los Palmaritos"},{"id":"649662","latitude":"19.91666670","longitude":"-71.05000000","name":"Los Paredes"},{"id":"649692","latitude":"19.85000000","longitude":"-71.13333330","name":"Los Pilones"},{"id":"649728","latitude":"19.60000000","longitude":"-70.73333330","name":"Los Pomos"},{"id":"649745","latitude":"19.68333330","longitude":"-70.80000000","name":"Los Prieto"},{"id":"649779","latitude":"19.80000000","longitude":"-70.71666670","name":"Los Rieles"},{"id":"649784","latitude":"19.66666670","longitude":"-70.86666670","name":"Los Rincones"},{"id":"649818","latitude":"19.76666670","longitude":"-70.80000000","name":"Los Silverio"},{"id":"649829","latitude":"19.71666670","longitude":"-71.01666670","name":"Los Tablones"},{"id":"649845","latitude":"19.76666670","longitude":"-71.11666670","name":"Los Topos"},{"id":"649849","latitude":"19.76666670","longitude":"-71.11666670","name":"Los Toros"},{"id":"649860","latitude":"19.71666670","longitude":"-70.83333330","name":"Los Trejos"},{"id":"649865","latitude":"19.73333330","longitude":"-71.05000000","name":"Los Tres Pasos"},{"id":"649876","latitude":"19.70000000","longitude":"-70.80000000","name":"Los Uveros"},{"id":"649889","latitude":"19.75000000","longitude":"-71.00000000","name":"Los Verracos"},{"id":"649902","latitude":"19.76666670","longitude":"-70.78333330","name":"Los Yiyos"},{"id":"649903","latitude":"19.63333330","longitude":"-70.58333330","name":"Los Zanjones"},{"id":"649913","latitude":"19.90000000","longitude":"-70.95000000","name":"Luper\u00f3n"},{"id":"649928","latitude":"19.68333330","longitude":"-70.48333330","name":"Madre Vieja"},{"id":"649939","latitude":"19.81666670","longitude":"-70.73333330","name":"Maggiolo"},{"id":"649964","latitude":"19.80000000","longitude":"-70.78333330","name":"Maim\u00f3n"},{"id":"650026","latitude":"19.73333330","longitude":"-71.03333330","name":"Mamey"},{"id":"650040","latitude":"19.60000000","longitude":"-70.75000000","name":"Manaclar"},{"id":"650043","latitude":"19.60000000","longitude":"-70.75000000","name":"Manaclas"},{"id":"650110","latitude":"19.91666670","longitude":"-70.98333330","name":"Maras"},{"id":"650121","latitude":"19.80000000","longitude":"-71.01666670","name":"Mariani"},{"id":"650129","latitude":"19.73333330","longitude":"-70.91666670","name":"Mariposa"},{"id":"650131","latitude":"19.80000000","longitude":"-70.91666670","name":"Marisol"},{"id":"650137","latitude":"19.73333330","longitude":"-71.00000000","name":"Marmolejos"},{"id":"650143","latitude":"19.81666670","longitude":"-70.98333330","name":"Mart\u00edn Alonso"},{"id":"650144","latitude":"19.81666670","longitude":"-70.98333330","name":"Mart\u00edn Alonzo"},{"id":"650150","latitude":"19.65000000","longitude":"-70.56666670","name":"Martinico"},{"id":"650236","latitude":"19.71666670","longitude":"-70.68333330","name":"Mata Redonda"},{"id":"650268","latitude":"19.70000000","longitude":"-70.81666670","name":"Media Luna"},{"id":"650379","latitude":"19.73333330","longitude":"-70.91666670","name":"Monte Gordo"},{"id":"650393","latitude":"19.73333330","longitude":"-70.60000000","name":"Monte Llano"},{"id":"650425","latitude":"19.80000000","longitude":"-70.90000000","name":"Morillo"},{"id":"650429","latitude":"19.80000000","longitude":"-70.90000000","name":"Morrillo"},{"id":"650436","latitude":"19.71666670","longitude":"-70.58333330","name":"Mozov\u00ed"},{"id":"650441","latitude":"19.73333330","longitude":"-70.61666670","name":"Mu\u00f1oz"},{"id":"650454","latitude":"19.68333330","longitude":"-70.66666670","name":"Naranja Dulce"},{"id":"650461","latitude":"19.70000000","longitude":"-70.68333330","name":"Naranjal"},{"id":"650476","latitude":"19.73333330","longitude":"-70.78333330","name":"Naranjo Chino"},{"id":"650482","latitude":"19.68333330","longitude":"-70.66666670","name":"Naranjo Dulce"},{"id":"650527","latitude":"19.85000000","longitude":"-71.01666670","name":"Novillero"},{"id":"650540","latitude":"19.66666670","longitude":"-70.55000000","name":"Ojo de Agua"},{"id":"650545","latitude":"19.73333330","longitude":"-70.56666670","name":"Olgu\u00edn"},{"id":"650549","latitude":"19.73333330","longitude":"-70.56666670","name":"Olqu\u00edn"},{"id":"650585","latitude":"19.81666670","longitude":"-71.01666670","name":"Palero"},{"id":"650604","latitude":"19.68333330","longitude":"-70.90000000","name":"Palma de los Hierros"},{"id":"650626","latitude":"19.70000000","longitude":"-70.80000000","name":"Palmar Grande"},{"id":"650633","latitude":"19.60000000","longitude":"-70.73333330","name":"Palmarito"},{"id":"650647","latitude":"19.70000000","longitude":"-70.80000000","name":"Palmar"},{"id":"650672","latitude":"19.65000000","longitude":"-70.63333330","name":"Palo Blanco"},{"id":"650684","latitude":"19.71666670","longitude":"-70.90000000","name":"Palo de Guerra"},{"id":"650685","latitude":"19.85000000","longitude":"-70.81666670","name":"Palo de Indio"},{"id":"650689","latitude":"19.76666670","longitude":"-71.15000000","name":"Palo de Leche"},{"id":"650694","latitude":"19.85000000","longitude":"-70.81666670","name":"Palo Indio"},{"id":"650727","latitude":"19.66666670","longitude":"-70.93333330","name":"Paradero"},{"id":"650758","latitude":"19.68333330","longitude":"-70.93333330","name":"Paso de la Jagua"},{"id":"650766","latitude":"19.70000000","longitude":"-70.88333330","name":"Paso de los Burros"},{"id":"650868","latitude":"19.75000000","longitude":"-70.83333330","name":"P\u00e9rez"},{"id":"650872","latitude":"19.66666670","longitude":"-70.75000000","name":"Pescado Bobo Arriba"},{"id":"650873","latitude":"19.63333330","longitude":"-70.73333330","name":"Pescado Bobo"},{"id":"650886","latitude":"19.63333330","longitude":"-70.73333330","name":"P\u00ede de Jagua"},{"id":"650911","latitude":"19.73333330","longitude":"-70.73333330","name":"Piedra de Candela"},{"id":"650929","latitude":"19.63333330","longitude":"-70.76666670","name":"Pie Jagua"},{"id":"650966","latitude":"19.76666670","longitude":"-70.86666670","name":"Piragua Arriba"},{"id":"651036","latitude":"19.80000000","longitude":"-70.68333330","name":"Port Plata"},{"id":"651046","latitude":"19.83333330","longitude":"-71.05000000","name":"Pozo Bonito"},{"id":"651054","latitude":"19.90000000","longitude":"-71.01666670","name":"Pozo del Jobo"},{"id":"651062","latitude":"19.75000000","longitude":"-70.88333330","name":"Pozo Prieto"},{"id":"651104","latitude":"19.76666670","longitude":"-70.61666670","name":"Puerto Bergant\u00edn"},{"id":"651105","latitude":"19.88333330","longitude":"-70.98333330","name":"Puerto Caballo"},{"id":"651106","latitude":"19.88333330","longitude":"-70.98333330","name":"Puerto Cabello"},{"id":"651107","latitude":"19.90000000","longitude":"-70.95000000","name":"Puerto de Luperon"},{"id":"651116","latitude":"19.80000000","longitude":"-70.68333330","name":"Puerto Plata"},{"id":"651146","latitude":"19.83333330","longitude":"-71.23333330","name":"Punta Rucia"},{"id":"651157","latitude":"19.71666670","longitude":"-70.83333330","name":"Quebrada Honda"},{"id":"651178","latitude":"19.70000000","longitude":"-70.88333330","name":"Quita Sue\u00f1o"},{"id":"651199","latitude":"19.73333330","longitude":"-71.06666670","name":"Ranchete"},{"id":"651200","latitude":"19.76666670","longitude":"-70.93333330","name":"Ranchito de los Peralta"},{"id":"651201","latitude":"19.80000000","longitude":"-70.93333330","name":"Ranchito de los Vargas"},{"id":"651202","latitude":"19.80000000","longitude":"-70.96666670","name":"Ranchito"},{"id":"651211","latitude":"19.70000000","longitude":"-70.70000000","name":"Rancho Ambrosio"},{"id":"651219","latitude":"19.61666670","longitude":"-70.73333330","name":"Rancho Arriba"},{"id":"651223","latitude":"19.70000000","longitude":"-70.70000000","name":"Rancho de Ambrosio"},{"id":"651236","latitude":"19.76666670","longitude":"-70.93333330","name":"Rancho de los Peralta"},{"id":"651252","latitude":"19.81666670","longitude":"-71.20000000","name":"Rancho Manuel"},{"id":"651257","latitude":"19.65000000","longitude":"-70.81666670","name":"Rancho Nuevo"},{"id":"651274","latitude":"19.65000000","longitude":"-70.75000000","name":"Rancho Viejo"},{"id":"651310","latitude":"19.71666670","longitude":"-70.91666670","name":"Rinc\u00f3n Arriba"},{"id":"651313","latitude":"19.71666670","longitude":"-70.91666670","name":"Rinc\u00f3n Caliente"},{"id":"651378","latitude":"19.68333330","longitude":"-70.80000000","name":"R\u00edo Grande Abajo"},{"id":"651379","latitude":"19.66666670","longitude":"-70.78333330","name":"R\u00edo Grande al Medio"},{"id":"651380","latitude":"19.66666670","longitude":"-70.76666670","name":"R\u00edo Grande Arriba"},{"id":"651381","latitude":"19.66666670","longitude":"-70.76666670","name":"R\u00edo Grande"},{"id":"651420","latitude":"19.80000000","longitude":"-71.03333330","name":"Romerico"},{"id":"651433","latitude":"19.75000000","longitude":"-70.98333330","name":"Ruise\u00f1or"},{"id":"651434","latitude":"19.76666670","longitude":"-70.85000000","name":"Saballo"},{"id":"651439","latitude":"19.78333330","longitude":"-70.75000000","name":"Sabana Abajo"},{"id":"651463","latitude":"19.75000000","longitude":"-70.58333330","name":"Sabana de Cangrejo"},{"id":"651464","latitude":"19.75000000","longitude":"-70.58333330","name":"Sabana de Cangrejos"},{"id":"651478","latitude":"19.71666670","longitude":"-70.66666670","name":"Sabana de la Vig\u00eda"},{"id":"651480","latitude":"19.75000000","longitude":"-70.76666670","name":"Sabana del Corozo"},{"id":"651494","latitude":"19.70000000","longitude":"-70.70000000","name":"Sabana de los Muertos"},{"id":"651539","latitude":"19.76666670","longitude":"-70.66666670","name":"Sabana Grande"},{"id":"651587","latitude":"19.78333330","longitude":"-70.75000000","name":"Sabana"},{"id":"651598","latitude":"19.75000000","longitude":"-70.58333330","name":"Sabaneta de Cangrejos"},{"id":"651600","latitude":"19.66666670","longitude":"-70.38333330","name":"Sabaneta de Y\u00e1sica"},{"id":"651608","latitude":"19.66666670","longitude":"-70.38333330","name":"Sabaneta"},{"id":"651621","latitude":"19.76666670","longitude":"-70.66666670","name":"Sabina Grande"},{"id":"651657","latitude":"19.76666670","longitude":"-70.68333330","name":"Sampi\u00f1\u00e9"},{"id":"651658","latitude":"19.76666670","longitude":"-70.65000000","name":"Sampi\u00f1o"},{"id":"651685","latitude":"19.80000000","longitude":"-70.68333330","name":"San Felipe de Puerto Plata"},{"id":"651751","latitude":"19.78333330","longitude":"-70.71666670","name":"San Marcos Abajo"},{"id":"651752","latitude":"19.76666670","longitude":"-70.73333330","name":"San Marcos Arriba"},{"id":"651754","latitude":"19.80000000","longitude":"-70.71666670","name":"San Marcos"},{"id":"651851","latitude":"19.76666670","longitude":"-70.85000000","name":"Seballo"},{"id":"651903","latitude":"19.60000000","longitude":"-70.61666670","name":"Sonador"},{"id":"651910","latitude":"19.73333330","longitude":"-70.51666670","name":"Sos\u00faa Abajo"},{"id":"651911","latitude":"19.75000000","longitude":"-70.51666670","name":"Sos\u00faa"},{"id":"651914","latitude":"19.85000000","longitude":"-70.88333330","name":"Soufflet Grande"},{"id":"651915","latitude":"19.85000000","longitude":"-70.88333330","name":"Soufflet"},{"id":"651916","latitude":"19.85000000","longitude":"-70.88333330","name":"Souflet Grande"},{"id":"651923","latitude":"19.81666670","longitude":"-70.95000000","name":"Subida de los Muertos"},{"id":"651925","latitude":"19.83333330","longitude":"-70.96666670","name":"Subida del Puerto"},{"id":"651945","latitude":"19.80000000","longitude":"-71.15000000","name":"Tamaras"},{"id":"651946","latitude":"19.80000000","longitude":"-71.15000000","name":"Tamares"},{"id":"651951","latitude":"19.85000000","longitude":"-70.78333330","name":"Tamarindo"},{"id":"651960","latitude":"19.83333330","longitude":"-70.98333330","name":"Tasajera"},{"id":"651970","latitude":"19.80000000","longitude":"-70.75000000","name":"Tejas"},{"id":"651985","latitude":"19.80000000","longitude":"-71.23333330","name":"Tiburcio"},{"id":"652059","latitude":"19.66666670","longitude":"-70.61666670","name":"Tubagua"},{"id":"652068","latitude":"19.78333330","longitude":"-71.03333330","name":"Unijica"},{"id":"652075","latitude":"19.71666670","longitude":"-70.53333330","name":"Valedor"},{"id":"652122","latitude":"19.75000000","longitude":"-71.00000000","name":"Verraco"},{"id":"652173","latitude":"19.56666670","longitude":"-70.63333330","name":"Villa General Benito Martinez"},{"id":"652174","latitude":"19.56666670","longitude":"-70.61666670","name":"Villa General Benito"},{"id":"652183","latitude":"19.81666670","longitude":"-71.05000000","name":"Villa Isabela"},{"id":"652230","latitude":"19.71666670","longitude":"-70.96666670","name":"Vista Alegre"},{"id":"652238","latitude":"19.80000000","longitude":"-70.86666670","name":"Vuelta Larga al Medio"},{"id":"652240","latitude":"19.80000000","longitude":"-70.86666670","name":"Vuelta Larga"},{"id":"652283","latitude":"19.58333330","longitude":"-70.58333330","name":"Yaroa Abajo"},{"id":"652284","latitude":"19.60000000","longitude":"-70.58333330","name":"Yaroa"},{"id":"652285","latitude":"19.63333330","longitude":"-70.58333330","name":"Y\u00e1sica Abajo"},{"id":"652286","latitude":"19.55000000","longitude":"-70.55000000","name":"Yasica Arriba"},{"id":"652287","latitude":"19.63333330","longitude":"-70.58333330","name":"Yasica"},{"id":"652288","latitude":"19.61666670","longitude":"-70.58333330","name":"Yasiquita"}]