[{"id":"652347","latitude":"36.53333330","longitude":"5.05000000","name":"Abbachene"},{"id":"652368","latitude":"36.81666670","longitude":"4.66666670","name":"Abd el Moumene"},{"id":"652372","latitude":"36.58333330","longitude":"5.00000000","name":"Abe\u00efd"},{"id":"652379","latitude":"36.70000000","longitude":"5.06666670","name":"Aboudaou"},{"id":"652387","latitude":"36.78333330","longitude":"4.86666670","name":"Achelouf"},{"id":"652392","latitude":"36.69166670","longitude":"4.67500000","name":"Addekar-Kebouch"},{"id":"652393","latitude":"36.69166670","longitude":"4.67500000","name":"Adekar"},{"id":"652394","latitude":"36.69166670","longitude":"4.67500000","name":"Adekar-Kebouch"},{"id":"652395","latitude":"36.69166670","longitude":"4.67500000","name":"Adekar Kebouche"},{"id":"652404","latitude":"36.78333330","longitude":"5.03333330","name":"Adrar Farnou"},{"id":"652408","latitude":"36.25000000","longitude":"4.61666670","name":"Affirou"},{"id":"652420","latitude":"36.50000000","longitude":"5.15000000","name":"Aftis"},{"id":"652433","latitude":"36.61388890","longitude":"4.82166670","name":"Agourbi"},{"id":"652437","latitude":"36.41666670","longitude":"4.78333330","name":"Aguemonne Na\u00eft A\u00efssa"},{"id":"652439","latitude":"36.61666670","longitude":"5.38333330","name":"Aguemoun"},{"id":"652441","latitude":"36.41666670","longitude":"4.78333330","name":"Aguemoun-n-A\u00eft A\u00efssa"},{"id":"652443","latitude":"36.71666670","longitude":"4.71666670","name":"Aguemount-n-A\u00eft Amar"},{"id":"652462","latitude":"36.35000000","longitude":"4.68333330","name":"Ahourir"},{"id":"652463","latitude":"36.52777780","longitude":"5.35388890","name":"Ahrzerouftis"},{"id":"652466","latitude":"36.56666670","longitude":"5.28333330","name":"A\u00efdriss"},{"id":"652645","latitude":"36.41666670","longitude":"5.11666670","name":"A\u00efne Mergoum"},{"id":"652751","latitude":"36.41666670","longitude":"5.11666670","name":"'A\u00efn Mergoum"},{"id":"652840","latitude":"36.44722220","longitude":"4.37638890","name":"'A\u00efn Zebda"},{"id":"652849","latitude":"36.41666670","longitude":"5.11666670","name":"A\u00efrgouin"},{"id":"652851","latitude":"36.75000000","longitude":"4.80000000","name":"A\u00eft Abdallah"},{"id":"652859","latitude":"36.55000000","longitude":"4.96666670","name":"A\u00eft A\u00efssi"},{"id":"652874","latitude":"36.66666670","longitude":"4.98333330","name":"A\u00eft Bou Ziit"},{"id":"652875","latitude":"36.66666670","longitude":"4.98333330","name":"A\u00eft Bou Zit"},{"id":"652884","latitude":"36.43333330","longitude":"4.43333330","name":"A\u00eft Fdila"},{"id":"652892","latitude":"36.73333330","longitude":"4.71666670","name":"A\u00eft Idir"},{"id":"652894","latitude":"36.76666670","longitude":"4.91666670","name":"A\u00eft Ikhlef"},{"id":"652905","latitude":"36.75000000","longitude":"4.71666670","name":"A\u00eft Maamar"},{"id":"652906","latitude":"36.65000000","longitude":"4.63333330","name":"A\u00eft Mahiou"},{"id":"652910","latitude":"36.86666670","longitude":"4.75000000","name":"A\u00eft Menndil"},{"id":"652917","latitude":"36.58333330","longitude":"4.98333330","name":"A\u00eft Ou Yahya"},{"id":"652918","latitude":"36.58333330","longitude":"4.98333330","name":"A\u00eft Ou Yaya"},{"id":"652923","latitude":"36.75000000","longitude":"4.75000000","name":"A\u00eft Sa\u00efd"},{"id":"652925","latitude":"36.46666670","longitude":"4.45000000","name":"A\u00eft Sellam"},{"id":"652930","latitude":"36.73333330","longitude":"4.85000000","name":"A\u00eft Sma\u00efl"},{"id":"652937","latitude":"36.61666670","longitude":"4.76666670","name":"Akabiou"},{"id":"652942","latitude":"36.46111110","longitude":"4.53333330","name":"Akbou"},{"id":"652943","latitude":"36.61666670","longitude":"5.21666670","name":"Akbouch"},{"id":"652946","latitude":"36.63333330","longitude":"4.60000000","name":"Akfadou"},{"id":"652947","latitude":"36.46666670","longitude":"4.63333330","name":"Akourma"},{"id":"652968","latitude":"36.61666670","longitude":"5.25000000","name":"Aliouen"},{"id":"652969","latitude":"36.61666670","longitude":"5.25000000","name":"Aliouene"},{"id":"652970","latitude":"36.53333330","longitude":"5.23333330","name":"Ali Ou Mohammed"},{"id":"652974","latitude":"36.41666670","longitude":"4.45000000","name":"Allarhane"},{"id":"652983","latitude":"36.71666670","longitude":"4.95000000","name":"Amadene Foukam"},{"id":"652984","latitude":"36.58333330","longitude":"4.71666670","name":"Amagaz"},{"id":"652986","latitude":"36.48333330","longitude":"4.65000000","name":"Amalou"},{"id":"652995","latitude":"36.50000000","longitude":"4.93333330","name":"Amerzoug"},{"id":"653001","latitude":"36.64166670","longitude":"4.92083330","name":"Amizour"},{"id":"653015","latitude":"36.61666670","longitude":"4.76666670","name":"Amsioun"},{"id":"653016","latitude":"36.61666670","longitude":"4.76666670","name":"Amssioun"},{"id":"653026","latitude":"36.63333330","longitude":"5.25000000","name":"Andri\u00e8che"},{"id":"653036","latitude":"36.63333330","longitude":"5.25000000","name":"Aokas"},{"id":"653061","latitude":"36.35000000","longitude":"4.68333330","name":"Aourir"},{"id":"653062","latitude":"36.36666670","longitude":"4.81666670","name":"Aourir Ouelmi"},{"id":"653063","latitude":"36.36666670","longitude":"4.81666670","name":"Aourir Ou Eulmi"},{"id":"653066","latitude":"36.41666670","longitude":"4.83333330","name":"Arassa"},{"id":"653072","latitude":"36.56666670","longitude":"4.78333330","name":"Arbala"},{"id":"653102","latitude":"36.41666670","longitude":"4.83333330","name":"Arra\u00e7a"},{"id":"653104","latitude":"36.41666670","longitude":"4.83333330","name":"Arrassa"},{"id":"653120","latitude":"36.60000000","longitude":"4.98333330","name":"Asloun"},{"id":"653131","latitude":"36.83333330","longitude":"4.90000000","name":"Assoumat"},{"id":"653132","latitude":"36.78333330","longitude":"4.91666670","name":"Atalla"},{"id":"653162","latitude":"36.60000000","longitude":"4.61666670","name":"Azerou A\u00eft Chemini"},{"id":"653169","latitude":"36.70000000","longitude":"5.06666670","name":"Azib Aboudaou"},{"id":"653170","latitude":"36.50000000","longitude":"5.21666670","name":"Azib"},{"id":"653171","latitude":"36.53333330","longitude":"4.61638890","name":"Azib Ben Ali Ch\u00e9rif"},{"id":"653174","latitude":"36.83333330","longitude":"4.71666670","name":"Azib Takhlicht"},{"id":"653186","latitude":"36.65000000","longitude":"4.93333330","name":"Azrou Bou Ammar"},{"id":"653187","latitude":"36.60000000","longitude":"4.61666670","name":"Azrou-n-A\u00eft Chemini"},{"id":"653225","latitude":"36.56666670","longitude":"4.96666670","name":"Barbacha"},{"id":"653236","latitude":"36.56666670","longitude":"5.10000000","name":"Bayou"},{"id":"653257","latitude":"36.75000000","longitude":"5.08333330","name":"Beja\u00efa"},{"id":"653274","latitude":"36.31666670","longitude":"4.56666670","name":"Bel Ayel"},{"id":"653343","latitude":"36.53333330","longitude":"5.23333330","name":"Beni Abdallah"},{"id":"653372","latitude":"36.50000000","longitude":"4.71666670","name":"Beni Dja'\u00e2d"},{"id":"653373","latitude":"36.50000000","longitude":"4.71666670","name":"Beni Djiad"},{"id":"653378","latitude":"36.70000000","longitude":"5.01666670","name":"Beni Embarek"},{"id":"653384","latitude":"36.56666670","longitude":"5.10000000","name":"Beni Guenndourz"},{"id":"653385","latitude":"36.39166670","longitude":"4.80833330","name":"Beni Hafedh"},{"id":"653386","latitude":"36.39166670","longitude":"4.80833330","name":"Beni Hafod"},{"id":"653410","latitude":"36.33611110","longitude":"4.35222220","name":"Beni-Mancour"},{"id":"653411","latitude":"36.33611110","longitude":"4.35222220","name":"Beni Mansour"},{"id":"653412","latitude":"36.33611110","longitude":"4.35222220","name":"Beni Masour"},{"id":"653414","latitude":"36.70000000","longitude":"5.01666670","name":"Beni M'Bareck"},{"id":"653434","latitude":"36.45000000","longitude":"4.40000000","name":"Beni Ou 'Ammar"},{"id":"653436","latitude":"36.33333330","longitude":"4.43333330","name":"Beni Ouiden"},{"id":"653437","latitude":"36.33333330","longitude":"4.43333330","name":"Beni Ouidene"},{"id":"653446","latitude":"36.45000000","longitude":"4.48333330","name":"Beni Sellam"},{"id":"653465","latitude":"36.71666670","longitude":"4.91666670","name":"Ben Mannsour"},{"id":"653509","latitude":"36.60000000","longitude":"4.90000000","name":"Berdoun"},{"id":"653518","latitude":"36.61666670","longitude":"4.66666670","name":"Bermafou"},{"id":"653543","latitude":"36.81666670","longitude":"4.71666670","name":"Bezit"},{"id":"653546","latitude":"36.38333330","longitude":"4.63333330","name":"Bicher"},{"id":"653662","latitude":"36.46666670","longitude":"4.90000000","name":"Bondjih"},{"id":"653791","latitude":"36.58333330","longitude":"4.95000000","name":"Bou A\u00efch"},{"id":"653823","latitude":"36.63333330","longitude":"5.40000000","name":"Bou Beker"},{"id":"653825","latitude":"36.75000000","longitude":"4.90000000","name":"Bou Berka"},{"id":"653830","latitude":"36.36666670","longitude":"4.50000000","name":"Bouchakfa"},{"id":"653842","latitude":"36.85000000","longitude":"4.81666670","name":"Bou Daoud"},{"id":"653849","latitude":"36.33611110","longitude":"4.35222220","name":"Boudjellil"},{"id":"653850","latitude":"36.35000000","longitude":"4.41666670","name":"Bou Djellil"},{"id":"653880","latitude":"36.75000000","longitude":"5.08333330","name":"Bougie"},{"id":"653904","latitude":"36.43333330","longitude":"4.70000000","name":"Bou Hamza"},{"id":"653911","latitude":"36.80000000","longitude":"4.88333330","name":"Bou Hatem"},{"id":"653925","latitude":"36.51666670","longitude":"5.18333330","name":"Bou Imane"},{"id":"653982","latitude":"36.65000000","longitude":"4.90000000","name":"Boukhalfa"},{"id":"653992","latitude":"36.65000000","longitude":"4.90000000","name":"Boukhralfa"},{"id":"653999","latitude":"36.28333330","longitude":"4.58333330","name":"Boukten"},{"id":"654000","latitude":"36.28333330","longitude":"4.58333330","name":"Bouktene"},{"id":"654023","latitude":"36.60000000","longitude":"4.63333330","name":"Bou Mellal"},{"id":"654027","latitude":"36.63333330","longitude":"4.98333330","name":"Bou Meraou"},{"id":"654034","latitude":"36.63333330","longitude":"4.98333330","name":"Bou Mraou"},{"id":"654040","latitude":"36.56666670","longitude":"4.81666670","name":"Bou Na\u00efm"},{"id":"654041","latitude":"36.28333330","longitude":"4.61666670","name":"Bounda el Kebira"},{"id":"654042","latitude":"36.30000000","longitude":"4.63333330","name":"Bounda Serhira"},{"id":"654043","latitude":"36.30000000","longitude":"4.63333330","name":"Bounda Serira"},{"id":"654054","latitude":"36.51666670","longitude":"5.25000000","name":"Bou Rallel"},{"id":"654056","latitude":"36.43333330","longitude":"4.93333330","name":"Bou Rdim"},{"id":"654069","latitude":"36.60000000","longitude":"4.95000000","name":"Bouridene"},{"id":"654076","latitude":"36.56666670","longitude":"5.06666670","name":"Bourzeg"},{"id":"654085","latitude":"36.43333330","longitude":"4.96666670","name":"Bou Sellouten"},{"id":"654086","latitude":"36.43333330","longitude":"4.96666670","name":"Bou Selloutene"},{"id":"654108","latitude":"36.60000000","longitude":"5.26666670","name":"Bou Tala"},{"id":"654113","latitude":"36.36666670","longitude":"4.61666670","name":"Boutouab"},{"id":"654140","latitude":"36.48333330","longitude":"4.98333330","name":"Bou Zekout"},{"id":"654190","latitude":"36.75000000","longitude":"5.06666670","name":"Camp Inf\u00e9rieur"},{"id":"654193","latitude":"36.63333330","longitude":"5.25000000","name":"Cap Aokas"},{"id":"654209","latitude":"36.57194440","longitude":"5.29805560","name":"Centre Darguinah"},{"id":"654278","latitude":"36.33333330","longitude":"4.61666670","name":"Chekbout"},{"id":"654291","latitude":"36.51944440","longitude":"4.49750000","name":"Chellata"},{"id":"654293","latitude":"36.60000000","longitude":"4.61666670","name":"Chemini"},{"id":"654319","latitude":"36.51666670","longitude":"5.13333330","name":"Cherea"},{"id":"654329","latitude":"36.71666670","longitude":"4.76666670","name":"Cheurfa"},{"id":"654355","latitude":"36.41666670","longitude":"4.88333330","name":"Chouf"},{"id":"654389","latitude":"36.64166670","longitude":"4.92083330","name":"Colmar"},{"id":"654475","latitude":"36.57194440","longitude":"5.29805560","name":"Darguina"},{"id":"654476","latitude":"36.57194440","longitude":"5.29805560","name":"Darguinah"},{"id":"654477","latitude":"36.57194440","longitude":"5.29805560","name":"Darguinih"},{"id":"654531","latitude":"36.51666670","longitude":"5.18333330","name":"Dechera Bou Imane"},{"id":"654533","latitude":"36.51666670","longitude":"5.16666670","name":"Dechera Irhil Izegouarene"},{"id":"654638","latitude":"36.36666670","longitude":"4.78333330","name":"Djahnit"},{"id":"654649","latitude":"36.41666670","longitude":"4.83333330","name":"Djborni"},{"id":"654659","latitude":"36.80000000","longitude":"4.75000000","name":"Djeblaa"},{"id":"654667","latitude":"36.60000000","longitude":"4.93333330","name":"Djelada"},{"id":"654687","latitude":"36.63333330","longitude":"5.41666670","name":"Djenane"},{"id":"654710","latitude":"36.60000000","longitude":"5.23333330","name":"Djermana"},{"id":"654712","latitude":"36.80000000","longitude":"4.73333330","name":"Djerra"},{"id":"656041","latitude":"36.55000000","longitude":"4.98333330","name":"El Bir"},{"id":"656061","latitude":"36.46666670","longitude":"4.78333330","name":"El Djabia"},{"id":"656068","latitude":"36.66666670","longitude":"4.81666670","name":"El Djenane"},{"id":"656070","latitude":"36.66666670","longitude":"4.81666670","name":"El Djenene"},{"id":"656071","latitude":"36.66666670","longitude":"4.81666670","name":"El Djenen"},{"id":"656083","latitude":"36.60833330","longitude":"4.67500000","name":"El Felaye"},{"id":"656086","latitude":"36.60833330","longitude":"4.67500000","name":"El Flaye"},{"id":"656134","latitude":"36.75000000","longitude":"4.98333330","name":"El Hadabbab"},{"id":"656135","latitude":"36.75000000","longitude":"4.98333330","name":"El Hadabbad"},{"id":"656178","latitude":"36.63333330","longitude":"4.86666670","name":"El Hammam"},{"id":"656182","latitude":"36.63333330","longitude":"4.86666670","name":"El Hamman"},{"id":"656258","latitude":"36.58333330","longitude":"4.96666670","name":"El Ke\u00eftoun"},{"id":"656260","latitude":"36.65000000","longitude":"4.66666670","name":"El Kelaa Ouadda"},{"id":"656276","latitude":"36.66666670","longitude":"4.81666670","name":"El Kharoub"},{"id":"656278","latitude":"36.66666670","longitude":"4.81666670","name":"El Kharro\u00fbb"},{"id":"656332","latitude":"36.68333330","longitude":"4.85000000","name":"El Kseur"},{"id":"656348","latitude":"36.53333330","longitude":"4.51666670","name":"El Ma"},{"id":"656356","latitude":"36.36666670","longitude":"4.75000000","name":"El Ma\u00efn"},{"id":"656378","latitude":"36.65000000","longitude":"4.77361110","name":"El Maten"},{"id":"656402","latitude":"36.48333330","longitude":"5.33333330","name":"El Menchar"},{"id":"656403","latitude":"36.48333330","longitude":"5.33333330","name":"El Mennchar"},{"id":"656410","latitude":"36.50000000","longitude":"5.31666670","name":"El Merdj"},{"id":"656414","latitude":"36.63333330","longitude":"5.05000000","name":"El Meroudj"},{"id":"656624","latitude":"36.50000000","longitude":"4.53333330","name":"Feldene"},{"id":"656625","latitude":"36.50000000","longitude":"4.53333330","name":"Felden"},{"id":"656632","latitude":"36.54166670","longitude":"4.87166670","name":"Feraoun"},{"id":"656638","latitude":"36.45000000","longitude":"4.76666670","name":"Fereha"},{"id":"656659","latitude":"36.66666670","longitude":"4.68333330","name":"Fetala"},{"id":"656662","latitude":"36.45000000","longitude":"5.21666670","name":"Fitchou"},{"id":"656719","latitude":"36.55000000","longitude":"4.86666670","name":"Ganntas"},{"id":"656720","latitude":"36.55000000","longitude":"4.86666670","name":"Gantas"},{"id":"656786","latitude":"36.29166670","longitude":"4.58333330","name":"Guelaa"},{"id":"656800","latitude":"36.43333330","longitude":"5.16666670","name":"Guemchouch"},{"id":"656801","latitude":"36.43333330","longitude":"5.16666670","name":"Guemehouch"},{"id":"656803","latitude":"36.46666670","longitude":"4.75000000","name":"Guemoune"},{"id":"656804","latitude":"36.46666670","longitude":"4.75000000","name":"Guemoun"},{"id":"656807","latitude":"36.37444440","longitude":"4.48888890","name":"Guendouze"},{"id":"656808","latitude":"36.37444440","longitude":"4.48888890","name":"Guendouz"},{"id":"656812","latitude":"36.37444440","longitude":"4.48888890","name":"Guenndouz"},{"id":"656877","latitude":"36.32722220","longitude":"4.43638890","name":"Hainda"},{"id":"656896","latitude":"36.32722220","longitude":"4.43638890","name":"Hamda"},{"id":"656955","latitude":"36.40000000","longitude":"4.51666670","name":"Handis"},{"id":"656956","latitude":"36.65000000","longitude":"4.66666670","name":"Haniet"},{"id":"656957","latitude":"36.40000000","longitude":"4.51666670","name":"Hanndis"},{"id":"656982","latitude":"36.58333330","longitude":"4.51666670","name":"Haoura"},{"id":"657054","latitude":"36.46666670","longitude":"4.91666670","name":"Hiltene"},{"id":"657055","latitude":"36.46666670","longitude":"4.91666670","name":"Hilten"},{"id":"657068","latitude":"36.61666670","longitude":"4.78333330","name":"Iachourene"},{"id":"657072","latitude":"36.75000000","longitude":"4.91666670","name":"Ibaouchene"},{"id":"657073","latitude":"36.75000000","longitude":"4.83333330","name":"Ibarissene"},{"id":"657075","latitude":"36.45305560","longitude":"4.41027780","name":"Ibeljiouene"},{"id":"657079","latitude":"36.76666670","longitude":"5.03333330","name":"Ibouhathmane"},{"id":"657080","latitude":"36.76666670","longitude":"5.03333330","name":"Ibouhathman"},{"id":"657082","latitude":"36.76666670","longitude":"4.78333330","name":"Ichekfiouine"},{"id":"657097","latitude":"36.55000000","longitude":"4.55000000","name":"Ifri"},{"id":"657098","latitude":"36.33333330","longitude":"4.46666670","name":"Ighil-Ali"},{"id":"657100","latitude":"36.46666670","longitude":"4.51666670","name":"Ighram"},{"id":"657114","latitude":"36.73333330","longitude":"5.05000000","name":"Ihaddadem"},{"id":"657115","latitude":"36.73333330","longitude":"5.05000000","name":"Ihaddadene"},{"id":"657116","latitude":"36.83333330","longitude":"4.80000000","name":"Ihaggarene"},{"id":"657117","latitude":"36.65000000","longitude":"4.95000000","name":"Iha\u00efonnene"},{"id":"657118","latitude":"36.65000000","longitude":"4.95000000","name":"Iha\u00efounene"},{"id":"657123","latitude":"36.73333330","longitude":"4.63333330","name":"Ihilt-Keroun"},{"id":"657127","latitude":"36.76666670","longitude":"5.01666670","name":"Ikoubab"},{"id":"657129","latitude":"36.71666670","longitude":"4.75000000","name":"Iksilene"},{"id":"657136","latitude":"36.65000000","longitude":"4.77361110","name":"Il Matene"},{"id":"657137","latitude":"36.65000000","longitude":"4.77361110","name":"Il Maten"},{"id":"657138","latitude":"36.65000000","longitude":"4.77361110","name":"Il Matten"},{"id":"657142","latitude":"36.58333330","longitude":"4.73333330","name":"Immoula"},{"id":"657144","latitude":"36.58333330","longitude":"4.73333330","name":"Imoula"},{"id":"657165","latitude":"36.33333330","longitude":"4.46666670","name":"Irhil Ali"},{"id":"657166","latitude":"36.63333330","longitude":"4.93333330","name":"Irhil Alouanene"},{"id":"657175","latitude":"36.46666670","longitude":"5.28333330","name":"Irhil Emda"},{"id":"657177","latitude":"36.60000000","longitude":"5.03333330","name":"Irhil Hassene"},{"id":"657179","latitude":"36.63333330","longitude":"5.11666670","name":"Irhil Igrane"},{"id":"657181","latitude":"36.61666670","longitude":"5.16666670","name":"Irhil Isly"},{"id":"657182","latitude":"36.51666670","longitude":"5.16666670","name":"Irhil Izegouarene"},{"id":"657185","latitude":"36.46666670","longitude":"5.28333330","name":"Irhill Enda"},{"id":"657188","latitude":"36.58333330","longitude":"5.20000000","name":"Irhil Merzoug"},{"id":"657190","latitude":"36.83333330","longitude":"4.88333330","name":"Irhil N'Sa\u00efd"},{"id":"657193","latitude":"36.63333330","longitude":"4.93333330","name":"Irhil Ollouanene"},{"id":"657194","latitude":"36.55000000","longitude":"4.71666670","name":"Irhil Ouandtar"},{"id":"657195","latitude":"36.55000000","longitude":"4.75000000","name":"Irhil Oumelloulene"},{"id":"657196","latitude":"36.51666670","longitude":"4.56666670","name":"Irhil Oumessed"},{"id":"657197","latitude":"36.63333330","longitude":"4.91666670","name":"Irhil Ouzenag"},{"id":"657199","latitude":"36.63333330","longitude":"4.91666670","name":"Irhil Ouznag"},{"id":"657200","latitude":"36.76666670","longitude":"4.96666670","name":"Irhil Resfene"},{"id":"657201","latitude":"36.73333330","longitude":"4.63333330","name":"Irhilt Keroun"},{"id":"657202","latitude":"36.46666670","longitude":"4.51666670","name":"Irhram"},{"id":"657204","latitude":"36.76666670","longitude":"4.73333330","name":"Irhzer Abbas"},{"id":"657205","latitude":"36.53333330","longitude":"4.61638890","name":"Irhzer Amokrane"},{"id":"657208","latitude":"36.53333330","longitude":"5.33333330","name":"Irhzer Ou Ftis"},{"id":"657209","latitude":"36.33333330","longitude":"4.46666670","name":"Iril Ali"},{"id":"657211","latitude":"36.46666670","longitude":"5.28333330","name":"Iril-Emda"},{"id":"657212","latitude":"36.58333330","longitude":"5.20000000","name":"Iril Merzoug"},{"id":"657213","latitude":"36.55000000","longitude":"4.71666670","name":"Iril Ou Andtar"},{"id":"657214","latitude":"36.51666670","longitude":"4.56666670","name":"Iril Ou Meced"},{"id":"657215","latitude":"36.55000000","longitude":"4.75000000","name":"Iril Ou Melloulen"},{"id":"657219","latitude":"36.63333330","longitude":"4.68333330","name":"Irouflene"},{"id":"657220","latitude":"36.63333330","longitude":"4.68333330","name":"Irouflen"},{"id":"657221","latitude":"36.76666670","longitude":"4.66666670","name":"Irtabene"},{"id":"657222","latitude":"36.53333330","longitude":"4.61638890","name":"Irzer Amokrane"},{"id":"657223","latitude":"36.53333330","longitude":"5.33333330","name":"Irzer Ou Ftis"},{"id":"657224","latitude":"36.83333330","longitude":"4.91666670","name":"Isbikene"},{"id":"657225","latitude":"36.55000000","longitude":"5.13333330","name":"Isdra"},{"id":"657233","latitude":"36.55000000","longitude":"4.55000000","name":"Issouane"},{"id":"657234","latitude":"36.55000000","longitude":"4.55000000","name":"Issouan"},{"id":"657236","latitude":"36.76666670","longitude":"4.98333330","name":"Issoummar"},{"id":"657280","latitude":"36.25000000","longitude":"4.60000000","name":"Kariou"},{"id":"657298","latitude":"36.69166670","longitude":"4.67500000","name":"Kebouch"},{"id":"657316","latitude":"36.58333330","longitude":"5.06666670","name":"Kembita"},{"id":"657323","latitude":"36.58333330","longitude":"5.06666670","name":"Kenndirou"},{"id":"657339","latitude":"36.49500000","longitude":"5.28083330","name":"Kerrata"},{"id":"657340","latitude":"36.49500000","longitude":"5.28083330","name":"Kerrato"},{"id":"657372","latitude":"36.55000000","longitude":"4.95000000","name":"Khelil"},{"id":"657393","latitude":"36.49500000","longitude":"5.28083330","name":"Kherrata"},{"id":"657444","latitude":"36.61666670","longitude":"4.88333330","name":"Ksantina"},{"id":"657514","latitude":"36.45000000","longitude":"4.80000000","name":"Lakhouabi"},{"id":"657569","latitude":"36.70000000","longitude":"4.98333330","name":"La R\u00e9union"},{"id":"657658","latitude":"36.64638890","longitude":"5.38055560","name":"Les Falaises"},{"id":"657737","latitude":"36.43333330","longitude":"4.65000000","name":"Maffouda"},{"id":"657744","latitude":"36.76666670","longitude":"4.60000000","name":"Magoura"},{"id":"657750","latitude":"36.43333330","longitude":"4.65000000","name":"Mahafouda"},{"id":"657758","latitude":"36.43333330","longitude":"4.65000000","name":"Mahfouda"},{"id":"657781","latitude":"36.61666670","longitude":"4.66666670","name":"Maksene"},{"id":"657782","latitude":"36.61666670","longitude":"4.66666670","name":"Maksen"},{"id":"657792","latitude":"36.65000000","longitude":"5.08333330","name":"Mannsouga"},{"id":"657795","latitude":"36.65000000","longitude":"5.03333330","name":"Mannzekouane"},{"id":"657796","latitude":"36.65000000","longitude":"5.08333330","name":"Mansouga Iamarene"},{"id":"657805","latitude":"36.65000000","longitude":"5.03333330","name":"Manzekouane"},{"id":"659193","latitude":"36.43333330","longitude":"5.25000000","name":"Mechtat Ziane"},{"id":"659207","latitude":"36.43333330","longitude":"5.25000000","name":"Mechta Ziane"},{"id":"659398","latitude":"36.68333330","longitude":"4.88333330","name":"Melekhiaz"},{"id":"659399","latitude":"36.68333330","longitude":"4.88333330","name":"Melekhlaz"},{"id":"659406","latitude":"36.71666670","longitude":"5.01666670","name":"Mellala"},{"id":"659485","latitude":"36.41666670","longitude":"5.15000000","name":"Mestham"},{"id":"659509","latitude":"36.46111110","longitude":"4.53333330","name":"Metz"},{"id":"659511","latitude":"36.53333330","longitude":"5.08333330","name":"Mezada"},{"id":"659515","latitude":"36.60000000","longitude":"4.65000000","name":"Mezgoug"},{"id":"659517","latitude":"36.50000000","longitude":"4.78333330","name":"M\u00e9zita"},{"id":"659521","latitude":"36.35000000","longitude":"4.75000000","name":"Mezrareg"},{"id":"659522","latitude":"36.35000000","longitude":"4.75000000","name":"Mezrar\u00e8gue"},{"id":"659534","latitude":"36.86666670","longitude":"4.76666670","name":"Mindjou"},{"id":"659535","latitude":"36.86666670","longitude":"4.76666670","name":"Minndjou"},{"id":"659617","latitude":"36.33333330","longitude":"4.46666670","name":"Mouka"},{"id":"659633","latitude":"36.61666670","longitude":"5.30000000","name":"Mrah"},{"id":"659644","latitude":"36.60000000","longitude":"5.25000000","name":"M'Sbah"},{"id":"659665","latitude":"36.65000000","longitude":"4.66666670","name":"Mzid"},{"id":"659666","latitude":"36.50000000","longitude":"4.78333330","name":"Mzita"},{"id":"659681","latitude":"36.70000000","longitude":"5.03333330","name":"N'A\u00eft Hamouda"},{"id":"659761","latitude":"36.30000000","longitude":"4.66666670","name":"Ouchanene"},{"id":"659770","latitude":"36.64166670","longitude":"4.92083330","name":"Oued Amizour"},{"id":"659772","latitude":"36.66666670","longitude":"4.78333330","name":"Oued Bel Kacem"},{"id":"659773","latitude":"36.66666670","longitude":"4.78333330","name":"Oued Bel Kassem"},{"id":"659806","latitude":"36.70000000","longitude":"4.98333330","name":"Oued Ghir"},{"id":"659812","latitude":"36.63333330","longitude":"5.25000000","name":"Oued Marsa"},{"id":"659817","latitude":"36.70000000","longitude":"4.98333330","name":"Oued Rhir"},{"id":"659819","latitude":"36.35472220","longitude":"4.35694440","name":"Oued Sahel"},{"id":"659842","latitude":"36.75000000","longitude":"4.68333330","name":"Ouenouga"},{"id":"659852","latitude":"36.36666670","longitude":"4.55000000","name":"Ouizrane"},{"id":"659853","latitude":"36.36666670","longitude":"4.55000000","name":"Ouizran"},{"id":"659870","latitude":"36.50000000","longitude":"5.41666670","name":"Oulad A\u00efed"},{"id":"659874","latitude":"36.30000000","longitude":"4.56666670","name":"Oulad A\u00efssa"},{"id":"659879","latitude":"36.43333330","longitude":"5.00000000","name":"Oulad Ali Ben Athmane"},{"id":"659880","latitude":"36.43333330","longitude":"5.00000000","name":"Oulad Ali Ben Athman"},{"id":"659900","latitude":"36.50000000","longitude":"4.46666670","name":"Oulad Amarou Zeggane"},{"id":"659904","latitude":"36.45000000","longitude":"5.10000000","name":"Oulad Amor"},{"id":"660004","latitude":"36.53333330","longitude":"5.26666670","name":"Oulad Embarek"},{"id":"660006","latitude":"36.53333330","longitude":"5.38333330","name":"Oulad er Rouni"},{"id":"660032","latitude":"36.58333330","longitude":"5.31666670","name":"Oulad Laage"},{"id":"660033","latitude":"36.58333330","longitude":"5.31666670","name":"Oulad Laag"},{"id":"660048","latitude":"36.53333330","longitude":"5.26666670","name":"Oulad M'Barek"},{"id":"660094","latitude":"36.43333330","longitude":"5.10000000","name":"Oulad Salem"},{"id":"660140","latitude":"36.55000000","longitude":"5.25000000","name":"Oulad Ta\u00efssiout"},{"id":"660188","latitude":"36.50000000","longitude":"5.41666670","name":"Ouled A\u00efed"},{"id":"660191","latitude":"36.30000000","longitude":"4.56666670","name":"Ouled A\u00efssa"},{"id":"660212","latitude":"36.50000000","longitude":"4.46666670","name":"Ouled Amar Ou Zguane"},{"id":"660558","latitude":"36.53333330","longitude":"4.91666670","name":"Oundadja"},{"id":"660925","latitude":"36.25000000","longitude":"4.65000000","name":"Satour"},{"id":"660944","latitude":"36.51666670","longitude":"4.71666670","name":"Seddouck Oufellah"},{"id":"660945","latitude":"36.51666670","longitude":"4.71666670","name":"Seddouk Oufellah"},{"id":"660946","latitude":"36.51666670","longitude":"4.71666670","name":"Seddouk Oufella"},{"id":"660947","latitude":"36.54722220","longitude":"4.68611110","name":"Seddouk"},{"id":"660970","latitude":"36.61666670","longitude":"4.80000000","name":"Semaoune"},{"id":"660971","latitude":"36.60000000","longitude":"4.58333330","name":"Semaoun"},{"id":"661022","latitude":"36.60833330","longitude":"4.68388890","name":"Sidi A\u00efch"},{"id":"661023","latitude":"36.61666670","longitude":"4.71666670","name":"Sidi A\u00efd"},{"id":"661076","latitude":"36.68333330","longitude":"4.98333330","name":"Sidi Bou Daoud"},{"id":"661271","latitude":"36.23333330","longitude":"4.61666670","name":"Siour"},{"id":"661288","latitude":"36.61666670","longitude":"4.80000000","name":"Smaoun"},{"id":"661330","latitude":"36.62750000","longitude":"5.33722220","name":"Souk el Tenine"},{"id":"661332","latitude":"36.62750000","longitude":"5.33722220","name":"Souk-el-Tnine"},{"id":"661334","latitude":"36.62750000","longitude":"5.33722220","name":"Souk et Tenine"},{"id":"661335","latitude":"36.56666670","longitude":"4.96666670","name":"Souk et Tl\u00e9ta"},{"id":"661337","latitude":"36.62750000","longitude":"5.33722220","name":"Souk et Tnine"},{"id":"661372","latitude":"36.66666670","longitude":"4.93333330","name":"Ta Arkannt"},{"id":"661373","latitude":"36.66666670","longitude":"4.93333330","name":"Taarkant"},{"id":"661374","latitude":"36.73333330","longitude":"4.96666670","name":"Taazibt"},{"id":"661394","latitude":"36.46666670","longitude":"4.71666670","name":"Tachaouef"},{"id":"661403","latitude":"36.45000000","longitude":"4.40000000","name":"Taddart Gouadda"},{"id":"661406","latitude":"36.63333330","longitude":"5.00000000","name":"Taddert Amokhane"},{"id":"661407","latitude":"36.70000000","longitude":"4.86666670","name":"Taddert Ou Arabene"},{"id":"661408","latitude":"36.45000000","longitude":"4.40000000","name":"Taddert-Ouedda"},{"id":"661427","latitude":"36.85000000","longitude":"4.86666670","name":"Tadrart"},{"id":"661442","latitude":"36.65000000","longitude":"4.63333330","name":"Tafraoute"},{"id":"661444","latitude":"36.65000000","longitude":"4.63333330","name":"Tafraout"},{"id":"661457","latitude":"36.55000000","longitude":"4.88333330","name":"Tagma"},{"id":"661461","latitude":"36.60000000","longitude":"5.16666670","name":"Tagouba"},{"id":"661462","latitude":"36.46666670","longitude":"4.80000000","name":"Tagounit Irhil"},{"id":"661470","latitude":"36.86666670","longitude":"4.78333330","name":"Taguelminnt"},{"id":"661478","latitude":"36.61666670","longitude":"5.00000000","name":"Taguemount"},{"id":"661479","latitude":"36.46666670","longitude":"4.80000000","name":"Taguenit Irhil"},{"id":"661480","latitude":"36.46666670","longitude":"4.80000000","name":"Taguenit Iril"},{"id":"661485","latitude":"36.63333330","longitude":"5.15000000","name":"Tahalkats"},{"id":"661494","latitude":"36.43333330","longitude":"4.41666670","name":"Taharkatine"},{"id":"661510","latitude":"36.56111110","longitude":"4.67222220","name":"Takaats"},{"id":"661511","latitude":"36.85000000","longitude":"4.76666670","name":"Takabah"},{"id":"661512","latitude":"36.68333330","longitude":"4.65000000","name":"Takamra"},{"id":"661516","latitude":"36.45000000","longitude":"5.18333330","name":"Takendoukt"},{"id":"661519","latitude":"36.51666670","longitude":"5.11666670","name":"Takerkart"},{"id":"661522","latitude":"36.61666670","longitude":"4.75000000","name":"Takhlijt-n-Tasga"},{"id":"661523","latitude":"36.58361110","longitude":"4.56944440","name":"Takhlijt"},{"id":"661525","latitude":"36.50000000","longitude":"5.18333330","name":"Takleat"},{"id":"661526","latitude":"36.58361110","longitude":"4.56944440","name":"Taklicht"},{"id":"661527","latitude":"36.60000000","longitude":"4.85000000","name":"Takorabt"},{"id":"661530","latitude":"36.35000000","longitude":"4.50000000","name":"Takourrabet"},{"id":"661531","latitude":"36.61666670","longitude":"4.75000000","name":"Takrelicht N'Tasga"},{"id":"661535","latitude":"36.41666670","longitude":"4.98333330","name":"Taksebt"},{"id":"661539","latitude":"36.75000000","longitude":"5.01666670","name":"Tala el Kseur"},{"id":"661541","latitude":"36.78333330","longitude":"4.86666670","name":"Tala Hiba"},{"id":"661549","latitude":"36.60000000","longitude":"4.93333330","name":"Tala Ouzrar"},{"id":"661553","latitude":"36.46666670","longitude":"5.13333330","name":"Tala Yfaeen"},{"id":"661554","latitude":"36.46666670","longitude":"5.13333330","name":"Tala Yfassene"},{"id":"661556","latitude":"36.68333330","longitude":"5.10000000","name":"Talendjast"},{"id":"661557","latitude":"36.68333330","longitude":"5.10000000","name":"Talenndjast"},{"id":"661595","latitude":"36.40000000","longitude":"4.66666670","name":"Tamokra"},{"id":"661596","latitude":"36.56666670","longitude":"5.36666670","name":"Tamricht"},{"id":"661606","latitude":"36.58333330","longitude":"4.93333330","name":"Taorirt"},{"id":"661624","latitude":"36.48333330","longitude":"4.90000000","name":"Taourirt Arassiene"},{"id":"661625","latitude":"36.48333330","longitude":"4.90000000","name":"Taourirt Arassien"},{"id":"661628","latitude":"36.58333330","longitude":"4.91666670","name":"Taourirt el Had"},{"id":"661630","latitude":"36.61666670","longitude":"5.15000000","name":"Taourirt Hefouzalt"},{"id":"661631","latitude":"36.70000000","longitude":"4.70000000","name":"Taourirt Ighil"},{"id":"661632","latitude":"36.70000000","longitude":"4.70000000","name":"Taourirt Irhil"},{"id":"661633","latitude":"36.70000000","longitude":"4.70000000","name":"Taourirt Iril"},{"id":"661634","latitude":"36.53333330","longitude":"5.01666670","name":"Taourirt Maafa"},{"id":"661638","latitude":"36.65000000","longitude":"4.65000000","name":"Taourirt-n-A\u00eft Ou A\u00efssa"},{"id":"661639","latitude":"36.58333330","longitude":"4.93333330","name":"Taourirt n'Dzignit"},{"id":"661642","latitude":"36.40000000","longitude":"4.55000000","name":"Taourirt Ouabla"},{"id":"661643","latitude":"36.73333330","longitude":"4.80000000","name":"Taourirt Sa\u00efd Arab"},{"id":"661646","latitude":"36.46666670","longitude":"4.75000000","name":"Taourirt"},{"id":"661656","latitude":"36.81666670","longitude":"4.93333330","name":"Taranimt"},{"id":"661657","latitude":"36.80000000","longitude":"4.80000000","name":"Tardam"},{"id":"661660","latitude":"36.46666670","longitude":"4.86666670","name":"Tarfat"},{"id":"661685","latitude":"36.50000000","longitude":"4.90000000","name":"Tarourfet"},{"id":"661688","latitude":"36.56666670","longitude":"5.25000000","name":"Tarzouth"},{"id":"661694","latitude":"36.56666670","longitude":"5.25000000","name":"Taskriout"},{"id":"661700","latitude":"36.47000000","longitude":"4.47944440","name":"Tasselennt"},{"id":"661701","latitude":"36.47000000","longitude":"4.47944440","name":"Tasselent"},{"id":"661718","latitude":"36.43333330","longitude":"5.28333330","name":"Tazemourt"},{"id":"661722","latitude":"36.65000000","longitude":"5.00000000","name":"Tazerout"},{"id":"661725","latitude":"36.26666670","longitude":"4.60000000","name":"Tazla"},{"id":"661728","latitude":"36.38722220","longitude":"4.40166670","name":"Tazmalt"},{"id":"661736","latitude":"36.65000000","longitude":"5.00000000","name":"Tazrout"},{"id":"661753","latitude":"36.63333330","longitude":"5.00000000","name":"Tedert Amokrane"},{"id":"661754","latitude":"36.63333330","longitude":"5.00000000","name":"Tedert"},{"id":"661767","latitude":"36.36666670","longitude":"4.48333330","name":"Telesla"},{"id":"661770","latitude":"36.58333330","longitude":"5.40000000","name":"Teluetane"},{"id":"661771","latitude":"36.58333330","longitude":"5.40000000","name":"Teluetan"},{"id":"661792","latitude":"36.43333330","longitude":"4.71666670","name":"Tennsaout"},{"id":"661794","latitude":"36.43333330","longitude":"4.71666670","name":"Tensaout"},{"id":"661797","latitude":"36.55000000","longitude":"5.21666670","name":"Tergregt"},{"id":"661822","latitude":"36.76666670","longitude":"4.91666670","name":"Tiahma\u00efne"},{"id":"661826","latitude":"36.61666670","longitude":"4.65000000","name":"Tibane"},{"id":"661832","latitude":"36.53333330","longitude":"4.70000000","name":"Tibouamouchine"},{"id":"661834","latitude":"36.66666670","longitude":"5.16666670","name":"Tichi"},{"id":"661836","latitude":"36.66666670","longitude":"5.16666670","name":"Tichy"},{"id":"661856","latitude":"36.66638890","longitude":"4.69722220","name":"Tiffra"},{"id":"661860","latitude":"36.66638890","longitude":"4.69722220","name":"Tifra"},{"id":"661862","latitude":"36.54138890","longitude":"4.89722220","name":"Tifritine"},{"id":"661866","latitude":"36.48333330","longitude":"4.53333330","name":"Tifrit"},{"id":"661873","latitude":"36.68333330","longitude":"4.78333330","name":"Tighilt Makhlouf"},{"id":"661876","latitude":"36.80000000","longitude":"4.91666670","name":"Tigoudiouine"},{"id":"661887","latitude":"36.48333330","longitude":"5.15000000","name":"Tikesriine"},{"id":"661893","latitude":"36.53333330","longitude":"4.81666670","name":"Tiksarine"},{"id":"661899","latitude":"36.53333330","longitude":"4.81666670","name":"Tikssarine"},{"id":"661912","latitude":"36.65000000","longitude":"4.77361110","name":"Timezrit Il Maten"},{"id":"661913","latitude":"36.65000000","longitude":"4.77361110","name":"Timezrit Il Matten"},{"id":"661930","latitude":"36.62916670","longitude":"4.68055560","name":"Tinebdar"},{"id":"661936","latitude":"36.30000000","longitude":"4.56666670","name":"Tiniri"},{"id":"661948","latitude":"36.78333330","longitude":"4.96666670","name":"Tirdiouine"},{"id":"661951","latitude":"36.68333330","longitude":"4.78333330","name":"Tirhilt Makhlouf"},{"id":"661952","latitude":"36.66666670","longitude":"4.80000000","name":"Tirhilt-n-A\u00eft Ziane"},{"id":"661957","latitude":"36.66666670","longitude":"4.80000000","name":"Tirilt Na\u00eft Zian"},{"id":"661981","latitude":"36.63333330","longitude":"4.60000000","name":"Tizamourine"},{"id":"661985","latitude":"36.48333330","longitude":"4.73333330","name":"Tizert"},{"id":"661986","latitude":"36.65000000","longitude":"5.16666670","name":"Tizi Ahmed"},{"id":"661989","latitude":"36.71666670","longitude":"4.70000000","name":"Tizi el Korn"},{"id":"661990","latitude":"36.56666670","longitude":"4.80000000","name":"Tizi Endjebar"},{"id":"661996","latitude":"36.45722220","longitude":"4.47138890","name":"Tizi Mali"},{"id":"661998","latitude":"36.43333330","longitude":"5.35000000","name":"Tizi-n-Bechar"},{"id":"661999","latitude":"36.43333330","longitude":"5.35000000","name":"Tizi N' B\u00e9char"},{"id":"662002","latitude":"36.56666670","longitude":"4.80000000","name":"Tizi-n-Djebar"},{"id":"662007","latitude":"36.61666670","longitude":"5.16666670","name":"Tizi Ouaklene"},{"id":"662009","latitude":"36.51666670","longitude":"5.25000000","name":"Tizi Ou Ferdinis"},{"id":"662010","latitude":"36.71666670","longitude":"4.65000000","name":"Tizi Oughni"},{"id":"662011","latitude":"36.71666670","longitude":"4.65000000","name":"Tizi Ourhni"},{"id":"662014","latitude":"36.38333330","longitude":"4.85000000","name":"Tizi Rehal"},{"id":"662019","latitude":"36.66666670","longitude":"4.70000000","name":"Tizi Tifra"},{"id":"662025","latitude":"36.88333330","longitude":"4.75000000","name":"Tizouiar"},{"id":"662061","latitude":"36.75000000","longitude":"4.90000000","name":"Toudja"},{"id":"662065","latitude":"36.38333330","longitude":"4.65000000","name":"Touffirt"},{"id":"662157","latitude":"36.61666670","longitude":"4.78333330","name":"Yachourene"},{"id":"662285","latitude":"36.31666670","longitude":"4.51666670","name":"Zina"},{"id":"662313","latitude":"36.63333330","longitude":"5.23333330","name":"Zraoui"}]