[{"id":"652356","latitude":"36.16666670","longitude":"5.23333330","name":"Abd el Beg"},{"id":"652468","latitude":"36.29944440","longitude":"5.29277780","name":"'A\u00efn Abessa"},{"id":"652478","latitude":"36.18361110","longitude":"5.31055560","name":"'A\u00efn Arnat"},{"id":"652479","latitude":"35.82166670","longitude":"5.51472220","name":"'A\u00efn Azel"},{"id":"652531","latitude":"36.29944440","longitude":"5.29277780","name":"A\u00efne Abessa"},{"id":"652535","latitude":"36.18361110","longitude":"5.31055560","name":"A\u00efne Arnat"},{"id":"652574","latitude":"36.36666670","longitude":"5.50000000","name":"A\u00efne Kebira"},{"id":"652581","latitude":"36.18333330","longitude":"5.33333330","name":"A\u00efne Kralfoune"},{"id":"652582","latitude":"35.93861110","longitude":"5.53916670","name":"'A\u00efn el Ahdjar"},{"id":"652596","latitude":"36.09444440","longitude":"5.57944440","name":"'A\u00efn el Bey"},{"id":"652623","latitude":"36.36666670","longitude":"5.50000000","name":"'A\u00efn el Kebira"},{"id":"652628","latitude":"36.36666670","longitude":"5.50000000","name":"A\u00efn el Kh\u00e9bira"},{"id":"652641","latitude":"36.11666670","longitude":"5.41666670","name":"A\u00efne Malah"},{"id":"652643","latitude":"36.11666670","longitude":"5.28333330","name":"A\u00efne Melsa"},{"id":"652646","latitude":"36.19777780","longitude":"5.26861110","name":"A\u00efne Messaoud"},{"id":"652655","latitude":"36.33333330","longitude":"5.18333330","name":"A\u00efne Roua"},{"id":"652661","latitude":"36.16666670","longitude":"5.38333330","name":"A\u00efne Sfia"},{"id":"652671","latitude":"36.13333330","longitude":"5.08333330","name":"A\u00efne Tagrout"},{"id":"652673","latitude":"36.18333330","longitude":"5.43333330","name":"A\u00efne Tebinet"},{"id":"652680","latitude":"36.15000000","longitude":"5.45000000","name":"A\u00efne Trick"},{"id":"652685","latitude":"36.16666670","longitude":"5.20000000","name":"A\u00efne Zada"},{"id":"652720","latitude":"36.18333330","longitude":"5.33333330","name":"'A\u00efn Khalfoun"},{"id":"652728","latitude":"35.93861110","longitude":"5.53916670","name":"Ain Lahdjar"},{"id":"652741","latitude":"36.11666670","longitude":"5.41666670","name":"'A\u00efn Malah"},{"id":"652749","latitude":"36.11666670","longitude":"5.28333330","name":"'A\u00efn Melsa"},{"id":"652752","latitude":"36.19777780","longitude":"5.26861110","name":"'A\u00efn Messaoud"},{"id":"652767","latitude":"35.92305560","longitude":"5.29333330","name":"A\u00efn Oulmene"},{"id":"652777","latitude":"36.33333330","longitude":"5.18333330","name":"'A\u00efn Roua"},{"id":"652787","latitude":"36.16666670","longitude":"5.38333330","name":"'A\u00efn Sfia"},{"id":"652796","latitude":"36.13333330","longitude":"5.08333330","name":"'A\u00efn Taghrout"},{"id":"652797","latitude":"36.13333330","longitude":"5.08333330","name":"A\u00efn Tagrount"},{"id":"652798","latitude":"36.13333330","longitude":"5.08333330","name":"A\u00efn Tagrout"},{"id":"652804","latitude":"36.18333330","longitude":"5.43333330","name":"'A\u00efn Tebinet"},{"id":"652832","latitude":"36.15000000","longitude":"5.45000000","name":"'A\u00efn Trick"},{"id":"652834","latitude":"36.15000000","longitude":"5.45000000","name":"A\u00efn Trik"},{"id":"652837","latitude":"36.16666670","longitude":"5.20000000","name":"'A\u00efn Zada"},{"id":"652980","latitude":"36.40000000","longitude":"5.08333330","name":"Alma Ouaklane"},{"id":"653007","latitude":"36.38333330","longitude":"5.41666670","name":"Amoucha"},{"id":"653008","latitude":"36.38333330","longitude":"5.41666670","name":"Amouchat"},{"id":"653012","latitude":"35.82166670","longitude":"5.51472220","name":"Amp\u00e8re"},{"id":"653029","latitude":"35.70000000","longitude":"5.23333330","name":"Annoual"},{"id":"653034","latitude":"35.70000000","longitude":"5.23333330","name":"Anroual"},{"id":"653048","latitude":"36.49166670","longitude":"5.62777780","name":"Aoulad Badis"},{"id":"653074","latitude":"36.46277780","longitude":"5.64805560","name":"Arbaoun"},{"id":"653100","latitude":"36.18361110","longitude":"5.31055560","name":"Arnat"},{"id":"653103","latitude":"35.75000000","longitude":"5.25000000","name":"Arras"},{"id":"653110","latitude":"35.75000000","longitude":"5.25000000","name":"Arrhas"},{"id":"653201","latitude":"35.68583330","longitude":"5.41166670","name":"Badjerou"},{"id":"653237","latitude":"36.11777780","longitude":"5.70972220","name":"Bazer Sakra"},{"id":"653252","latitude":"35.93861110","longitude":"5.53916670","name":"Behagle"},{"id":"653255","latitude":"35.89444440","longitude":"5.66527780","name":"Be\u00efda Bordj"},{"id":"653264","latitude":"36.20000000","longitude":"5.85000000","name":"Belaa"},{"id":"653292","latitude":"36.20000000","longitude":"5.85000000","name":"Bellaa"},{"id":"653316","latitude":"36.46277780","longitude":"5.64805560","name":"Ben Aziz"},{"id":"653330","latitude":"35.76666670","longitude":"5.28333330","name":"Ben Guemmez"},{"id":"653355","latitude":"36.46277780","longitude":"5.64805560","name":"Beni Aziz"},{"id":"653362","latitude":"36.51666670","longitude":"5.50000000","name":"Beni Besez"},{"id":"653363","latitude":"36.51666670","longitude":"5.50000000","name":"Beni Bessez"},{"id":"653377","latitude":"35.71666670","longitude":"5.31666670","name":"Beni el Ma\u00ef"},{"id":"653381","latitude":"36.28611110","longitude":"5.60722220","name":"Beni Fouda"},{"id":"653429","latitude":"36.11666670","longitude":"5.13333330","name":"Benina"},{"id":"653547","latitude":"36.56194440","longitude":"5.57277780","name":"Bida"},{"id":"653552","latitude":"36.13444440","longitude":"5.59333330","name":"Bir 'Abdallah"},{"id":"653555","latitude":"35.93333330","longitude":"5.25000000","name":"Bir Bra\u00efch"},{"id":"653562","latitude":"36.13333330","longitude":"5.83333330","name":"Bir el Arch"},{"id":"653563","latitude":"36.13333330","longitude":"5.83333330","name":"Bir el Arche"},{"id":"653576","latitude":"35.96333330","longitude":"5.43305560","name":"Bir Haddada"},{"id":"653586","latitude":"36.13333330","longitude":"5.83333330","name":"Bir-Lahrech"},{"id":"653587","latitude":"35.87750000","longitude":"5.27750000","name":"Bir Louksia"},{"id":"653602","latitude":"35.90388890","longitude":"5.89416670","name":"Bir Tachema"},{"id":"653674","latitude":"36.23333330","longitude":"5.16666670","name":"Bordj Ben Ali Cherif"},{"id":"653677","latitude":"36.10000000","longitude":"5.48333330","name":"Bordj Ben Kesk\u00e8ss"},{"id":"653688","latitude":"36.13333330","longitude":"5.38333330","name":"Bordj Bou Rerhan"},{"id":"653689","latitude":"36.13333330","longitude":"5.38333330","name":"Bordj Bou Rerhda"},{"id":"653694","latitude":"36.44222220","longitude":"5.65972220","name":"Bordj Chabet Zekkar"},{"id":"653704","latitude":"36.06666670","longitude":"5.48333330","name":"Bordj du Ca\u00efd"},{"id":"653716","latitude":"36.06666670","longitude":"5.48333330","name":"Bordj du Ka\u00efd"},{"id":"653718","latitude":"36.10000000","longitude":"5.48333330","name":"Bordj du Keskes"},{"id":"653765","latitude":"36.46666670","longitude":"5.85000000","name":"Bordj Tiaoumine"},{"id":"653781","latitude":"36.43333330","longitude":"5.38333330","name":"Bou Abed"},{"id":"653874","latitude":"36.33333330","longitude":"5.08333330","name":"Bougaa"},{"id":"653918","latitude":"36.21555560","longitude":"5.27833330","name":"Bouhira"},{"id":"653928","latitude":"36.21555560","longitude":"5.27833330","name":"Bouira"},{"id":"654033","latitude":"36.48333330","longitude":"5.48333330","name":"Bou Moussa"},{"id":"654035","latitude":"36.40000000","longitude":"5.25000000","name":"Bou Msedena"},{"id":"654036","latitude":"36.40000000","longitude":"5.25000000","name":"Bou Msedene"},{"id":"654109","latitude":"35.69888890","longitude":"5.31166670","name":"Bou Taleb"},{"id":"654131","latitude":"36.52000000","longitude":"5.72138890","name":"Bou Zaki"},{"id":"654149","latitude":"36.38333330","longitude":"5.18333330","name":"Bra\u00e2me"},{"id":"654151","latitude":"36.38333330","longitude":"5.18333330","name":"Braham"},{"id":"654246","latitude":"36.11666670","longitude":"5.53333330","name":"Chasseloup-Laubat"},{"id":"654247","latitude":"36.11666670","longitude":"5.53333330","name":"Chasseloup Loubat"},{"id":"654272","latitude":"35.97805560","longitude":"5.28611110","name":"Che\u00efkh Salah"},{"id":"654335","latitude":"36.46277780","longitude":"5.64805560","name":"Chevreul"},{"id":"654385","latitude":"35.92305560","longitude":"5.29333330","name":"Colbert"},{"id":"654387","latitude":"36.21555560","longitude":"5.27833330","name":"Coligny"},{"id":"654404","latitude":"36.31333330","longitude":"5.73416670","name":"Curculum"},{"id":"654474","latitude":"36.50000000","longitude":"5.58333330","name":"Dar er Razi"},{"id":"654571","latitude":"36.48333330","longitude":"5.48333330","name":"Dechret Bou Moussa"},{"id":"654680","latitude":"36.31333330","longitude":"5.73416670","name":"Djemila"},{"id":"654683","latitude":"35.81555560","longitude":"5.44666670","name":"Djemmana"},{"id":"654731","latitude":"36.50000000","longitude":"5.50000000","name":"Djouadda"},{"id":"655284","latitude":"36.20000000","longitude":"5.60000000","name":"Douar Kassandji"},{"id":"655857","latitude":"35.85611110","longitude":"5.28750000","name":"Dzeira"},{"id":"655861","latitude":"36.53333330","longitude":"5.55000000","name":"Ech Chebna"},{"id":"655938","latitude":"36.55000000","longitude":"5.58333330","name":"El Allaoucha"},{"id":"655954","latitude":"36.20000000","longitude":"5.31666670","name":"El Anasser"},{"id":"656021","latitude":"36.36666670","longitude":"5.16666670","name":"El Baouch"},{"id":"656054","latitude":"36.53333330","longitude":"5.55000000","name":"El Chebna"},{"id":"656078","latitude":"36.15000000","longitude":"5.68333330","name":"El Eulma"},{"id":"656119","latitude":"36.36666670","longitude":"5.10000000","name":"El Guetar"},{"id":"656132","latitude":"36.15000000","longitude":"5.31666670","name":"El Hachichia"},{"id":"656162","latitude":"35.77722220","longitude":"5.12944440","name":"El Hama"},{"id":"656174","latitude":"35.70277780","longitude":"5.38500000","name":"El Hamma"},{"id":"656177","latitude":"35.70277780","longitude":"5.38500000","name":"El Hammam"},{"id":"656211","latitude":"36.18333330","longitude":"5.45000000","name":"El Hassi"},{"id":"656283","latitude":"36.50000000","longitude":"5.66666670","name":"El Kheloua"},{"id":"656317","latitude":"36.50000000","longitude":"5.66666670","name":"El Kreloua"},{"id":"656352","latitude":"36.16666670","longitude":"5.23333330","name":"El Mahdia"},{"id":"656374","latitude":"36.61666670","longitude":"5.75000000","name":"El Mardja"},{"id":"656376","latitude":"36.58333330","longitude":"5.73333330","name":"El Marsa"},{"id":"656431","latitude":"36.56666670","longitude":"5.65000000","name":"El Mo\u00efd"},{"id":"656477","latitude":"36.28138890","longitude":"5.40444440","name":"El Ouricia"},{"id":"656515","latitude":"36.53888890","longitude":"5.62027780","name":"En Nemala"},{"id":"656532","latitude":"36.50000000","longitude":"5.56666670","name":"Er Rekta"},{"id":"656580","latitude":"36.11666670","longitude":"5.63333330","name":"Ez Zaouia"},{"id":"656616","latitude":"36.25388890","longitude":"5.26500000","name":"Faucigny"},{"id":"656643","latitude":"36.22611110","longitude":"5.39388890","name":"Fermatou"},{"id":"656790","latitude":"36.03527780","longitude":"5.33666670","name":"Guellal"},{"id":"656838","latitude":"36.08333330","longitude":"5.48333330","name":"Guidjal"},{"id":"656839","latitude":"36.11833330","longitude":"5.52944440","name":"Guidjel"},{"id":"656893","latitude":"36.40000000","longitude":"5.28333330","name":"Hamama"},{"id":"656922","latitude":"36.31666670","longitude":"5.06666670","name":"Hammam Guergour"},{"id":"656923","latitude":"35.77722220","longitude":"5.12944440","name":"Hammam"},{"id":"656941","latitude":"35.98333330","longitude":"5.80000000","name":"Hammam Sokhna"},{"id":"657143","latitude":"36.55000000","longitude":"5.41666670","name":"Imouguel"},{"id":"657336","latitude":"36.51666670","longitude":"5.56666670","name":"Kerm Ali"},{"id":"657388","latitude":"36.25000000","longitude":"5.48333330","name":"Kherba"},{"id":"657390","latitude":"36.13333330","longitude":"5.50000000","name":"Kherbet Bel Medani"},{"id":"657415","latitude":"36.48250000","longitude":"5.59583330","name":"Kou Klas"},{"id":"657416","latitude":"36.48250000","longitude":"5.59583330","name":"Kou Klass"},{"id":"657433","latitude":"36.25000000","longitude":"5.48333330","name":"Krerba"},{"id":"657434","latitude":"36.13333330","longitude":"5.50000000","name":"Krerbet Bel Medam"},{"id":"657436","latitude":"36.25388890","longitude":"5.26500000","name":"Krerbet el Lala"},{"id":"657460","latitude":"35.97138890","longitude":"5.26583330","name":"Ksar et Til"},{"id":"657461","latitude":"35.97138890","longitude":"5.26583330","name":"Ksar-et-Tir"},{"id":"657473","latitude":"35.97138890","longitude":"5.26583330","name":"Ksar Tir"},{"id":"657495","latitude":"36.33333330","longitude":"5.08333330","name":"Lafayette"},{"id":"657545","latitude":"36.20000000","longitude":"5.31666670","name":"Lanasser"},{"id":"657602","latitude":"36.55000000","longitude":"5.55000000","name":"Ledebla"},{"id":"657718","latitude":"35.91666670","longitude":"5.51666670","name":"Maadher el Ahmiet"},{"id":"657720","latitude":"35.85555560","longitude":"5.36638890","name":"Maafer"},{"id":"657727","latitude":"36.16666670","longitude":"5.23333330","name":"Macdonald"},{"id":"657760","latitude":"36.26666670","longitude":"5.35000000","name":"Mahouane"},{"id":"657761","latitude":"36.26666670","longitude":"5.35000000","name":"Mahouan"},{"id":"657762","latitude":"36.26666670","longitude":"5.35000000","name":"Mahouanne"},{"id":"657806","latitude":"36.40000000","longitude":"5.08333330","name":"Maouaklane"},{"id":"657901","latitude":"35.76666670","longitude":"5.31666670","name":"Mechta Abdallah"},{"id":"657906","latitude":"36.10000000","longitude":"5.38333330","name":"Mechta Adissa"},{"id":"657911","latitude":"35.73333330","longitude":"5.16666670","name":"Mechta Ahmed Ben Sidi Larbi"},{"id":"657914","latitude":"36.33333330","longitude":"5.28333330","name":"Mechta A\u00efna"},{"id":"657929","latitude":"36.09444440","longitude":"5.57944440","name":"Mechta 'A\u00efn el Bey"},{"id":"657930","latitude":"35.81083330","longitude":"5.32194440","name":"Mechta A\u00efn el Hamra"},{"id":"657931","latitude":"35.83416670","longitude":"5.44611110","name":"Mechta A\u00efn el Kahla"},{"id":"657936","latitude":"35.78694440","longitude":"5.39250000","name":"Mechta A\u00efn Hallal"},{"id":"657942","latitude":"36.36666670","longitude":"5.20000000","name":"Mechta 'A\u00efn Mellah"},{"id":"657953","latitude":"35.82527780","longitude":"5.38416670","name":"Mechta A\u00efn Ztout"},{"id":"657955","latitude":"35.95000000","longitude":"5.45000000","name":"Mechta Ali Ben Slimane"},{"id":"657956","latitude":"35.98333330","longitude":"5.43333330","name":"Mechta Ali Ben Srhir"},{"id":"657961","latitude":"35.68333330","longitude":"5.21666670","name":"Mechta Ameur"},{"id":"657973","latitude":"35.75000000","longitude":"5.25000000","name":"Mechta Arras"},{"id":"657974","latitude":"36.43333330","longitude":"5.48333330","name":"Mechta Asnina"},{"id":"657978","latitude":"35.94638890","longitude":"5.74500000","name":"Mechta Baararou"},{"id":"657981","latitude":"36.26666670","longitude":"5.78333330","name":"Mechta Bakziz"},{"id":"657986","latitude":"35.83694440","longitude":"5.23333330","name":"Mechta Bazzar"},{"id":"657989","latitude":"36.24416670","longitude":"5.49888890","name":"Mechta bel Djoudi"},{"id":"657992","latitude":"36.35000000","longitude":"5.76666670","name":"Mechta Bel Ouachoun"},{"id":"657995","latitude":"36.23333330","longitude":"5.05000000","name":"Mechta Ben Aktouf"},{"id":"658003","latitude":"36.20000000","longitude":"5.65000000","name":"Mechta Beni Brahim"},{"id":"658021","latitude":"35.67666670","longitude":"5.31250000","name":"Mechta Berdaa"},{"id":"658045","latitude":"36.13444440","longitude":"5.59333330","name":"Mechta Bou Abdallah"},{"id":"658047","latitude":"35.71666670","longitude":"5.46666670","name":"Mechta Bou Adouch"},{"id":"658050","latitude":"36.46666670","longitude":"5.41666670","name":"Mechta Bou Amrane"},{"id":"658056","latitude":"36.48333330","longitude":"5.88333330","name":"Mechta Bou Chokouf"},{"id":"658063","latitude":"35.68722220","longitude":"5.37555560","name":"Mechta Bou Hellal"},{"id":"658078","latitude":"36.11666670","longitude":"5.80000000","name":"Mechta Bou Rzam"},{"id":"658082","latitude":"36.31666670","longitude":"5.61666670","name":"Mechta Bou Touil"},{"id":"658086","latitude":"35.78333330","longitude":"5.30000000","name":"Mechta Brahim Ben Sa\u00effi"},{"id":"658101","latitude":"36.35000000","longitude":"5.51666670","name":"Mechta Chabet Sekouah"},{"id":"658108","latitude":"35.97972220","longitude":"5.70916670","name":"Mechta Che\u00efkh Sa\u00efd"},{"id":"658113","latitude":"36.18333330","longitude":"5.10000000","name":"Mechta Cherchar"},{"id":"658115","latitude":"35.63333330","longitude":"5.33333330","name":"Mechta Chir"},{"id":"658125","latitude":"36.31666670","longitude":"5.21666670","name":"Mechta Dakhla"},{"id":"658126","latitude":"36.31666670","longitude":"5.21666670","name":"Mechta Dakrla"},{"id":"658129","latitude":"35.67888890","longitude":"5.18750000","name":"Mechta Dar el Be\u00efda"},{"id":"658148","latitude":"35.80000000","longitude":"5.53333330","name":"Mechta Djenane"},{"id":"658153","latitude":"36.26666670","longitude":"5.70000000","name":"Mechta Djillaoua"},{"id":"658157","latitude":"35.95833330","longitude":"5.29833330","name":"Mechta Draa el Maad"},{"id":"658160","latitude":"36.35000000","longitude":"5.28333330","name":"Mechta Dria Romane"},{"id":"658168","latitude":"35.91666670","longitude":"5.65000000","name":"Mechta el Bir"},{"id":"658175","latitude":"36.18527780","longitude":"5.65777780","name":"Mechta el Hadj Douibi"},{"id":"658179","latitude":"36.21666670","longitude":"5.90000000","name":"Mechta el Kerakera"},{"id":"658192","latitude":"36.18333330","longitude":"5.15000000","name":"Mechta er Rmel"},{"id":"658200","latitude":"35.75000000","longitude":"5.50000000","name":"Mechta Foum Dar"},{"id":"658201","latitude":"36.30000000","longitude":"5.65611110","name":"Mechta Foum el A\u00efne"},{"id":"658202","latitude":"36.30000000","longitude":"5.65611110","name":"Mechta Foum el 'A\u00efn"},{"id":"658214","latitude":"36.26666670","longitude":"5.41666670","name":"Mechta Gara"},{"id":"658230","latitude":"35.63333330","longitude":"5.25000000","name":"Mechta Gueberdella"},{"id":"658240","latitude":"35.67916670","longitude":"5.36972220","name":"Mechta Hadaoua"},{"id":"658247","latitude":"36.36666670","longitude":"5.86666670","name":"Mechta Hamama"},{"id":"658249","latitude":"36.28333330","longitude":"5.68333330","name":"Mechta Hannech"},{"id":"658255","latitude":"36.40000000","longitude":"5.35000000","name":"Mechta Irhil Sadaoud"},{"id":"658266","latitude":"36.18333330","longitude":"5.71666670","name":"Mechta Kaouane"},{"id":"658274","latitude":"35.95083330","longitude":"5.35083330","name":"Mechta Kemedja"},{"id":"658277","latitude":"35.85611110","longitude":"5.48305560","name":"Mechta Ketef el Bir"},{"id":"658288","latitude":"36.06916670","longitude":"5.72777780","name":"Mechta Kherba"},{"id":"658292","latitude":"35.91666670","longitude":"5.35000000","name":"Mechta Kouana"},{"id":"658298","latitude":"36.25000000","longitude":"5.48333330","name":"Mechta Krerba"},{"id":"658303","latitude":"35.95000000","longitude":"5.36666670","name":"Mechta Lablalit"},{"id":"658308","latitude":"36.28333330","longitude":"5.75000000","name":"Mechta Lakhberda"},{"id":"658309","latitude":"35.61666670","longitude":"5.40000000","name":"Mechta Lakhlidj"},{"id":"658310","latitude":"36.28333330","longitude":"5.75000000","name":"Mechta Lakrberda"},{"id":"658311","latitude":"36.10000000","longitude":"4.20000000","name":"Mechta Lalla Saada"},{"id":"658312","latitude":"35.88333330","longitude":"5.33333330","name":"Mechta Lamamera"},{"id":"658313","latitude":"36.09944440","longitude":"5.71722220","name":"Mechta Laouaska"},{"id":"658314","latitude":"36.05000000","longitude":"5.13333330","name":"Mechta Larbaa"},{"id":"658329","latitude":"36.28333330","longitude":"5.08333330","name":"Mechta Magraoua"},{"id":"658333","latitude":"36.31666670","longitude":"5.85000000","name":"Mechta Marjet Ben Charia"},{"id":"658342","latitude":"35.98333330","longitude":"5.23333330","name":"Mechta Medani"},{"id":"658347","latitude":"35.98333330","longitude":"5.56666670","name":"Mechta Meguercha"},{"id":"658348","latitude":"36.11666670","longitude":"5.83333330","name":"Mechta Mekhalfa"},{"id":"658349","latitude":"35.81666670","longitude":"5.73333330","name":"Mechta Mellah"},{"id":"658350","latitude":"36.01666670","longitude":"5.36666670","name":"Mechta Melloul"},{"id":"658351","latitude":"35.85000000","longitude":"5.61666670","name":"Mechta Mennchar"},{"id":"658370","latitude":"35.65000000","longitude":"5.38333330","name":"Mechta Mokhtar"},{"id":"658380","latitude":"36.05000000","longitude":"5.73333330","name":"Mechta Nouasseur"},{"id":"658386","latitude":"36.28333330","longitude":"5.43333330","name":"Mechta Oued ech Cha\u00efr"},{"id":"658388","latitude":"36.33333330","longitude":"5.68333330","name":"Mechta Oued Saada"},{"id":"658389","latitude":"36.23333330","longitude":"5.83333330","name":"Mechta Oued Tarhioult"},{"id":"658393","latitude":"36.40000000","longitude":"5.58333330","name":"Mechta Oulad Aziz"},{"id":"658395","latitude":"36.26666670","longitude":"5.75000000","name":"Mechta Oulad Cherf"},{"id":"658399","latitude":"36.02750000","longitude":"5.59111110","name":"Mechta Oulad ed Doud"},{"id":"658402","latitude":"36.04750000","longitude":"5.56416670","name":"Mechta Oulad Hamida"},{"id":"658404","latitude":"35.98333330","longitude":"5.61666670","name":"Mechta Oulad Kassem"},{"id":"658407","latitude":"36.20000000","longitude":"5.53333330","name":"Mechta Oulad Khelguia"},{"id":"658410","latitude":"36.00000000","longitude":"5.78333330","name":"Mechta Oulad Mehenna"},{"id":"658413","latitude":"36.36666670","longitude":"5.38333330","name":"Mechta Oulad Morhem"},{"id":"658417","latitude":"36.35000000","longitude":"5.40000000","name":"Mechta Oulad Ou Ameur"},{"id":"658418","latitude":"36.05000000","longitude":"5.56666670","name":"Mechta Oulad Rabah"},{"id":"658421","latitude":"36.18333330","longitude":"5.86666670","name":"Mechta Oulad Reguig"},{"id":"658430","latitude":"36.21666670","longitude":"5.68333330","name":"Mechta Oulad Sidi Tsamer"},{"id":"658431","latitude":"35.81666670","longitude":"5.35000000","name":"Mechta Oulad Tebbene"},{"id":"658439","latitude":"35.91666670","longitude":"5.73333330","name":"Mechta Ouled Agoun"},{"id":"658441","latitude":"36.36666670","longitude":"5.35000000","name":"Mechta Ouled Ahmar"},{"id":"658442","latitude":"35.97055560","longitude":"5.97472220","name":"Mechta Ouled Ahmed Ben Amor"},{"id":"658451","latitude":"35.68333330","longitude":"5.13333330","name":"Mechta Ouled Atia"},{"id":"658452","latitude":"35.68333330","longitude":"5.13333330","name":"Mechta Ouled Atla"},{"id":"658459","latitude":"35.97055560","longitude":"5.97472220","name":"Mechta OuledBen Amor"},{"id":"658462","latitude":"35.94777780","longitude":"5.98277780","name":"Mechta Ouled Bou Aziz"},{"id":"658465","latitude":"36.15000000","longitude":"5.46666670","name":"Mechta Ouled Boudil"},{"id":"658471","latitude":"35.88472220","longitude":"5.91333330","name":"Mechta Ouled Chouadi"},{"id":"658477","latitude":"36.23333330","longitude":"5.45000000","name":"Mechta Ouled el Hadef"},{"id":"658479","latitude":"36.09861110","longitude":"5.72861110","name":"Mechta Ouled es Souar"},{"id":"658481","latitude":"36.21666670","longitude":"5.38333330","name":"Mechta Ouled Hachich"},{"id":"658482","latitude":"36.06666670","longitude":"5.76666670","name":"Mechta Ouled Hamdou"},{"id":"658489","latitude":"35.63333330","longitude":"5.35000000","name":"Mechta Ouled Mbarek"},{"id":"658490","latitude":"35.93333330","longitude":"5.60000000","name":"Mechta Ouled Mefla"},{"id":"658498","latitude":"35.81055560","longitude":"5.71111110","name":"Mechta Ouled Ram\u00e8s"},{"id":"658499","latitude":"36.08333330","longitude":"5.86666670","name":"Mechta Ouled Reguig"},{"id":"658503","latitude":"36.33944440","longitude":"5.55055560","name":"Mechta Ouled Sahib"},{"id":"658505","latitude":"35.93333330","longitude":"5.50000000","name":"Mechta Ouled Sa\u00efd"},{"id":"658509","latitude":"35.97472220","longitude":"5.84444440","name":"Mechta Ouled Sidi Ali"},{"id":"658512","latitude":"36.16555560","longitude":"5.55888890","name":"Mechta Ouled Sidi Hamela"},{"id":"658514","latitude":"36.23333330","longitude":"5.83333330","name":"Mechta Ouled Tarhioult"},{"id":"658515","latitude":"35.86666670","longitude":"5.68333330","name":"Mechta Ouled Tebene"},{"id":"658517","latitude":"35.87500000","longitude":"5.68222220","name":"Mechta Ouled Zid"},{"id":"658538","latitude":"36.34944440","longitude":"5.58694440","name":"Mechta Rebaba"},{"id":"658591","latitude":"35.71666670","longitude":"5.45000000","name":"Mechta Sbir"},{"id":"658593","latitude":"36.01666670","longitude":"5.53333330","name":"Mechta Seba A\u00efoun"},{"id":"658608","latitude":"36.26666670","longitude":"5.23333330","name":"Mechta Sidi Hassene"},{"id":"658622","latitude":"36.15000000","longitude":"5.63333330","name":"Mechta Smara"},{"id":"658624","latitude":"36.16666670","longitude":"5.28333330","name":"Mechta Sommar"},{"id":"658631","latitude":"36.10000000","longitude":"5.38333330","name":"Mechtat Adissa"},{"id":"658633","latitude":"36.40000000","longitude":"5.76666670","name":"Mechta Tadrart"},{"id":"658634","latitude":"36.42555560","longitude":"5.56250000","name":"Mechta Tafouda"},{"id":"658644","latitude":"36.33333330","longitude":"5.28333330","name":"Mechtat A\u00efna"},{"id":"658650","latitude":"36.09444440","longitude":"5.57944440","name":"Mechtat A\u00efne el Bey"},{"id":"658657","latitude":"36.36666670","longitude":"5.20000000","name":"Mechtat A\u00efn Melah"},{"id":"658659","latitude":"35.82527780","longitude":"5.38416670","name":"Mechtat A\u00efn Ztout"},{"id":"658664","latitude":"36.30000000","longitude":"5.33333330","name":"Mechta Takouka"},{"id":"658668","latitude":"35.98333330","longitude":"5.43333330","name":"Mechtat Ali Ben Srhir"},{"id":"658675","latitude":"36.20000000","longitude":"5.71666670","name":"Mechta Tannouche"},{"id":"658676","latitude":"36.20000000","longitude":"5.71666670","name":"Mechta Tannouch"},{"id":"658685","latitude":"36.43333330","longitude":"5.48333330","name":"Mechtat Asnina"},{"id":"658686","latitude":"36.11666670","longitude":"4.20000000","name":"Mechta Tasseft"},{"id":"658692","latitude":"35.83694440","longitude":"5.23333330","name":"Mechtat Bazaar"},{"id":"658697","latitude":"36.35000000","longitude":"5.76666670","name":"Mechtat Bel Ouachoune"},{"id":"658700","latitude":"36.23333330","longitude":"5.05000000","name":"Mechtat Ben Aktouf"},{"id":"658708","latitude":"36.00000000","longitude":"5.53333330","name":"Mechtat Ben Hamidech"},{"id":"658724","latitude":"36.13444440","longitude":"5.59333330","name":"Mechtat Bou Abdallah"},{"id":"658726","latitude":"36.46666670","longitude":"5.41666670","name":"Mechtat Bou Amran"},{"id":"658729","latitude":"36.48333330","longitude":"5.88333330","name":"Mechtat Bou Chokouf"},{"id":"658736","latitude":"36.11666670","longitude":"5.80000000","name":"Mechtat Bou Rzam"},{"id":"658741","latitude":"36.35000000","longitude":"5.51666670","name":"Mechtat Chabet Sekouah"},{"id":"658744","latitude":"35.97972220","longitude":"5.70916670","name":"Mechtat Cheikr Sa\u00efd"},{"id":"658746","latitude":"36.18333330","longitude":"5.10000000","name":"Mechtat Cherchar"},{"id":"658768","latitude":"36.35000000","longitude":"5.28333330","name":"Mechtat Dria Rommane"},{"id":"658773","latitude":"36.15000000","longitude":"5.21666670","name":"Mechtat ech Cheraba"},{"id":"658779","latitude":"36.33277780","longitude":"5.51666670","name":"Mechtat ed Dekara"},{"id":"658790","latitude":"36.09944440","longitude":"5.71722220","name":"Mechtat el Akouas"},{"id":"658792","latitude":"36.47416670","longitude":"5.57055560","name":"Mechtat el Amarcha"},{"id":"658798","latitude":"36.16666670","longitude":"5.11666670","name":"Mechtat el Aouinat"},{"id":"658806","latitude":"36.35000000","longitude":"5.90000000","name":"Mechtat el Assam"},{"id":"658810","latitude":"36.16666670","longitude":"5.51666670","name":"Mechtat el Bebouche"},{"id":"658811","latitude":"36.16666670","longitude":"5.51666670","name":"Mechtat el Bebouch"},{"id":"658812","latitude":"36.35750000","longitude":"5.61750000","name":"Mechtat el Bethab"},{"id":"658815","latitude":"35.83333330","longitude":"5.38333330","name":"Mechtat el Bir"},{"id":"658837","latitude":"35.90000000","longitude":"5.68333330","name":"Mechtat el Hadjadj"},{"id":"658839","latitude":"36.18527780","longitude":"5.65777780","name":"Mechtat el Hadj Douibi"},{"id":"658843","latitude":"36.41194440","longitude":"5.70583330","name":"Mechtat el Hamama"},{"id":"658844","latitude":"36.41194440","longitude":"5.70583330","name":"Mechtat el Hammama"},{"id":"658860","latitude":"36.41555560","longitude":"5.66833330","name":"Mechtat el Kef"},{"id":"658861","latitude":"36.48333330","longitude":"5.81666670","name":"Mechtat el Kelia"},{"id":"658863","latitude":"36.21666670","longitude":"5.90000000","name":"Mechtat el Kerakera"},{"id":"658877","latitude":"36.45000000","longitude":"5.76666670","name":"Mechtat el Louza"},{"id":"658883","latitude":"36.10000000","longitude":"5.40000000","name":"Mechtat el Malah"},{"id":"658887","latitude":"36.00638890","longitude":"5.74194440","name":"Mechtat el Marhder"},{"id":"658893","latitude":"35.76666670","longitude":"5.25000000","name":"Mechtat el Mehares"},{"id":"658902","latitude":"36.00083330","longitude":"5.83888890","name":"Mechtat el Mounchar"},{"id":"658903","latitude":"36.11666670","longitude":"5.66666670","name":"Mechtat el Mrabtine"},{"id":"658905","latitude":"35.96555560","longitude":"5.78555560","name":"Mechtat el Mtarfa"},{"id":"658918","latitude":"35.89472220","longitude":"5.46194440","name":"Mechta Teniet el Louz"},{"id":"658927","latitude":"36.38333330","longitude":"5.53333330","name":"Mechtat er Rih"},{"id":"658928","latitude":"36.18333330","longitude":"5.15000000","name":"Mechtat er Rmel"},{"id":"658935","latitude":"35.70000000","longitude":"5.46666670","name":"Mechtat es Seba"},{"id":"658940","latitude":"36.11666670","longitude":"5.63333330","name":"Mechtat ez Zaou\u00efa"},{"id":"658961","latitude":"36.08361110","longitude":"5.63388890","name":"Mechta Tillaf"},{"id":"658962","latitude":"35.86666670","longitude":"5.73333330","name":"Mechta Timdiouines"},{"id":"658963","latitude":"36.40000000","longitude":"5.35000000","name":"Mechtat Irhil Sadaoud"},{"id":"658965","latitude":"36.40000000","longitude":"5.86666670","name":"Mechta Tissouil"},{"id":"658980","latitude":"36.06916670","longitude":"5.72777780","name":"Mechtat Krerba"},{"id":"658983","latitude":"36.10000000","longitude":"5.71666670","name":"Mechtat Laouaska"},{"id":"658984","latitude":"36.05000000","longitude":"5.13333330","name":"Mechtat Larbaa"},{"id":"658993","latitude":"36.31666670","longitude":"5.85000000","name":"Mechtat Marjet Ben Charia"},{"id":"658996","latitude":"35.98333330","longitude":"5.23333330","name":"Mechtat Medani"},{"id":"659001","latitude":"35.98333330","longitude":"5.56666670","name":"Mechtat Meguercha"},{"id":"659005","latitude":"36.11666670","longitude":"5.83333330","name":"Mechtat Mekralfa"},{"id":"659007","latitude":"36.01666670","longitude":"5.36666670","name":"Mechtat Melloul"},{"id":"659020","latitude":"36.05000000","longitude":"5.73333330","name":"Mechtat Nouasser"},{"id":"659027","latitude":"36.28333330","longitude":"5.43333330","name":"Mechtat Oued ech Chair"},{"id":"659033","latitude":"36.33333330","longitude":"5.68333330","name":"Mechtat Oued Saada"},{"id":"659041","latitude":"36.02750000","longitude":"5.59111110","name":"Mechtat Oulad ed Doud"},{"id":"659047","latitude":"36.06666670","longitude":"5.76666670","name":"Mechtat Oulad Hamdou"},{"id":"659048","latitude":"36.04750000","longitude":"5.56416670","name":"Mechtat Oulad Hamida"},{"id":"659051","latitude":"35.98333330","longitude":"5.61666670","name":"Mechtat Oulad Kassem"},{"id":"659052","latitude":"36.20000000","longitude":"5.53333330","name":"Mechtat Oulad Krelgu\u00efa"},{"id":"659054","latitude":"36.00000000","longitude":"5.78333330","name":"Mechtat Oulad Mehenna"},{"id":"659055","latitude":"36.36666670","longitude":"5.38333330","name":"Mechtat Oulad Morhem"},{"id":"659058","latitude":"36.35000000","longitude":"5.40000000","name":"Mechtat Oulad Ou Ameur"},{"id":"659059","latitude":"36.05000000","longitude":"5.56666670","name":"Mechtat Oulad Rabah"},{"id":"659061","latitude":"36.20000000","longitude":"5.18333330","name":"Mechtat Oulad Saadi"},{"id":"659067","latitude":"36.36666670","longitude":"5.35000000","name":"Mechtat Ouled Ahmar"},{"id":"659068","latitude":"35.97055560","longitude":"5.97472220","name":"Mechtat Ouled Ahmed Ben Amor"},{"id":"659075","latitude":"35.94777780","longitude":"5.98277780","name":"Mechtat Ouled Bou Aziz"},{"id":"659077","latitude":"36.15000000","longitude":"5.46666670","name":"Mechtat Ouled Boudil"},{"id":"659080","latitude":"36.09861110","longitude":"5.72861110","name":"Mechtat Ouled es Souar"},{"id":"659083","latitude":"36.21666670","longitude":"5.38333330","name":"Mechtat Ouled Hach\u00efche"},{"id":"659084","latitude":"36.06666670","longitude":"5.76666670","name":"Mechtat Ouled Hamdou"},{"id":"659089","latitude":"36.08333330","longitude":"5.86666670","name":"Mechtat Ouled Reguig"},{"id":"659091","latitude":"36.33944440","longitude":"5.55055560","name":"Mechtat Ouled Sahib"},{"id":"659093","latitude":"35.97472220","longitude":"5.84444440","name":"Mechtat Ouled Sidi Ali"},{"id":"659110","latitude":"36.34944440","longitude":"5.58694440","name":"Mechtat Rebaba"},{"id":"659118","latitude":"36.41666670","longitude":"5.61666670","name":"Mechtat Rema\u00efl"},{"id":"659141","latitude":"36.01666670","longitude":"5.53333330","name":"Mechtat Seba A\u00efoun"},{"id":"659158","latitude":"36.16666670","longitude":"5.28333330","name":"Mechtat Sommar"},{"id":"659161","latitude":"36.40000000","longitude":"5.76666670","name":"Mechtat Tadrart"},{"id":"659162","latitude":"36.42555560","longitude":"5.56250000","name":"Mechtat Tafouda"},{"id":"659176","latitude":"36.08361110","longitude":"5.63388890","name":"Mechtat Tillaf"},{"id":"659177","latitude":"36.40000000","longitude":"5.86666670","name":"Mechtat Tissouil"},{"id":"659187","latitude":"36.38833330","longitude":"5.60138890","name":"Mechtat Zadia"},{"id":"659188","latitude":"36.01666670","longitude":"5.25000000","name":"Mechtat Zdira"},{"id":"659190","latitude":"36.08222220","longitude":"5.65416670","name":"Mechtat Zegagra"},{"id":"659197","latitude":"36.20000000","longitude":"5.86666670","name":"Mechta Zaara"},{"id":"659198","latitude":"36.38833330","longitude":"5.60138890","name":"Mechta Zadia"},{"id":"659199","latitude":"36.01666670","longitude":"5.25000000","name":"Mechta Zdira"},{"id":"659201","latitude":"36.08222220","longitude":"5.65416670","name":"Mechta Zegraga"},{"id":"659210","latitude":"35.80111110","longitude":"5.19583330","name":"Mechta Zouaoucha"},{"id":"659224","latitude":"36.00000000","longitude":"5.53333330","name":"Mechtet Ben Hamidech"},{"id":"659227","latitude":"35.97972220","longitude":"5.70916670","name":"Mechtet Bir el Djedid"},{"id":"659232","latitude":"35.98444440","longitude":"5.88888890","name":"Mechtet Bou Medjou"},{"id":"659237","latitude":"35.96666670","longitude":"5.68333330","name":"Mechtet Chebl\u00ee"},{"id":"659242","latitude":"35.98333330","longitude":"5.38333330","name":"Mechtet Dra' el Oust"},{"id":"659253","latitude":"35.91666670","longitude":"5.35000000","name":"Mechtet el Kouana"},{"id":"659275","latitude":"35.97138890","longitude":"5.26583330","name":"Mechtet Gsar et Tayer"},{"id":"659277","latitude":"35.91666670","longitude":"5.51666670","name":"Mechtet Hadar"},{"id":"659279","latitude":"35.95000000","longitude":"5.45000000","name":"Mechtet Kahal el Kro\u00fbch"},{"id":"659285","latitude":"35.95000000","longitude":"5.36666670","name":"Mechtet Lablalit"},{"id":"659286","latitude":"36.09944440","longitude":"5.71722220","name":"Mechtet Lakouas"},{"id":"659287","latitude":"35.98333330","longitude":"5.23333330","name":"Mechtet Medani"},{"id":"659288","latitude":"35.98333330","longitude":"5.56666670","name":"Mechtet Meguercha"},{"id":"659289","latitude":"36.01666670","longitude":"5.36666670","name":"Mechtet Mello\u00fbl"},{"id":"659300","latitude":"36.02750000","longitude":"5.59111110","name":"Mechtet Ouled Doudou"},{"id":"659301","latitude":"36.04750000","longitude":"5.56416670","name":"Mechtet Ouled Hamida"},{"id":"659303","latitude":"36.05000000","longitude":"5.56666670","name":"Mechtet Ouled Rabah"},{"id":"659304","latitude":"35.93333330","longitude":"5.50000000","name":"Mechtet Ouled Sayah"},{"id":"659305","latitude":"35.98333330","longitude":"5.43333330","name":"Mechtet Ouled Setta"},{"id":"659306","latitude":"35.96666670","longitude":"5.40000000","name":"Mechtet Ouled Si Ahmed"},{"id":"659307","latitude":"35.88333330","longitude":"5.51666670","name":"Mechtet Ouled Sidi Mhammed"},{"id":"659308","latitude":"36.01666670","longitude":"5.25000000","name":"Mechtet Ouled Zdira"},{"id":"659317","latitude":"36.01666670","longitude":"5.53333330","name":"Mechtet Seb'a 'Ayo\u00fbne"},{"id":"659321","latitude":"36.08361110","longitude":"5.63388890","name":"Mechtet Tellef"},{"id":"659322","latitude":"35.89472220","longitude":"5.46194440","name":"Mechtet Teniet el Lo\u00fbz"},{"id":"659325","latitude":"36.08222220","longitude":"5.65416670","name":"Mechtet Zgagrha"},{"id":"659326","latitude":"35.95000000","longitude":"5.51666670","name":"Mechtet Zo\u00fbatna"},{"id":"659439","latitude":"35.88333330","longitude":"5.51666670","name":"Merdjet el Ahmiet"},{"id":"659440","latitude":"36.41666670","longitude":"5.20000000","name":"Merdj Moumene"},{"id":"659450","latitude":"36.55000000","longitude":"5.58333330","name":"Meroudj"},{"id":"659465","latitude":"36.10916670","longitude":"5.33888890","name":"Mesloug"},{"id":"659477","latitude":"36.19777780","longitude":"5.26861110","name":"Messaoud"},{"id":"659518","latitude":"36.10916670","longitude":"5.33888890","name":"Mezloug"},{"id":"659689","latitude":"36.13333330","longitude":"5.83333330","name":"Navarin"},{"id":"659785","latitude":"36.23972220","longitude":"5.64416670","name":"Oued Deheb"},{"id":"659838","latitude":"36.08194440","longitude":"4.20805560","name":"Oued Zantit"},{"id":"659847","latitude":"36.30000000","longitude":"5.40000000","name":"Ougrina"},{"id":"659882","latitude":"36.35000000","longitude":"5.46666670","name":"Oulad Ali"},{"id":"659928","latitude":"36.55000000","longitude":"5.40000000","name":"Oulad Beltsa"},{"id":"659966","latitude":"36.55000000","longitude":"5.51666670","name":"Oulad Bou Renane"},{"id":"660015","latitude":"36.04750000","longitude":"5.56416670","name":"Oulad Hamida"},{"id":"660101","latitude":"35.96666670","longitude":"5.40000000","name":"Oulad Si Ahmed"},{"id":"660105","latitude":"35.96666670","longitude":"5.40000000","name":"Oulad Sidi Ahmed"},{"id":"660121","latitude":"36.40000000","longitude":"5.50000000","name":"Oulad Sidi Kassem"},{"id":"660138","latitude":"36.10000000","longitude":"5.26666670","name":"Oulad Tabet"},{"id":"660293","latitude":"35.91888890","longitude":"6.01638890","name":"Ouled Bouzid"},{"id":"660460","latitude":"35.83222220","longitude":"5.65305560","name":"Ouled Sellem"},{"id":"660497","latitude":"35.83555560","longitude":"5.67583330","name":"Ouled Sirkam"},{"id":"660547","latitude":"35.92555560","longitude":"5.90388890","name":"Oum Ladjoul"},{"id":"660574","latitude":"36.50000000","longitude":"5.63333330","name":"Outa Ben Aroune"},{"id":"660575","latitude":"36.50000000","longitude":"5.63333330","name":"Outa Ben Aroun"},{"id":"660587","latitude":"35.85611110","longitude":"5.28750000","name":"Pascal"},{"id":"660594","latitude":"36.36666670","longitude":"5.50000000","name":"Perigotville"},{"id":"660605","latitude":"35.92555560","longitude":"5.90388890","name":"Pierre Curie"},{"id":"660694","latitude":"36.11666670","longitude":"5.53333330","name":"R\u00e2s el Ma"},{"id":"660698","latitude":"35.76666670","longitude":"5.20000000","name":"R\u00e2s Isly"},{"id":"660704","latitude":"36.11666670","longitude":"5.53333330","name":"Rass el Ma"},{"id":"660737","latitude":"36.41666670","longitude":"5.61666670","name":"Rema\u00efl"},{"id":"660774","latitude":"36.51666670","longitude":"5.90000000","name":"Rhedir Cha\u00efr"},{"id":"660862","latitude":"36.15000000","longitude":"5.68333330","name":"Saint-Arnaud"},{"id":"660914","latitude":"35.85611110","longitude":"5.28750000","name":"Salah Bey"},{"id":"660988","latitude":"36.19138890","longitude":"5.40944440","name":"S\u00e9tif"},{"id":"661087","latitude":"35.78333330","longitude":"5.10000000","name":"Sidi Bou Sa\u00efd"},{"id":"661266","latitude":"36.28611110","longitude":"5.60722220","name":"Sill\u00e8gue"},{"id":"661375","latitude":"36.51666670","longitude":"5.61666670","name":"Tabadja"},{"id":"661426","latitude":"36.40000000","longitude":"5.76666670","name":"Tadrart"},{"id":"661435","latitude":"36.50000000","longitude":"5.90000000","name":"Taferast"},{"id":"661484","latitude":"36.45000000","longitude":"5.38333330","name":"Tahadelt"},{"id":"661488","latitude":"36.38333330","longitude":"5.06666670","name":"Tahammamet"},{"id":"661571","latitude":"36.50000000","longitude":"5.55000000","name":"Tamazirt"},{"id":"661745","latitude":"35.75000000","longitude":"5.11666670","name":"Tebouda"},{"id":"661748","latitude":"35.75000000","longitude":"5.11666670","name":"Teboula"},{"id":"661775","latitude":"36.16666670","longitude":"5.33333330","name":"Temlouka"},{"id":"661928","latitude":"36.15000000","longitude":"5.48333330","name":"Tinar"},{"id":"662232","latitude":"36.40000000","longitude":"5.23333330","name":"Zecora"},{"id":"662236","latitude":"36.30000000","longitude":"5.43333330","name":"Ze\u00efri"},{"id":"662238","latitude":"36.40000000","longitude":"5.23333330","name":"Zekora"},{"id":"662243","latitude":"36.25305560","longitude":"5.61416670","name":"Zema\u00eflia"},{"id":"662312","latitude":"35.79944440","longitude":"5.68000000","name":"Zra\u00efa"}]