[{"id":"652359","latitude":"35.66500000","longitude":"0.80305560","name":"Abd el Kader Berramda"},{"id":"652452","latitude":"35.83777780","longitude":"0.48805560","name":"Ahmed Bel Hadj"},{"id":"652615","latitude":"35.78083330","longitude":"1.13083330","name":"'A\u00efn el Hammam"},{"id":"652627","latitude":"36.10000000","longitude":"0.68333330","name":"A\u00efn-El-Khadra"},{"id":"652949","latitude":"35.60722220","longitude":"0.87305560","name":"Alalia"},{"id":"653005","latitude":"35.86805560","longitude":"1.10805560","name":"Ammi Moussa"},{"id":"653109","latitude":"35.91250000","longitude":"0.50944440","name":"Arr\u00eat de Sidi Kheltab"},{"id":"653136","latitude":"35.92555560","longitude":"0.93055560","name":"Attatba"},{"id":"653179","latitude":"35.63333330","longitude":"1.18333330","name":"Azloua"},{"id":"653213","latitude":"35.60000000","longitude":"1.18333330","name":"Ba\u00efz"},{"id":"653269","latitude":"35.51750000","longitude":"0.96388890","name":"Belaraoui"},{"id":"653279","latitude":"35.85666670","longitude":"0.50555560","name":"Bel Hacel"},{"id":"653318","latitude":"35.49500000","longitude":"0.84777780","name":"Ben Bel Alia"},{"id":"653323","latitude":"35.71250000","longitude":"0.51611110","name":"Ben Daoud"},{"id":"653325","latitude":"35.70000000","longitude":"0.38805560","name":"Ben Djohar"},{"id":"653456","latitude":"35.61694440","longitude":"0.50833330","name":"Beni Yahi"},{"id":"653711","latitude":"36.03611110","longitude":"0.87833330","name":"Bordj du Ca\u00efd"},{"id":"653793","latitude":"35.61666670","longitude":"1.01666670","name":"Bou Aker"},{"id":"653801","latitude":"36.11666670","longitude":"0.90000000","name":"Bou Alloufa"},{"id":"653897","latitude":"36.11666670","longitude":"0.90000000","name":"Bou Halloufa"},{"id":"654048","latitude":"35.69750000","longitude":"0.91194440","name":"Bou Nouala"},{"id":"654153","latitude":"35.93333330","longitude":"1.00000000","name":"Brahimia"},{"id":"654160","latitude":"35.65194440","longitude":"0.30527780","name":"Branssia"},{"id":"654231","latitude":"35.67388890","longitude":"0.57444440","name":"Cha\u00eff el Hassane"},{"id":"654313","latitude":"35.84611110","longitude":"0.91472220","name":"Cherarka"},{"id":"654342","latitude":"35.58055560","longitude":"0.69111110","name":"Chlott"},{"id":"654366","latitude":"35.78111110","longitude":"0.62583330","name":"Chtaounia"},{"id":"654382","latitude":"35.73444440","longitude":"0.45861110","name":"Clinchant"},{"id":"654411","latitude":"35.67527780","longitude":"0.35638890","name":"Dahamenia"},{"id":"654428","latitude":"35.62250000","longitude":"0.33777780","name":"Dar Ahmed Ouled Ali"},{"id":"654431","latitude":"35.78694440","longitude":"0.40638890","name":"Dar Amar Ben Aoua"},{"id":"654437","latitude":"35.83111110","longitude":"0.46638890","name":"Dar bel Hadj"},{"id":"654440","latitude":"35.70055560","longitude":"0.68833330","name":"Dar Ben Abdellah"},{"id":"654444","latitude":"35.57472220","longitude":"0.37472220","name":"Dar Beni Hachem"},{"id":"654458","latitude":"35.60027780","longitude":"0.35805560","name":"Dar ech Chaouch"},{"id":"654482","latitude":"35.81444440","longitude":"0.46305560","name":"Dar Mohammed Ben Kaddour"},{"id":"654494","latitude":"35.59250000","longitude":"0.43861110","name":"Dar Ouled Djilali"},{"id":"654509","latitude":"35.59388890","longitude":"0.42083330","name":"Dar Sidi el Azreg"},{"id":"654527","latitude":"35.56972220","longitude":"0.33361110","name":"Debba"},{"id":"654645","latitude":"35.95416670","longitude":"0.52500000","name":"Djaounia"},{"id":"654716","latitude":"35.93138890","longitude":"0.82333330","name":"Djidioua"},{"id":"654717","latitude":"35.93138890","longitude":"0.82333330","name":"Djidiouia"},{"id":"654719","latitude":"35.93138890","longitude":"0.82333330","name":"Djidjiouia"},{"id":"654720","latitude":"35.44555560","longitude":"0.85083330","name":"Djilah Ben Amar"},{"id":"654721","latitude":"35.44555560","longitude":"0.85083330","name":"Djilali-Ben Amar"},{"id":"654723","latitude":"35.44555560","longitude":"0.85083330","name":"Djillali Ben Amar"},{"id":"654732","latitude":"35.67916670","longitude":"0.48027780","name":"Djouibsia"},{"id":"654757","latitude":"36.10000000","longitude":"0.68333330","name":"Dominique-Luciani"},{"id":"654767","latitude":"35.78416670","longitude":"0.51111110","name":"Douar Ago\u00fbn"},{"id":"654784","latitude":"35.60722220","longitude":"0.87305560","name":"Douar Alalia"},{"id":"654787","latitude":"35.63888890","longitude":"0.67722220","name":"Douar Ali Bel Arbi"},{"id":"654794","latitude":"35.58333330","longitude":"0.65583330","name":"Douar Amamra"},{"id":"654798","latitude":"35.61916670","longitude":"0.53055560","name":"Douar Aoumria"},{"id":"654799","latitude":"35.59888890","longitude":"0.87027780","name":"Douar Araba"},{"id":"654807","latitude":"35.84444440","longitude":"0.89944440","name":"Douar Baccada"},{"id":"654814","latitude":"35.51750000","longitude":"0.96388890","name":"Douar Balaroui"},{"id":"654820","latitude":"35.53805560","longitude":"0.63000000","name":"Douar Bekria"},{"id":"654832","latitude":"35.98583330","longitude":"0.76472220","name":"Douar Ben Adda"},{"id":"654836","latitude":"35.49500000","longitude":"0.84777780","name":"Douar Ben Bel Alia"},{"id":"654839","latitude":"35.71250000","longitude":"0.51611110","name":"Douar Ben Daoud"},{"id":"654840","latitude":"35.52527780","longitude":"0.59111110","name":"Douar Ben Deladj"},{"id":"654842","latitude":"35.70000000","longitude":"0.38805560","name":"Douar Ben Djohar"},{"id":"654843","latitude":"35.61777780","longitude":"0.69555560","name":"Douar Ben Doubia"},{"id":"654855","latitude":"35.67250000","longitude":"0.35638890","name":"Douar Beni Chougrane"},{"id":"654858","latitude":"35.62638890","longitude":"0.43166670","name":"Douar Benihi"},{"id":"654866","latitude":"35.61694440","longitude":"0.50833330","name":"Douar Beni Yahi"},{"id":"654870","latitude":"35.69472220","longitude":"0.68972220","name":"Douar Ben Khedda"},{"id":"654875","latitude":"35.60444440","longitude":"0.67861110","name":"Douar Ben Nefissa"},{"id":"654878","latitude":"35.58333330","longitude":"0.72861110","name":"Douar Ben Sidi Ahmed"},{"id":"654882","latitude":"35.54944440","longitude":"0.75666670","name":"Douar Ben Yamina"},{"id":"654886","latitude":"35.55277780","longitude":"0.88305560","name":"Douar Berouag Djilali"},{"id":"654891","latitude":"35.91972220","longitude":"0.89333330","name":"Douar Bou Achria"},{"id":"654893","latitude":"35.72361110","longitude":"0.41750000","name":"Douar Bou Akar"},{"id":"654894","latitude":"35.61666670","longitude":"1.01666670","name":"Douar Bou Aker"},{"id":"654897","latitude":"35.54361110","longitude":"0.73305560","name":"Douar Bouamoud"},{"id":"654901","latitude":"35.60000000","longitude":"0.90055560","name":"Douar Bou Chnaffa"},{"id":"654904","latitude":"35.59027780","longitude":"0.67083330","name":"Douar Bou Guelmouna"},{"id":"654917","latitude":"35.59444440","longitude":"0.72750000","name":"Douar Bousseki"},{"id":"654918","latitude":"35.52027780","longitude":"0.68944440","name":"Douar Boussouka"},{"id":"654923","latitude":"35.65194440","longitude":"0.30527780","name":"Douar Brancia"},{"id":"654933","latitude":"35.81861110","longitude":"0.39944440","name":"Douar Cha\u00efb\u00efa"},{"id":"654935","latitude":"35.53138890","longitude":"0.63916670","name":"Douar Chaloul"},{"id":"654944","latitude":"35.54527780","longitude":"0.81194440","name":"Douar Chemakh"},{"id":"654945","latitude":"35.54527780","longitude":"0.81194440","name":"Douar Chemakr"},{"id":"654951","latitude":"35.68250000","longitude":"0.58083330","name":"Douar Chera\u00eftia"},{"id":"654952","latitude":"35.84611110","longitude":"0.91472220","name":"Douar Cherarka"},{"id":"654954","latitude":"35.58055560","longitude":"0.69111110","name":"Douar Chlott"},{"id":"654957","latitude":"35.70194440","longitude":"0.59944440","name":"Douar Chouachia"},{"id":"654962","latitude":"35.78111110","longitude":"0.62583330","name":"Douar Chtaounia"},{"id":"654967","latitude":"35.67527780","longitude":"0.35638890","name":"Douar Dahamenia"},{"id":"654975","latitude":"35.66694440","longitude":"0.63111110","name":"Douar Djalti"},{"id":"654976","latitude":"35.95416670","longitude":"0.52500000","name":"Douar Djaounia"},{"id":"654977","latitude":"35.95416670","longitude":"0.52500000","name":"Douar Djaounia Hadj Mohammed Meda"},{"id":"654983","latitude":"35.68083330","longitude":"0.53833330","name":"Douar Djoualil"},{"id":"654984","latitude":"35.67916670","longitude":"0.48027780","name":"Douar Djou\u00e2msia"},{"id":"654985","latitude":"35.70000000","longitude":"0.38805560","name":"Douar Djouhar\u00eea"},{"id":"654986","latitude":"35.67916670","longitude":"0.48027780","name":"Douar Djouibsia"},{"id":"654991","latitude":"35.83333330","longitude":"0.62916670","name":"Douar Dra\u00efssia"},{"id":"654997","latitude":"35.53638890","longitude":"0.69305560","name":"Douar Eddabala"},{"id":"655001","latitude":"35.49805560","longitude":"0.68055560","name":"Douar el Aba\u00efdia"},{"id":"655002","latitude":"35.97277780","longitude":"0.71250000","name":"Douar el Abaridj"},{"id":"655003","latitude":"35.75333330","longitude":"0.36055560","name":"Douar el Abe\u00efdia"},{"id":"655006","latitude":"35.97277780","longitude":"0.74833330","name":"Douar el Ahouech"},{"id":"655008","latitude":"35.72055560","longitude":"0.27277780","name":"Douar el Akegda"},{"id":"655009","latitude":"35.87750000","longitude":"0.51500000","name":"Douar el Ameur"},{"id":"655011","latitude":"35.53416670","longitude":"0.62250000","name":"Douar el Anatra"},{"id":"655012","latitude":"35.78333330","longitude":"0.33777780","name":"Douar el Aouadj"},{"id":"655013","latitude":"35.76194440","longitude":"0.64194440","name":"Douarel Aoua\u00efss"},{"id":"655015","latitude":"35.64500000","longitude":"0.32750000","name":"Douar el Aouana"},{"id":"655016","latitude":"35.68972220","longitude":"0.25083330","name":"Douar el 'Aouch\u00eeh"},{"id":"655017","latitude":"35.68027780","longitude":"0.23722220","name":"Douar el Aou\u00eess\u00e2t"},{"id":"655018","latitude":"35.68027780","longitude":"0.23722220","name":"Douar el Aou\u00efsset"},{"id":"655021","latitude":"35.60361110","longitude":"0.96027780","name":"Douar el Ara\u00efssia"},{"id":"655022","latitude":"35.91888890","longitude":"0.87277780","name":"Douar el Arbia"},{"id":"655026","latitude":"35.88527780","longitude":"0.50583330","name":"Douar el Attebi"},{"id":"655034","latitude":"35.68527780","longitude":"0.29000000","name":"Douar el Behara"},{"id":"655036","latitude":"35.48305560","longitude":"0.81305560","name":"Douar el Betainia"},{"id":"655039","latitude":"35.52055560","longitude":"0.61888890","name":"Douar el Bouakria"},{"id":"655040","latitude":"35.74805560","longitude":"0.68583330","name":"Douar el Boualeg"},{"id":"655041","latitude":"35.73555560","longitude":"0.70500000","name":"Douar el Branssia"},{"id":"655045","latitude":"35.74861110","longitude":"0.66916670","name":"Douar el Djebabra"},{"id":"655051","latitude":"35.90888890","longitude":"0.88444440","name":"Douar el Ghetatra"},{"id":"655052","latitude":"35.81694440","longitude":"0.45444440","name":"Douar el Gora"},{"id":"655055","latitude":"35.81388890","longitude":"0.88222220","name":"Douar el Gouassem"},{"id":"655056","latitude":"35.79944440","longitude":"0.61750000","name":"Douar el Goussine"},{"id":"655058","latitude":"35.69444440","longitude":"0.88416670","name":"Douar el Guela\u00eflia"},{"id":"655062","latitude":"35.64166670","longitude":"0.71305560","name":"Douar el Guradib"},{"id":"655065","latitude":"35.71638890","longitude":"0.27777780","name":"Douar el Hadj\u00e2djra"},{"id":"655066","latitude":"35.56916670","longitude":"0.91944440","name":"Douar el Hadj Ahmed"},{"id":"655067","latitude":"35.69638890","longitude":"0.31916670","name":"Douar el Hadja\u00efdjiya"},{"id":"655068","latitude":"35.60055560","longitude":"0.84833330","name":"Douar el Hadj Ali"},{"id":"655070","latitude":"35.56694440","longitude":"0.61666670","name":"Douar el Hadj ben Safia"},{"id":"655071","latitude":"35.72666670","longitude":"0.71333330","name":"Douar el Hadj"},{"id":"655073","latitude":"35.62111110","longitude":"0.86138890","name":"Douar el Hadj Hamou"},{"id":"655075","latitude":"35.82250000","longitude":"0.86194440","name":"Douar el Hadj Tahar"},{"id":"655078","latitude":"35.68250000","longitude":"0.27972220","name":"Douar el Hamaydia"},{"id":"655079","latitude":"35.65611110","longitude":"0.36027780","name":"Douar el Hamri"},{"id":"655086","latitude":"35.94861110","longitude":"0.74833330","name":"Douar el Hasasna"},{"id":"655087","latitude":"35.53194440","longitude":"0.66833330","name":"Douar el Hassa\u00efnia"},{"id":"655092","latitude":"35.75916670","longitude":"0.63277780","name":"Douar el Hema\u00efd"},{"id":"655094","latitude":"35.53805560","longitude":"0.58500000","name":"Douar el Hna\u00efnia"},{"id":"655096","latitude":"35.88972220","longitude":"0.51194440","name":"Douar el Houara"},{"id":"655101","latitude":"35.65888890","longitude":"0.52361110","name":"Douar el Kedadra"},{"id":"655103","latitude":"35.66416670","longitude":"0.29222220","name":"Douar el Keha\u00eflia"},{"id":"655104","latitude":"35.66527780","longitude":"0.65194440","name":"Douar el Kenannda"},{"id":"655107","latitude":"35.55000000","longitude":"0.59527780","name":"Douar el Kheba\u00efzia"},{"id":"655108","latitude":"35.64055560","longitude":"0.50666670","name":"Douar el Khecha"},{"id":"655110","latitude":"35.48777780","longitude":"0.79083330","name":"Douar el Khedem"},{"id":"655117","latitude":"35.68083330","longitude":"0.35722220","name":"Douar el Kouamlia"},{"id":"655118","latitude":"35.60333330","longitude":"0.54916670","name":"Douar el Kouassem"},{"id":"655122","latitude":"35.48777780","longitude":"0.79083330","name":"Douar el Kredem"},{"id":"655125","latitude":"35.50555560","longitude":"0.67027780","name":"Douar el Krouelet"},{"id":"655129","latitude":"35.70222220","longitude":"0.55222220","name":"Douar el Meguen"},{"id":"655130","latitude":"35.79611110","longitude":"0.32027780","name":"Douar el Mekh\u00e2tria"},{"id":"655132","latitude":"35.53250000","longitude":"0.52555560","name":"Douar el Menacir"},{"id":"655135","latitude":"35.71916670","longitude":"0.58000000","name":"Douar el Messabhia"},{"id":"655137","latitude":"35.59666670","longitude":"0.57777780","name":"Douar el Mezouagh"},{"id":"655143","latitude":"35.66833330","longitude":"0.53555560","name":"Douar el Moualil"},{"id":"655144","latitude":"35.48027780","longitude":"0.77777780","name":"Douar el Mrabetine"},{"id":"655152","latitude":"35.87083330","longitude":"0.84361110","name":"Douar el Oualiba"},{"id":"655153","latitude":"35.58027780","longitude":"0.85583330","name":"Douar el Ouamat"},{"id":"655154","latitude":"35.97666670","longitude":"0.78527780","name":"Douar el Ouaoura"},{"id":"655159","latitude":"35.90888890","longitude":"0.88444440","name":"Douar el Rhetatra"},{"id":"655162","latitude":"35.54972220","longitude":"0.72194440","name":"Douar Ennouayel"},{"id":"655174","latitude":"35.62611110","longitude":"0.44666670","name":"Douar Essentahia"},{"id":"655175","latitude":"35.52666670","longitude":"0.69583330","name":"Douar Esshari"},{"id":"655177","latitude":"35.73666670","longitude":"0.68805560","name":"Douar es Slamnia"},{"id":"655179","latitude":"35.69027780","longitude":"0.65250000","name":"Douar es Souabria"},{"id":"655180","latitude":"35.94666670","longitude":"0.75111110","name":"Douar et Taromil"},{"id":"655182","latitude":"35.65388890","longitude":"0.47388890","name":"Douar et Toua\u00eftia"},{"id":"655184","latitude":"35.53833330","longitude":"0.60583330","name":"Douar Ezgha\u00efchia"},{"id":"655188","latitude":"35.63666670","longitude":"0.50500000","name":"Douar ez Zeraoula"},{"id":"655189","latitude":"35.63666670","longitude":"0.50500000","name":"Douar ez Zerraoula"},{"id":"655190","latitude":"35.64000000","longitude":"0.71416670","name":"Douar ez Zha\u00efria"},{"id":"655200","latitude":"35.81305560","longitude":"0.48055560","name":"Douar Fetacha"},{"id":"655205","latitude":"35.52805560","longitude":"0.73000000","name":"Douar Fra\u00efhia"},{"id":"655215","latitude":"35.59194440","longitude":"0.57777780","name":"Douar Glamlia"},{"id":"655218","latitude":"35.82500000","longitude":"0.89888890","name":"Douar Gouassem"},{"id":"655220","latitude":"35.87805560","longitude":"0.91333330","name":"Douar Gra\u00efnia"},{"id":"655222","latitude":"35.64916670","longitude":"0.60250000","name":"Douar Grardja"},{"id":"655224","latitude":"35.65777780","longitude":"0.27750000","name":"Douar Gueithana"},{"id":"655226","latitude":"35.51194440","longitude":"0.66416670","name":"Douar Guessa\u00efssia"},{"id":"655229","latitude":"35.72111110","longitude":"0.72000000","name":"Douar Gura\u00efria"},{"id":"655232","latitude":"35.69638890","longitude":"0.31916670","name":"Douar Hadi Ha\u00efdjia"},{"id":"655240","latitude":"35.70611110","longitude":"0.27916670","name":"Douar Hadj Hadjera"},{"id":"655244","latitude":"35.71972220","longitude":"0.44000000","name":"Douar Hael el Morseli"},{"id":"655245","latitude":"35.58944440","longitude":"0.58416670","name":"Douar Halloufa"},{"id":"655246","latitude":"35.89416670","longitude":"0.77083330","name":"Douar Hamadena"},{"id":"655251","latitude":"35.71638890","longitude":"0.74777780","name":"Douar Hamza"},{"id":"655252","latitude":"35.53500000","longitude":"0.64222220","name":"Douar Haoud el Agab"},{"id":"655258","latitude":"35.95416670","longitude":"0.90833330","name":"Douar Hemm\u00e9da"},{"id":"655277","latitude":"35.66416670","longitude":"0.29222220","name":"Douar Kaelia"},{"id":"655282","latitude":"35.67527780","longitude":"0.63777780","name":"Douar Karaout"},{"id":"655287","latitude":"35.65888890","longitude":"0.52361110","name":"Douar Ked\u00e2dra"},{"id":"655288","latitude":"35.53916670","longitude":"0.59694440","name":"Douar Kenadia"},{"id":"655289","latitude":"35.66527780","longitude":"0.65194440","name":"Douar Kenenda"},{"id":"655295","latitude":"35.80194440","longitude":"0.75861110","name":"Douar Kheda\u00efdia"},{"id":"655300","latitude":"35.81333330","longitude":"0.75166670","name":"Douar Khouaouna"},{"id":"655306","latitude":"35.50666670","longitude":"0.66750000","name":"Douar Kra\u00efya"},{"id":"655307","latitude":"35.80194440","longitude":"0.75861110","name":"Douar Kreda\u00efdia"},{"id":"655309","latitude":"35.49722220","longitude":"0.69555560","name":"Douar Krenansa"},{"id":"655311","latitude":"35.72527780","longitude":"0.63750000","name":"Douar Kriouat"},{"id":"655312","latitude":"35.81333330","longitude":"0.75166670","name":"Douar Krouaouna"},{"id":"655314","latitude":"35.68611110","longitude":"0.68027780","name":"Douar La\u00e2babssa"},{"id":"655315","latitude":"35.65666670","longitude":"0.73194440","name":"Douar La\u00e2baydia"},{"id":"655316","latitude":"35.64416670","longitude":"0.64722220","name":"Douar La\u00e2dja\u00efmia"},{"id":"655317","latitude":"35.56861110","longitude":"0.53611110","name":"Douar La\u00e2guerbia"},{"id":"655320","latitude":"35.71027780","longitude":"0.68500000","name":"Douar La\u00e2ouamria"},{"id":"655323","latitude":"35.66805560","longitude":"0.69277780","name":"Douar Laghoual"},{"id":"655328","latitude":"35.51666670","longitude":"0.64527780","name":"Douar Lahssa\u00efnia"},{"id":"655329","latitude":"35.74833330","longitude":"0.70750000","name":"Douar Lahtatba"},{"id":"655332","latitude":"35.83555560","longitude":"0.49138890","name":"Douar Late\u00eflia"},{"id":"655333","latitude":"35.56555560","longitude":"0.62277780","name":"Douar Laza\u00eflia"},{"id":"655334","latitude":"35.56555560","longitude":"0.62277780","name":"Douar Lazalia"},{"id":"655336","latitude":"35.64388890","longitude":"0.74833330","name":"Douar Lema\u00e2ziz"},{"id":"655337","latitude":"35.72972220","longitude":"0.69444440","name":"Douar Lemssabhia"},{"id":"655345","latitude":"35.71888890","longitude":"0.32055560","name":"Douar Ma\u00efa"},{"id":"655348","latitude":"35.71944440","longitude":"0.68388890","name":"Douar Meada"},{"id":"655349","latitude":"35.74000000","longitude":"0.73694440","name":"Douar Mecha\u00efchia"},{"id":"655356","latitude":"35.48833330","longitude":"0.69833330","name":"Douar Mehada"},{"id":"655359","latitude":"35.52888890","longitude":"0.78833330","name":"Douar Mehellet"},{"id":"655360","latitude":"35.69611110","longitude":"0.46750000","name":"Douar Mekadid"},{"id":"655363","latitude":"35.79611110","longitude":"0.32027780","name":"Douar Mekhatria"},{"id":"655365","latitude":"35.84694440","longitude":"0.71666670","name":"Douar Menasria"},{"id":"655368","latitude":"35.67527780","longitude":"0.35638890","name":"Douar Merh\u00e2nna"},{"id":"655370","latitude":"35.50611110","longitude":"0.65166670","name":"Douar Mesmoud"},{"id":"655371","latitude":"35.71166670","longitude":"0.45138890","name":"Douar Messabehia"},{"id":"655372","latitude":"35.71166670","longitude":"0.45138890","name":"Douar Mess\u00e2bihia"},{"id":"655376","latitude":"35.79888890","longitude":"0.50694440","name":"Douar Messaoud"},{"id":"655381","latitude":"35.57583330","longitude":"0.74166670","name":"Douar Mohamedi"},{"id":"655382","latitude":"35.66305560","longitude":"0.71055560","name":"Douar Mohammed Bel Djilali"},{"id":"655395","latitude":"35.61027780","longitude":"0.52388890","name":"Douar Moualdia"},{"id":"655397","latitude":"35.66361110","longitude":"0.55083330","name":"Douar Mouasfa"},{"id":"655405","latitude":"35.56500000","longitude":"0.31027780","name":"Douar Msrata"},{"id":"655416","latitude":"35.89916670","longitude":"0.81416670","name":"Douar Nouaeria"},{"id":"655418","latitude":"35.72972220","longitude":"0.72138890","name":"Douar Noua\u00efria"},{"id":"655420","latitude":"35.53111110","longitude":"0.78166670","name":"Douar Ntaala"},{"id":"655427","latitude":"35.84722220","longitude":"0.83722220","name":"Douar Oued Cherif"},{"id":"655428","latitude":"35.97861110","longitude":"0.78000000","name":"Douar Oued Djilali"},{"id":"655429","latitude":"35.62861110","longitude":"0.41861110","name":"Douar Oued Emmbark"},{"id":"655430","latitude":"35.90194440","longitude":"0.81583330","name":"Douar Oued Mustapha"},{"id":"655431","latitude":"35.99027780","longitude":"0.78277780","name":"Douar Oued Ouis"},{"id":"655432","latitude":"35.96194440","longitude":"0.71277780","name":"Douar Oued Sidi Mahi Eddine"},{"id":"655434","latitude":"35.81361110","longitude":"0.91555560","name":"Douar Oued Zeurg"},{"id":"655437","latitude":"35.78472220","longitude":"0.42527780","name":"Douar Oulad Abd Allah"},{"id":"655443","latitude":"35.58111110","longitude":"0.89916670","name":"Douar Oulad Ahmed"},{"id":"655446","latitude":"35.73166670","longitude":"0.66333330","name":"Douar Oulad Ali"},{"id":"655447","latitude":"35.71361110","longitude":"0.62972220","name":"Douar Oulad Allal"},{"id":"655450","latitude":"35.68972220","longitude":"0.25083330","name":"Douar Oulad Amar"},{"id":"655457","latitude":"35.84361110","longitude":"0.71305560","name":"Douar Oulad Bechaharour"},{"id":"655458","latitude":"35.48277780","longitude":"0.80083330","name":"Douar Oulad Belal"},{"id":"655461","latitude":"35.58361110","longitude":"0.90750000","name":"Douar Oulad Ben A\u00efssa"},{"id":"655463","latitude":"35.94722220","longitude":"0.55305560","name":"Douar Oulad Ben Denia"},{"id":"655466","latitude":"35.55638890","longitude":"0.73805560","name":"Douar Oulad Bou Ahmoud"},{"id":"655468","latitude":"35.51305560","longitude":"0.91027780","name":"Douar Oulad Boudali"},{"id":"655471","latitude":"35.68027780","longitude":"0.30166670","name":"Douar Oulad Boughni"},{"id":"655473","latitude":"35.55000000","longitude":"0.70000000","name":"Douar Oulad Bou Kradda"},{"id":"655480","latitude":"35.50111110","longitude":"0.79111110","name":"Douar Oulad el Hadj"},{"id":"655481","latitude":"35.82416670","longitude":"0.30305560","name":"Douar Oulad el Hadjel"},{"id":"655485","latitude":"35.64694440","longitude":"0.28694440","name":"Douar Oulad et T\u00e2zi"},{"id":"655490","latitude":"35.82166670","longitude":"0.29555560","name":"Douar Oulad Kaddour"},{"id":"655500","latitude":"35.62305560","longitude":"0.70166670","name":"Douar Oulad Nouasseur"},{"id":"655501","latitude":"35.62194440","longitude":"0.89194440","name":"Douar Oulad Ouada"},{"id":"655502","latitude":"35.70138890","longitude":"0.29111110","name":"Douar Oulad Ou Ali"},{"id":"655503","latitude":"35.63500000","longitude":"0.32250000","name":"Douar Oulad Saada"},{"id":"655509","latitude":"35.53055560","longitude":"0.81472220","name":"Douar Oulad Sidi Ali"},{"id":"655510","latitude":"35.59722220","longitude":"0.77805560","name":"Douar Oulad Sidi bel Arbi"},{"id":"655514","latitude":"35.60527780","longitude":"0.83388890","name":"Douar Oulad Sidi el Azreg"},{"id":"655515","latitude":"35.60888890","longitude":"0.84388890","name":"Douar Oulad Sidi el Azreg Touta"},{"id":"655518","latitude":"35.60000000","longitude":"0.68111110","name":"Douar Oulad Sidi Mohammed Ben Larbi"},{"id":"655522","latitude":"35.68527780","longitude":"0.31888890","name":"Douar Oulad Sidi Ta\u00efeb"},{"id":"655525","latitude":"35.59305560","longitude":"0.72666670","name":"Douar Oulad Sma\u00efn"},{"id":"655526","latitude":"35.58500000","longitude":"0.62416670","name":"Douar Oulad Taoui"},{"id":"655527","latitude":"35.64694440","longitude":"0.28694440","name":"Douar Oulad Tazi"},{"id":"655531","latitude":"35.78472220","longitude":"0.42527780","name":"Douar Ouled Abdallah"},{"id":"655534","latitude":"35.67500000","longitude":"0.52333330","name":"Douar Ouled Adda"},{"id":"655541","latitude":"35.73166670","longitude":"0.66333330","name":"Douar Ouled Ali"},{"id":"655542","latitude":"35.71361110","longitude":"0.62972220","name":"Douar Ouled Allel"},{"id":"655545","latitude":"35.62138890","longitude":"0.71861110","name":"Douar Ouled Ameur"},{"id":"655546","latitude":"35.76083330","longitude":"0.32555560","name":"Douar Ouled Amid"},{"id":"655551","latitude":"35.63722220","longitude":"0.59194440","name":"Douar Ouled Barkat"},{"id":"655552","latitude":"35.68027780","longitude":"0.61611110","name":"Douar Ouled Bel Krira"},{"id":"655553","latitude":"35.60000000","longitude":"1.08333330","name":"Douar Ouled Ben Abd el Rehim"},{"id":"655554","latitude":"35.58916670","longitude":"0.74972220","name":"Douar Ouled Ben Ali"},{"id":"655558","latitude":"35.73611110","longitude":"0.72444440","name":"Douar Ouled Ben Sa\u00e2dallah"},{"id":"655561","latitude":"35.62805560","longitude":"0.69194440","name":"Douar Ouled Ben Yahia Mustapha"},{"id":"655563","latitude":"35.54277780","longitude":"0.52083330","name":"Douar Ouled Bou Azan"},{"id":"655564","latitude":"35.54277780","longitude":"0.52083330","name":"Douar Ouled Bouazza"},{"id":"655569","latitude":"35.55888890","longitude":"0.71250000","name":"Douar Ouled Bouziane"},{"id":"655577","latitude":"35.62388890","longitude":"0.73111110","name":"Douar Ouled Djelloul"},{"id":"655581","latitude":"35.65277780","longitude":"0.52472220","name":"Douar Ouled el Ahmar Ben Kaddour"},{"id":"655582","latitude":"35.65972220","longitude":"0.53527780","name":"Douar Ouled el Ahmar"},{"id":"655584","latitude":"35.65861110","longitude":"0.54138890","name":"Douar Ouled el Aouda"},{"id":"655586","latitude":"35.69805560","longitude":"0.68944440","name":"Douar Ouled el Arbi"},{"id":"655587","latitude":"35.67583330","longitude":"0.64722220","name":"Douar Ouled el Djilali"},{"id":"655589","latitude":"35.62638890","longitude":"0.43166670","name":"Douar Ouled el Habibi"},{"id":"655599","latitude":"35.77472220","longitude":"0.64083330","name":"Douar Ouled Gana"},{"id":"655602","latitude":"35.56666670","longitude":"1.10000000","name":"Douar Ouled Hadj Kaddour"},{"id":"655609","latitude":"35.65777780","longitude":"0.62916670","name":"Douar Ouled Kh'Lloug"},{"id":"655612","latitude":"35.76777780","longitude":"0.69277780","name":"Douar Ouled Lhassen"},{"id":"655616","latitude":"35.71277780","longitude":"0.57638890","name":"Douar Ouled Mohamed"},{"id":"655620","latitude":"35.59777780","longitude":"0.44416670","name":"Douar Ouled Mohammed"},{"id":"655628","latitude":"35.55777780","longitude":"0.65777780","name":"Douar Ouled Rahal"},{"id":"655635","latitude":"35.57638890","longitude":"0.70194440","name":"Douar Ouled Sidi Bekheda"},{"id":"655639","latitude":"35.62111110","longitude":"0.74027780","name":"Douar Ouled Sidi Lazreg"},{"id":"655641","latitude":"35.96194440","longitude":"0.71277780","name":"Douar Ouled Sidi Mahi Eddine"},{"id":"655647","latitude":"35.53500000","longitude":"0.72111110","name":"Douar Ouled Sidi Yahia"},{"id":"655652","latitude":"35.67333330","longitude":"0.55277780","name":"Douar Ouled Srour"},{"id":"655657","latitude":"35.74166670","longitude":"0.66083330","name":"Douar Ouled Yahia Ben Adda"},{"id":"655662","latitude":"35.74777780","longitude":"0.69666670","name":"Douar Ouled Ziane"},{"id":"655663","latitude":"35.61555560","longitude":"0.55555560","name":"Douar Ouled Zid"},{"id":"655665","latitude":"35.53416670","longitude":"0.69444440","name":"Douar Rahlia"},{"id":"655666","latitude":"35.59305560","longitude":"0.67833330","name":"Douar Rahmania"},{"id":"655668","latitude":"35.91416670","longitude":"0.51777780","name":"Douar Rbernia"},{"id":"655671","latitude":"35.57111110","longitude":"0.71416670","name":"Douar Regua\u00efguia"},{"id":"655673","latitude":"35.63500000","longitude":"0.32250000","name":"Douar Rena\u00efcia"},{"id":"655675","latitude":"35.68194440","longitude":"0.52055560","name":"Douar Reze\u00efguia"},{"id":"655678","latitude":"35.52972220","longitude":"0.69166670","name":"Douar R'Ha\u00eflia"},{"id":"655681","latitude":"35.72361110","longitude":"0.70861110","name":"Douar R'Hamnia"},{"id":"655686","latitude":"35.82500000","longitude":"0.46027780","name":"Douar Rhouaeria"},{"id":"655687","latitude":"35.85166670","longitude":"0.57888890","name":"Douar Rina\u00efzia"},{"id":"655693","latitude":"35.83833330","longitude":"0.87888890","name":"Douar Sahari"},{"id":"655694","latitude":"35.63611110","longitude":"0.59416670","name":"Douar Sa\u00efda"},{"id":"655696","latitude":"35.66138890","longitude":"0.56750000","name":"Douar Sa\u00efdia"},{"id":"655703","latitude":"35.66444440","longitude":"0.35194440","name":"Douar Sedjerara"},{"id":"655704","latitude":"35.66444440","longitude":"0.35194440","name":"Douar Sedjr\u00e2ra"},{"id":"655706","latitude":"35.51638890","longitude":"0.65777780","name":"Douar Sehari"},{"id":"655708","latitude":"35.64166670","longitude":"0.71305560","name":"Douars el Gueradib"},{"id":"655709","latitude":"36.03611110","longitude":"0.87833330","name":"Douar Senhadja"},{"id":"655711","latitude":"35.56305560","longitude":"0.73194440","name":"Douar Sgha\u00efria"},{"id":"655712","latitude":"35.85027780","longitude":"0.68083330","name":"Douar Siafa"},{"id":"655715","latitude":"35.67000000","longitude":"0.74833330","name":"Douar Sidi Abdelaziz"},{"id":"655717","latitude":"35.57138890","longitude":"0.37055560","name":"Douar Sidi Ahmed Bel Jouzi"},{"id":"655719","latitude":"35.61361110","longitude":"0.83527780","name":"Douar Sidi Ali"},{"id":"655727","latitude":"35.69861110","longitude":"0.51944440","name":"Douar Sidi el Hadj"},{"id":"655738","latitude":"35.63722220","longitude":"0.64500000","name":"Douar Sidi Ouamer"},{"id":"655740","latitude":"35.68527780","longitude":"0.31888890","name":"Douar Sidi T\u00e2yeb"},{"id":"655747","latitude":"35.56250000","longitude":"0.66555560","name":"Douar Sna\u00efs"},{"id":"655751","latitude":"35.54111110","longitude":"0.58611110","name":"Douar Soualmia"},{"id":"655753","latitude":"35.54111110","longitude":"0.58611110","name":"Douar Souimia"},{"id":"655755","latitude":"36.06250000","longitude":"0.49111110","name":"Douar Sraabia"},{"id":"655766","latitude":"35.47277780","longitude":"0.93361110","name":"Douar Tezerkounet"},{"id":"655767","latitude":"35.75611110","longitude":"0.60361110","name":"Douar Tfafha"},{"id":"655768","latitude":"35.58083330","longitude":"0.59888890","name":"Douar Thourigue"},{"id":"655778","latitude":"35.52944440","longitude":"0.67833330","name":"Douar Toua\u00efbia"},{"id":"655780","latitude":"35.70750000","longitude":"0.25916670","name":"Douar Toua\u00efdjia"},{"id":"655781","latitude":"35.70750000","longitude":"0.25916670","name":"Douar Touaoudja"},{"id":"655783","latitude":"35.62388890","longitude":"0.91888890","name":"Douar Toueitia"},{"id":"655794","latitude":"35.59277780","longitude":"0.65888890","name":"Douar Yazerou"},{"id":"655802","latitude":"35.70722220","longitude":"0.60416670","name":"Douar Zekahlia"},{"id":"655804","latitude":"35.70027780","longitude":"0.64361110","name":"Douar Zenadra"},{"id":"655807","latitude":"35.74250000","longitude":"0.73361110","name":"Douar Zera\u00efguia"},{"id":"655811","latitude":"35.47027780","longitude":"0.77277780","name":"Douar Zia\u00efna"},{"id":"655815","latitude":"35.94444440","longitude":"0.88888890","name":"Douar Znanya"},{"id":"655816","latitude":"35.56833330","longitude":"0.60388890","name":"Douar Zoua\u00efdia"},{"id":"655859","latitude":"35.51472220","longitude":"0.64027780","name":"Echafia"},{"id":"655877","latitude":"35.60611110","longitude":"0.68166670","name":"Eddarssa"},{"id":"655878","latitude":"35.51138890","longitude":"0.68083330","name":"Eddarssa el Kahla"},{"id":"655903","latitude":"35.69611110","longitude":"0.26111110","name":"El Aba\u00efdia"},{"id":"655932","latitude":"35.91666670","longitude":"1.00000000","name":"El Alef"},{"id":"655945","latitude":"35.87750000","longitude":"0.51500000","name":"El Ameur"},{"id":"655967","latitude":"35.60000000","longitude":"0.51666670","name":"El Aouamria"},{"id":"655975","latitude":"35.56666670","longitude":"0.53333330","name":"El Aouisset"},{"id":"655976","latitude":"35.56666670","longitude":"0.53333330","name":"El Aousset"},{"id":"655981","latitude":"35.60361110","longitude":"0.96027780","name":"El Ara\u00efssia"},{"id":"655988","latitude":"35.91666670","longitude":"1.00000000","name":"El Aref"},{"id":"656010","latitude":"35.57888890","longitude":"0.30527780","name":"El Azaizia"},{"id":"656014","latitude":"35.68861110","longitude":"0.77138890","name":"El Azzala"},{"id":"656109","latitude":"35.78416670","longitude":"0.51111110","name":"El Groh"},{"id":"656113","latitude":"35.64166670","longitude":"0.71305560","name":"El Gueradib"},{"id":"656191","latitude":"35.65611110","longitude":"0.36027780","name":"El Hamri"},{"id":"656223","latitude":"35.90805560","longitude":"0.77277780","name":"El H'madna"},{"id":"656230","latitude":"35.68027780","longitude":"0.23722220","name":"El Houissatte"},{"id":"656263","latitude":"35.66527780","longitude":"0.65194440","name":"El Kenannda"},{"id":"656268","latitude":"35.68305560","longitude":"0.82111110","name":"El Kessikiss"},{"id":"656280","latitude":"35.64055560","longitude":"0.50666670","name":"El Khechaa"},{"id":"656322","latitude":"35.50555560","longitude":"0.67027780","name":"El Krouelet"},{"id":"656379","latitude":"35.73444440","longitude":"0.45861110","name":"El Matmar"},{"id":"656430","latitude":"35.64166670","longitude":"0.75305560","name":"El Moaziz"},{"id":"656437","latitude":"35.83305560","longitude":"0.93444440","name":"El Mouaba"},{"id":"656513","latitude":"35.85972220","longitude":"0.97638890","name":"En Nekaka"},{"id":"656574","latitude":"35.64111110","longitude":"0.67111110","name":"Ettouaress"},{"id":"656585","latitude":"35.63666670","longitude":"0.50500000","name":"Ez Zeraoula"},{"id":"656591","latitude":"35.69555560","longitude":"0.82444440","name":"Ez Zoubia"},{"id":"656655","latitude":"35.79555560","longitude":"0.67944440","name":"Ferry"},{"id":"656737","latitude":"35.55666670","longitude":"0.69555560","name":"Gharbou Tchicha"},{"id":"656757","latitude":"35.81388890","longitude":"0.88222220","name":"Gouassem"},{"id":"656770","latitude":"35.95000000","longitude":"1.01666670","name":"Gra\u00efria"},{"id":"656795","latitude":"35.81666670","longitude":"0.92416670","name":"Guelt Bou Zid"},{"id":"656840","latitude":"35.78083330","longitude":"1.13083330","name":"Guillaumet"},{"id":"656855","latitude":"35.69638890","longitude":"0.31916670","name":"Hadi Ha\u00efdjia"},{"id":"656869","latitude":"35.71638890","longitude":"0.27777780","name":"Hadj Hadjera"},{"id":"656870","latitude":"35.95333330","longitude":"0.52666670","name":"Hadj Mohammed Meda"},{"id":"656885","latitude":"35.91250000","longitude":"0.50944440","name":"Halte de Sidi Khetab"},{"id":"656886","latitude":"35.90805560","longitude":"0.77277780","name":"Hamadena"},{"id":"656994","latitude":"36.13333330","longitude":"0.88333330","name":"Hassasna"},{"id":"657025","latitude":"35.74388890","longitude":"0.77500000","name":"Hateb el Moualah"},{"id":"657026","latitude":"35.72111110","longitude":"0.76694440","name":"Hateb el Ouarta"},{"id":"657048","latitude":"35.57777780","longitude":"0.92500000","name":"Henri Huc"},{"id":"657049","latitude":"35.57777780","longitude":"0.92500000","name":"Henri Hue"},{"id":"657099","latitude":"35.74250000","longitude":"0.55916670","name":"Ighil Izane"},{"id":"657158","latitude":"35.96333330","longitude":"0.91361110","name":"Inkermann"},{"id":"657239","latitude":"35.93138890","longitude":"0.82333330","name":"Jdiouia"},{"id":"657255","latitude":"35.65888890","longitude":"0.52361110","name":"Kadadra"},{"id":"657260","latitude":"35.66416670","longitude":"0.29222220","name":"Kaelia"},{"id":"657266","latitude":"35.57888890","longitude":"0.32861110","name":"Kalaa des Beni Rached"},{"id":"657267","latitude":"35.57888890","longitude":"0.32861110","name":"Kalaa"},{"id":"657320","latitude":"35.65833330","longitude":"0.82444440","name":"Kenenda"},{"id":"657321","latitude":"35.65833330","longitude":"0.82444440","name":"Keneneda"},{"id":"657322","latitude":"35.65833330","longitude":"0.82444440","name":"Kenennda"},{"id":"657325","latitude":"35.51250000","longitude":"0.64305560","name":"Keracha"},{"id":"657366","latitude":"35.63333330","longitude":"0.55055560","name":"Khechab"},{"id":"657437","latitude":"35.62416670","longitude":"0.47666670","name":"Kressia"},{"id":"657443","latitude":"35.90805560","longitude":"0.77277780","name":"Krourara"},{"id":"657506","latitude":"35.91666670","longitude":"1.00000000","name":"Lahlaf"},{"id":"657507","latitude":"35.91666670","longitude":"1.00000000","name":"Lahlef"},{"id":"657593","latitude":"35.56555560","longitude":"0.62277780","name":"Lazalia"},{"id":"657620","latitude":"35.83861110","longitude":"0.47138890","name":"Lekhal Ben Abed"},{"id":"657674","latitude":"35.83083330","longitude":"0.65444440","name":"Les Salines"},{"id":"657675","latitude":"35.73444440","longitude":"0.45861110","name":"Les Silos"},{"id":"657691","latitude":"35.72194440","longitude":"0.35361110","name":"L'Hillil"},{"id":"657735","latitude":"35.52500000","longitude":"0.67416670","name":"Madjrem Errami"},{"id":"657864","latitude":"36.11833330","longitude":"0.89861110","name":"Mazouna"},{"id":"657870","latitude":"35.69055560","longitude":"0.90055560","name":"Mchallal er Raha"},{"id":"657877","latitude":"35.90583330","longitude":"0.72555560","name":"M'Dadaah"},{"id":"657907","latitude":"35.78333330","longitude":"1.16666670","name":"Mechta Adouia"},{"id":"657910","latitude":"35.80611110","longitude":"0.44611110","name":"Mechta Ahl Ben Agga"},{"id":"657964","latitude":"35.71861110","longitude":"0.92138890","name":"Mechta Amoura"},{"id":"658010","latitude":"35.68333330","longitude":"1.11666670","name":"Mechta Ben Kaddour"},{"id":"658023","latitude":"35.78333330","longitude":"1.21666670","name":"Mechta Besnes"},{"id":"658069","latitude":"35.65083330","longitude":"0.97888890","name":"Mechta Bou Kraa"},{"id":"658111","latitude":"35.65000000","longitude":"1.16666670","name":"Mechta Cherada"},{"id":"658159","latitude":"35.80000000","longitude":"1.10000000","name":"Mechta Dra\u00efssia"},{"id":"658182","latitude":"35.76361110","longitude":"0.97861110","name":"Mechta el Kouassem"},{"id":"658195","latitude":"35.79944440","longitude":"0.98000000","name":"Mechta Fekharlia"},{"id":"658236","latitude":"36.03333330","longitude":"0.91666670","name":"Mechta Guetta\u00ef"},{"id":"658260","latitude":"35.95305560","longitude":"0.82694440","name":"Mechta Kadour Ben Adda"},{"id":"658279","latitude":"35.94777780","longitude":"0.77194440","name":"Mechta Khadem Sidi Ali"},{"id":"658280","latitude":"35.71666670","longitude":"1.15000000","name":"Mechta Khalifia"},{"id":"658286","latitude":"35.80000000","longitude":"1.20000000","name":"Mechta Khema\u00efla"},{"id":"658287","latitude":"35.71666670","longitude":"1.21666670","name":"Mechta Kherarba"},{"id":"658291","latitude":"35.78333330","longitude":"1.10000000","name":"Mechta Koua\u00efd"},{"id":"658373","latitude":"36.11222220","longitude":"0.78805560","name":"Mechta Moussa Beloufa"},{"id":"658390","latitude":"35.97527780","longitude":"0.84083330","name":"Mechta Oulad Adda"},{"id":"658643","latitude":"35.98833330","longitude":"0.79611110","name":"Mechtat A\u00efade"},{"id":"658763","latitude":"35.99194440","longitude":"0.86361110","name":"Mechtat Dja\u00efdia"},{"id":"658769","latitude":"35.82055560","longitude":"0.90194440","name":"Mechtat Dzla\u00eblia"},{"id":"658781","latitude":"35.99861110","longitude":"0.80833330","name":"Mechtat ed Doua\u00efdia"},{"id":"658782","latitude":"35.90583330","longitude":"0.80777780","name":"Mechtat ed Dra\u00efm\u00efa"},{"id":"658787","latitude":"36.06666670","longitude":"0.75000000","name":"Mechtat el Affania"},{"id":"658788","latitude":"36.06666670","longitude":"0.75000000","name":"Mechtat el Affanis"},{"id":"658793","latitude":"35.86722220","longitude":"0.88611110","name":"Mechtat el Amar"},{"id":"658795","latitude":"35.99611110","longitude":"0.77555560","name":"Mechtat el Anainia"},{"id":"658800","latitude":"35.90694440","longitude":"0.81916670","name":"Mechtat el Aoulia"},{"id":"658807","latitude":"35.97166670","longitude":"0.76250000","name":"Mechtat el Azza"},{"id":"658823","latitude":"35.99861110","longitude":"0.80833330","name":"Mechtat el Doua\u00efdia"},{"id":"658824","latitude":"35.90583330","longitude":"0.80777780","name":"Mechtat el Dra\u00efmia"},{"id":"658825","latitude":"36.01666670","longitude":"0.63333330","name":"Mechtat el Fa\u00efza"},{"id":"658866","latitude":"35.85333330","longitude":"0.80333330","name":"Mechtat el Kha\u00efb"},{"id":"658871","latitude":"35.76361110","longitude":"0.97861110","name":"Mechtat el Kouassem"},{"id":"658873","latitude":"35.85333330","longitude":"0.80333330","name":"Mechtat el Kra\u00efb"},{"id":"658953","latitude":"36.01944440","longitude":"0.70166670","name":"Mechtat Hamri"},{"id":"658968","latitude":"35.95305560","longitude":"0.82694440","name":"Mechtat Kadour Ben Adda"},{"id":"658978","latitude":"35.94777780","longitude":"0.77194440","name":"Mechtat Kradem Sidi Ali"},{"id":"659003","latitude":"35.88277780","longitude":"0.76833330","name":"Mechtat M\u00e9h\u00e9dia"},{"id":"659016","latitude":"36.11222220","longitude":"0.78805560","name":"Mechtat Moussa Beloufa"},{"id":"659023","latitude":"35.89305560","longitude":"0.75611110","name":"Mechtat Oued Aissa"},{"id":"659026","latitude":"35.85666670","longitude":"0.83555560","name":"Mechtat Oued Ben Aouda"},{"id":"659029","latitude":"35.89611110","longitude":"0.79611110","name":"Mechtat Oued Hameda"},{"id":"659030","latitude":"35.81722220","longitude":"0.90916670","name":"Mechtat Oued Khalifa"},{"id":"659032","latitude":"35.98722220","longitude":"0.77694440","name":"Mechtat Oued Ouis"},{"id":"659036","latitude":"35.84444440","longitude":"0.82972220","name":"Mechtat Oulad Abou"},{"id":"659037","latitude":"35.97527780","longitude":"0.84083330","name":"Mechtat Oulad Adda"},{"id":"659042","latitude":"35.88750000","longitude":"0.90277780","name":"Mechtat Oulad el Arbi"},{"id":"659064","latitude":"35.99611110","longitude":"0.77027780","name":"Mechtat Oulad Sidi Ahmed"},{"id":"659142","latitude":"35.98694440","longitude":"0.81333330","name":"Mechtat Seba\u00efa"},{"id":"659155","latitude":"35.98555560","longitude":"0.82666670","name":"Mechtat Sla\u00e9lia"},{"id":"659170","latitude":"35.94138890","longitude":"0.87555560","name":"Mechtat Tehemia"},{"id":"659180","latitude":"35.83666670","longitude":"0.89722220","name":"Mechtat Tmeniche"},{"id":"659195","latitude":"35.93527780","longitude":"0.86666670","name":"Mechtat Zmala"},{"id":"659203","latitude":"36.01666670","longitude":"0.65000000","name":"Mechta Zeradla"},{"id":"659339","latitude":"36.11666670","longitude":"0.75000000","name":"Mediouna"},{"id":"659375","latitude":"35.69611110","longitude":"0.46750000","name":"Mekadid"},{"id":"659386","latitude":"35.79611110","longitude":"0.32027780","name":"Mekhatria"},{"id":"659392","latitude":"35.64805560","longitude":"0.91555560","name":"Mekoulal"},{"id":"659421","latitude":"35.65083330","longitude":"0.87083330","name":"Mendes"},{"id":"659422","latitude":"35.65083330","longitude":"0.87083330","name":"Mendez"},{"id":"659471","latitude":"35.71166670","longitude":"0.45138890","name":"Messabehia"},{"id":"659479","latitude":"35.79888890","longitude":"0.50694440","name":"Messaoud"},{"id":"659566","latitude":"35.63722220","longitude":"0.79444440","name":"Mohammed Ben Azzouz"},{"id":"659753","latitude":"36.04194440","longitude":"0.90111110","name":"Ouarizane"},{"id":"659754","latitude":"36.04194440","longitude":"0.90111110","name":"Ouarizan"},{"id":"659787","latitude":"35.79555560","longitude":"0.67944440","name":"Oued Djemaa"},{"id":"659793","latitude":"35.79555560","longitude":"0.67944440","name":"Oued el Djemaa"},{"id":"659794","latitude":"35.78083330","longitude":"1.13083330","name":"Oued el Guelb"},{"id":"659801","latitude":"35.57777780","longitude":"0.92500000","name":"Oued Es Salam"},{"id":"659802","latitude":"35.57777780","longitude":"0.92500000","name":"Oued es Salem"},{"id":"659816","latitude":"35.96333330","longitude":"0.91361110","name":"Oued Rhiou"},{"id":"659818","latitude":"35.96333330","longitude":"0.91361110","name":"Oued Riou"},{"id":"659858","latitude":"35.78472220","longitude":"0.42527780","name":"Oulad Abdallah"},{"id":"659888","latitude":"35.73166670","longitude":"0.66333330","name":"Oulad Ali"},{"id":"659892","latitude":"35.71361110","longitude":"0.62972220","name":"Oulad Allal"},{"id":"659899","latitude":"35.68972220","longitude":"0.25083330","name":"Oulad Amar"},{"id":"659921","latitude":"35.63416670","longitude":"0.88500000","name":"Oulad Barkat"},{"id":"659939","latitude":"35.65194440","longitude":"0.33611110","name":"Oulad Ben Ibrir"},{"id":"659964","latitude":"35.55000000","longitude":"0.70000000","name":"Oulad Bou Kradda"},{"id":"659973","latitude":"35.98805560","longitude":"0.86138890","name":"Oulad Caddour"},{"id":"659983","latitude":"35.97861110","longitude":"0.78000000","name":"Oulad Djilali"},{"id":"660035","latitude":"36.10000000","longitude":"0.83333330","name":"Oulad Lakredar"},{"id":"660057","latitude":"36.11666670","longitude":"0.86666670","name":"Oulad Meziane"},{"id":"660074","latitude":"35.70138890","longitude":"0.29111110","name":"Oulad ou Ali"},{"id":"660109","latitude":"35.61694440","longitude":"0.77277780","name":"Oulad Sidi Ali"},{"id":"660118","latitude":"35.59722220","longitude":"0.77805560","name":"Oulad Sidi el Arbi"},{"id":"660123","latitude":"35.96194440","longitude":"0.71277780","name":"Oulad Sidi Mahi Eddine"},{"id":"660130","latitude":"35.68527780","longitude":"0.31888890","name":"Oulad Sidi Ta\u00efeb"},{"id":"660135","latitude":"35.59305560","longitude":"0.72666670","name":"Oulad Sma\u00efn"},{"id":"660143","latitude":"35.64694440","longitude":"0.28694440","name":"Oulad Tazi"},{"id":"660219","latitude":"35.83333330","longitude":"1.00000000","name":"Ouled Aych"},{"id":"660241","latitude":"35.60000000","longitude":"1.08333330","name":"Ouled Ben Abd er Rehim"},{"id":"660245","latitude":"35.57000000","longitude":"0.28916670","name":"Ouled Ben Ali"},{"id":"660271","latitude":"36.05000000","longitude":"0.96666670","name":"Ouled Ben Yettou"},{"id":"660280","latitude":"35.64888890","longitude":"0.51111110","name":"Ouled Bou Ali"},{"id":"660281","latitude":"35.54277780","longitude":"0.52083330","name":"Ouled Bou Azane"},{"id":"660283","latitude":"35.58916670","longitude":"0.45444440","name":"Ouled Bou Della"},{"id":"660325","latitude":"35.96250000","longitude":"0.62250000","name":"Ouled el Ahmar"},{"id":"660330","latitude":"35.60000000","longitude":"1.13333330","name":"Ouled el Arbi"},{"id":"660336","latitude":"35.62638890","longitude":"0.43166670","name":"Ouled el Habibi"},{"id":"660342","latitude":"35.56666670","longitude":"1.10000000","name":"Ouled el Hadj Kaddour"},{"id":"660392","latitude":"35.76777780","longitude":"0.69277780","name":"Ouled Lhassene"},{"id":"660418","latitude":"35.59777780","longitude":"0.44416670","name":"Ouled Mohammed"},{"id":"660468","latitude":"35.67888890","longitude":"0.89194440","name":"Ouled Sidi Ali"},{"id":"660508","latitude":"35.88333330","longitude":"1.03333330","name":"Ouled Ta\u00efeb"},{"id":"660518","latitude":"35.83333330","longitude":"1.00000000","name":"Ouled Ya\u00efch"},{"id":"660734","latitude":"35.74250000","longitude":"0.55916670","name":"Relizane"},{"id":"660735","latitude":"35.74250000","longitude":"0.55916670","name":"Relizan"},{"id":"660740","latitude":"35.63500000","longitude":"0.32250000","name":"Rena\u00efssia"},{"id":"660742","latitude":"36.14305560","longitude":"0.84666670","name":"Renault"},{"id":"660858","latitude":"35.93138890","longitude":"0.82333330","name":"Saint-Aim\u00e9"},{"id":"660924","latitude":"36.11666670","longitude":"0.75000000","name":"S.A.S. Mediouna"},{"id":"660949","latitude":"35.66444440","longitude":"0.35194440","name":"Sedjerara"},{"id":"660950","latitude":"35.64222220","longitude":"0.80638890","name":"Sedjerat el Ammari"},{"id":"660974","latitude":"35.63805560","longitude":"0.35944440","name":"Semm\u00e2r"},{"id":"660976","latitude":"36.03611110","longitude":"0.87833330","name":"Senhadja"},{"id":"661003","latitude":"35.85027780","longitude":"0.68083330","name":"Siafa"},{"id":"661030","latitude":"36.14305560","longitude":"0.84666670","name":"Sidi Ali Benali"},{"id":"661109","latitude":"35.96611110","longitude":"0.77972220","name":"Sidi el Bachir"},{"id":"661151","latitude":"35.91250000","longitude":"0.50944440","name":"Sidi Khetab"},{"id":"661152","latitude":"35.91250000","longitude":"0.50944440","name":"Sidi Khettab"},{"id":"661153","latitude":"35.66583330","longitude":"0.64694440","name":"Sidi Khlifa"},{"id":"661190","latitude":"35.91833330","longitude":"0.90777780","name":"Sidi Mekhelouf"},{"id":"661191","latitude":"35.91833330","longitude":"0.90777780","name":"Sidi Mekrelouf"},{"id":"661199","latitude":"36.14305560","longitude":"0.84666670","name":"Sidi M'Hamed Ben Ali"},{"id":"661200","latitude":"35.60333330","longitude":"0.58972220","name":"Sidi M'Hamed Benaouda"},{"id":"661204","latitude":"35.60333330","longitude":"0.58972220","name":"Sidi Mohamed Ben Aouda"},{"id":"661205","latitude":"36.14305560","longitude":"0.84666670","name":"Sidi-Mohammed-Ben-Ali"},{"id":"661206","latitude":"35.60333330","longitude":"0.58972220","name":"Sidi Mohammed Ben Aouda"},{"id":"661215","latitude":"35.77166670","longitude":"0.51638890","name":"Sidi Mohammed"},{"id":"661311","latitude":"35.54111110","longitude":"0.58611110","name":"Souimia"},{"id":"661320","latitude":"35.99861110","longitude":"0.87777780","name":"Souk el Djem\u00e2a"},{"id":"661521","latitude":"36.10000000","longitude":"0.68333330","name":"Takhemaret"},{"id":"661558","latitude":"35.65611110","longitude":"0.66277780","name":"Talet Echih"},{"id":"661577","latitude":"36.10000000","longitude":"0.88333330","name":"Tamda"},{"id":"661807","latitude":"35.47277780","longitude":"0.93361110","name":"Tezerkounet"},{"id":"661902","latitude":"35.63388890","longitude":"0.52277780","name":"Tiliouane"},{"id":"662044","latitude":"35.59000000","longitude":"0.38916670","name":"Tliouanet"},{"id":"662056","latitude":"35.70750000","longitude":"0.25916670","name":"Toua\u00efdjia"},{"id":"662074","latitude":"35.51250000","longitude":"0.82972220","name":"Toumiat"},{"id":"662127","latitude":"36.13333330","longitude":"0.88333330","name":"Village des Hassasna"},{"id":"662130","latitude":"36.10000000","longitude":"0.83333330","name":"Village des Oulad Lakhedar"},{"id":"662131","latitude":"36.10000000","longitude":"0.83333330","name":"Village des Oulad Lakredar"},{"id":"662132","latitude":"36.11666670","longitude":"0.86666670","name":"Village des Oulad Meziane"},{"id":"662134","latitude":"36.10000000","longitude":"0.88333330","name":"Village de Tamda"},{"id":"662137","latitude":"35.74083330","longitude":"0.54944440","name":"Village Espagnol"},{"id":"662142","latitude":"35.73777780","longitude":"0.55916670","name":"Village Negre"},{"id":"662143","latitude":"36.05000000","longitude":"0.90000000","name":"Village Neuf"},{"id":"662164","latitude":"35.72194440","longitude":"0.35361110","name":"Yellel"},{"id":"662183","latitude":"35.60916670","longitude":"0.68305560","name":"Za\u00eflal"},{"id":"662229","latitude":"35.68527780","longitude":"0.89333330","name":"Zebabidj el Khenaga"},{"id":"662230","latitude":"35.68527780","longitude":"0.89333330","name":"Zebabidj el Krenaga"},{"id":"662246","latitude":"35.72250000","longitude":"0.76000000","name":"Zemmora"}]