[{"id":"670629","latitude":"59.56416670","longitude":"25.53555560","name":"Aabla"},{"id":"670645","latitude":"59.23805560","longitude":"24.50861110","name":"\u00c4\u00e4sm\u00e4e"},{"id":"670653","latitude":"59.38861110","longitude":"25.27750000","name":"Aavere"},{"id":"670655","latitude":"59.34222220","longitude":"24.90638890","name":"Aaviku"},{"id":"670657","latitude":"59.38861110","longitude":"25.27750000","name":"Aavre"},{"id":"670682","latitude":"59.37027780","longitude":"24.37138890","name":"Adra"},{"id":"670684","latitude":"59.37027780","longitude":"24.37138890","name":"Adrak\u00fcla"},{"id":"670685","latitude":"59.37027780","longitude":"24.37138890","name":"Adrakyulya"},{"id":"670689","latitude":"59.28583330","longitude":"25.61416670","name":"Aegvidu"},{"id":"670690","latitude":"59.28583330","longitude":"25.61416670","name":"Aegviidu"},{"id":"670691","latitude":"59.28583330","longitude":"25.61416670","name":"Aegviydu"},{"id":"670692","latitude":"59.01666670","longitude":"25.28277780","name":"Aela"},{"id":"670693","latitude":"59.01666670","longitude":"25.28277780","name":"Aeli"},{"id":"670705","latitude":"59.19000000","longitude":"25.17833330","name":"Ahisilla"},{"id":"670708","latitude":"59.17138890","longitude":"24.12000000","name":"Ahtama"},{"id":"670709","latitude":"59.36833330","longitude":"24.26472220","name":"Ahtma"},{"id":"670710","latitude":"59.36833330","longitude":"24.26472220","name":"Ahtme"},{"id":"670717","latitude":"59.50000000","longitude":"24.90861110","name":"Aiaotsa"},{"id":"670726","latitude":"59.48777780","longitude":"24.88194440","name":"\u00c4igrum\u00e4e"},{"id":"670727","latitude":"59.28944440","longitude":"24.47805560","name":"Aila"},{"id":"670735","latitude":"59.19000000","longitude":"25.17833330","name":"Akhisilla"},{"id":"670737","latitude":"59.17138890","longitude":"24.12000000","name":"Akhtama"},{"id":"670738","latitude":"59.36833330","longitude":"24.26472220","name":"Akhtma"},{"id":"670739","latitude":"59.36833330","longitude":"24.26472220","name":"Akhtme"},{"id":"670763","latitude":"59.11805560","longitude":"25.15694440","name":"Alansi"},{"id":"670771","latitude":"59.24333330","longitude":"25.32444440","name":"Alavere"},{"id":"670787","latitude":"59.18527780","longitude":"24.47916670","name":"Allika"},{"id":"670797","latitude":"59.27833330","longitude":"23.79111110","name":"Alliklepa"},{"id":"670802","latitude":"59.35388890","longitude":"24.55000000","name":"Alliku"},{"id":"670815","latitude":"59.24222220","longitude":"24.01305560","name":"Altk\u00fcla"},{"id":"670840","latitude":"59.36666670","longitude":"24.58333330","name":"\u00c4mari"},{"id":"670848","latitude":"59.23694440","longitude":"25.16583330","name":"Andi"},{"id":"670849","latitude":"59.49888890","longitude":"25.46805560","name":"Andineeme"},{"id":"670850","latitude":"59.49888890","longitude":"25.46805560","name":"Andineme"},{"id":"670868","latitude":"59.23138890","longitude":"23.86972220","name":"\u00c4nglema"},{"id":"670871","latitude":"59.37861110","longitude":"25.30555560","name":"Anija"},{"id":"670918","latitude":"59.33500000","longitude":"25.65055560","name":"Apupara"},{"id":"670919","latitude":"59.33500000","longitude":"25.65055560","name":"Apuparra"},{"id":"670930","latitude":"59.27277780","longitude":"25.38638890","name":"Arava"},{"id":"670938","latitude":"59.10055560","longitude":"25.37083330","name":"Ardu"},{"id":"670959","latitude":"59.41916670","longitude":"25.50611110","name":"Arokyulya"},{"id":"670962","latitude":"59.41916670","longitude":"25.50611110","name":"Aru"},{"id":"670969","latitude":"59.38444440","longitude":"25.15944440","name":"Aruaru"},{"id":"670972","latitude":"59.23333330","longitude":"24.48333330","name":"Arudevahe"},{"id":"670973","latitude":"59.23333330","longitude":"24.48333330","name":"Arudevakhe"},{"id":"670975","latitude":"59.36444440","longitude":"25.07722220","name":"Aruk\u00fcla"},{"id":"670984","latitude":"59.19666670","longitude":"24.47722220","name":"Arukyula"},{"id":"670995","latitude":"59.33138890","longitude":"25.41750000","name":"Aruoja"},{"id":"670996","latitude":"59.33138890","longitude":"25.41750000","name":"Aruoja Asundus"},{"id":"670998","latitude":"59.33138890","longitude":"25.41750000","name":"Aruoya"},{"id":"671000","latitude":"59.35416670","longitude":"24.43388890","name":"Arupealse"},{"id":"671002","latitude":"59.25333330","longitude":"24.79972220","name":"Arusta"},{"id":"671007","latitude":"59.25166670","longitude":"25.02388890","name":"Aruvalla"},{"id":"671008","latitude":"59.25166670","longitude":"25.02388890","name":"Aruvalla Asundus"},{"id":"671015","latitude":"59.30805560","longitude":"23.92444440","name":"\u00c5sby"},{"id":"671020","latitude":"59.37750000","longitude":"24.84472220","name":"Assaku"},{"id":"671055","latitude":"59.16388890","longitude":"24.24777780","name":"Aude"},{"id":"671056","latitude":"59.17805560","longitude":"24.07666670","name":"Audev\u00e4lja"},{"id":"671084","latitude":"59.38861110","longitude":"25.27750000","name":"Avre"},{"id":"671087","latitude":"59.50000000","longitude":"24.90861110","name":"Ayaotsa"},{"id":"671097","latitude":"59.35666670","longitude":"24.05305560","name":"Baltiiskii Port"},{"id":"671098","latitude":"59.35666670","longitude":"24.05305560","name":"Baltijas Ports"},{"id":"671099","latitude":"59.35666670","longitude":"24.05305560","name":"Baltischport"},{"id":"671100","latitude":"59.35666670","longitude":"24.05305560","name":"Baltiski"},{"id":"671101","latitude":"59.35666670","longitude":"24.05305560","name":"Baltiyskiy Port"},{"id":"671102","latitude":"59.35666670","longitude":"24.05305560","name":"Baltiysk Port"},{"id":"671114","latitude":"59.98333330","longitude":"25.15000000","name":"Boloto Kyrgemyae-Raba"},{"id":"671123","latitude":"59.28583330","longitude":"25.61416670","name":"Charlottenhof"},{"id":"671129","latitude":"59.39416670","longitude":"24.19750000","name":"Derevnya Lakhkhosal'"},{"id":"671190","latitude":"59.04888890","longitude":"24.17916670","name":"Elama"},{"id":"671199","latitude":"59.04888890","longitude":"24.17916670","name":"Ellamaa"},{"id":"671224","latitude":"59.23138890","longitude":"23.86972220","name":"Englema"},{"id":"671266","latitude":"59.23805560","longitude":"24.50861110","name":"Esmyae"},{"id":"671282","latitude":"59.46777780","longitude":"25.16444440","name":"Ezuu"},{"id":"671288","latitude":"59.44416670","longitude":"24.58888890","name":"Fischmeistri"},{"id":"671289","latitude":"59.44416670","longitude":"24.58888890","name":"Fishmeistri"},{"id":"671294","latitude":"59.36055560","longitude":"24.55333330","name":"Fol'vark Lekhmya"},{"id":"671303","latitude":"59.49888890","longitude":"25.30833330","name":"Gaapse"},{"id":"671307","latitude":"59.39416670","longitude":"25.18611110","name":"Galiava"},{"id":"671310","latitude":"59.56388890","longitude":"25.64361110","name":"Garra"},{"id":"671313","latitude":"59.44000000","longitude":"25.54000000","name":"Girvli"},{"id":"671323","latitude":"59.51138890","longitude":"24.82111110","name":"Haabneeme"},{"id":"671333","latitude":"59.49888890","longitude":"25.30833330","name":"Haapse"},{"id":"671343","latitude":"59.46666670","longitude":"25.28333330","name":"Haavakannu"},{"id":"671347","latitude":"59.09944440","longitude":"25.17527780","name":"Habaja"},{"id":"671358","latitude":"59.12666670","longitude":"24.46722220","name":"Haiba"},{"id":"671372","latitude":"59.39416670","longitude":"25.18611110","name":"Haljava"},{"id":"671390","latitude":"59.56388890","longitude":"25.64361110","name":"Hara"},{"id":"671392","latitude":"59.10055560","longitude":"25.37083330","name":"Hardu"},{"id":"671407","latitude":"59.36638890","longitude":"25.18305560","name":"Harju-Jaani"},{"id":"671408","latitude":"59.36638890","longitude":"25.18305560","name":"Harju J\u00e3ni"},{"id":"671410","latitude":"59.23416670","longitude":"24.01833330","name":"Harju-Risti"},{"id":"671411","latitude":"59.13250000","longitude":"24.37111110","name":"Harku"},{"id":"671412","latitude":"59.41722220","longitude":"24.58722220","name":"Harkuj\u00e4rve"},{"id":"671414","latitude":"59.27555560","longitude":"25.16555560","name":"H\u00e4rma"},{"id":"671417","latitude":"59.39611110","longitude":"25.47000000","name":"H\u00e4rmakosu"},{"id":"671418","latitude":"59.11638890","longitude":"25.19944440","name":"Harmi"},{"id":"671419","latitude":"59.20194440","longitude":"23.94138890","name":"Hatu"},{"id":"671420","latitude":"59.65000000","longitude":"25.71666670","name":"Hauaneeme"},{"id":"671430","latitude":"59.55000000","longitude":"24.53333330","name":"Heinamaa"},{"id":"671474","latitude":"59.17777780","longitude":"24.35138890","name":"Hingu"},{"id":"671484","latitude":"59.44000000","longitude":"25.54000000","name":"Hirvli"},{"id":"671510","latitude":"59.35416670","longitude":"24.43388890","name":"Humala-Arupealse"},{"id":"671511","latitude":"59.36527780","longitude":"24.40055560","name":"Humala"},{"id":"671520","latitude":"59.11277780","longitude":"24.31555560","name":"H\u00fcrjaste"},{"id":"671529","latitude":"59.38194440","longitude":"24.52972220","name":"H\u00fc\u00fcru"},{"id":"671531","latitude":"59.62138890","longitude":"25.02277780","name":"Idaotsa"},{"id":"671539","latitude":"59.51861110","longitude":"25.19027780","name":"Igasalu"},{"id":"671540","latitude":"59.34000000","longitude":"25.08361110","name":"Igavere"},{"id":"671546","latitude":"59.51861110","longitude":"25.19027780","name":"Ihasalu"},{"id":"671555","latitude":"59.51861110","longitude":"25.19027780","name":"Ikhasalu"},{"id":"671560","latitude":"59.48666670","longitude":"25.07777780","name":"Il'gaze"},{"id":"671568","latitude":"59.33805560","longitude":"24.34055560","name":"Illurmaa"},{"id":"671569","latitude":"59.33805560","longitude":"24.34055560","name":"Illurma"},{"id":"671571","latitude":"59.44527780","longitude":"24.49166670","name":"Ilmandu"},{"id":"671572","latitude":"59.28972220","longitude":"24.14138890","name":"Il'maso"},{"id":"671573","latitude":"59.28972220","longitude":"24.14138890","name":"Ilmasoo"},{"id":"671603","latitude":"59.18333330","longitude":"24.35000000","name":"Ingu"},{"id":"671607","latitude":"59.45583330","longitude":"25.18444440","name":"Ioa"},{"id":"671608","latitude":"59.38333330","longitude":"24.35000000","name":"Ioakyula"},{"id":"671617","latitude":"59.45944440","longitude":"24.90777780","name":"Iru"},{"id":"671631","latitude":"59.28527780","longitude":"25.41194440","name":"Iyeere"},{"id":"671634","latitude":"59.43333330","longitude":"24.58333330","name":"Iye"},{"id":"671669","latitude":"59.15194440","longitude":"24.32222220","name":"Jaanika"},{"id":"671682","latitude":"59.41722220","longitude":"25.23861110","name":"J\u00e4gala"},{"id":"671683","latitude":"59.45583330","longitude":"25.18444440","name":"J\u00e4gala-Joa"},{"id":"671693","latitude":"59.31916670","longitude":"24.60166670","name":"J\u00e4lgim\u00e4e"},{"id":"671704","latitude":"59.18333330","longitude":"24.06666670","name":"J\u00e4nnima"},{"id":"671715","latitude":"59.37083330","longitude":"25.02944440","name":"J\u00e4rsi"},{"id":"671728","latitude":"59.41666670","longitude":"24.63305560","name":"J\u00e4rve"},{"id":"671734","latitude":"59.37666670","longitude":"24.79277780","name":"J\u00e4rvek\u00fcla"},{"id":"671745","latitude":"59.41666670","longitude":"25.66666670","name":"J\u00e4rvi"},{"id":"671769","latitude":"59.39972220","longitude":"24.30444440","name":"Joa"},{"id":"671770","latitude":"59.38333330","longitude":"24.35000000","name":"Joak\u00fcla"},{"id":"671772","latitude":"59.37388890","longitude":"24.34750000","name":"Joa-Suurk\u00fcla"},{"id":"671774","latitude":"59.28527780","longitude":"25.41194440","name":"J\u00f5e\u00e4\u00e4re"},{"id":"671778","latitude":"59.43333330","longitude":"24.58333330","name":"J\u00f5e"},{"id":"671786","latitude":"59.44277780","longitude":"25.14111110","name":"J\u00f5el\u00e4htme"},{"id":"671787","latitude":"59.44277780","longitude":"25.14111110","name":"Joelanghe"},{"id":"671798","latitude":"59.46777780","longitude":"25.16444440","name":"J\u00f5esuu"},{"id":"671812","latitude":"59.27833330","longitude":"24.51055560","name":"J\u00f5gisoo"},{"id":"671816","latitude":"59.27833330","longitude":"24.51055560","name":"J\u00f5gisuu"},{"id":"671841","latitude":"59.62833330","longitude":"25.52027780","name":"Juminda"},{"id":"671843","latitude":"59.35416670","longitude":"24.89416670","name":"J\u00fcri"},{"id":"671850","latitude":"59.30944440","longitude":"24.61666670","name":"Juuliku"},{"id":"671866","latitude":"59.46666670","longitude":"25.23333330","name":"K\u00e4\u00e4niku"},{"id":"671898","latitude":"59.20305560","longitude":"24.31916670","name":"Kaasiku"},{"id":"671915","latitude":"59.19638890","longitude":"24.96500000","name":"Kabeli"},{"id":"671919","latitude":"59.19638890","longitude":"24.96500000","name":"Kabelik\u00fcla"},{"id":"671920","latitude":"59.19638890","longitude":"24.96500000","name":"Kabelikyula"},{"id":"671921","latitude":"59.47166670","longitude":"25.26333330","name":"Kaberla"},{"id":"671922","latitude":"59.51250000","longitude":"25.26416670","name":"Kaberneeme"},{"id":"671923","latitude":"59.51250000","longitude":"25.26416670","name":"Kaberneyeme"},{"id":"671927","latitude":"59.22861110","longitude":"24.42555560","name":"Kabila"},{"id":"671943","latitude":"59.38972220","longitude":"24.95944440","name":"Kadaka"},{"id":"671948","latitude":"59.29166670","longitude":"25.18722220","name":"Kadakaotsa"},{"id":"671949","latitude":"59.27583330","longitude":"25.21583330","name":"Kadakotsa"},{"id":"671958","latitude":"59.04416670","longitude":"25.21277780","name":"Kadja"},{"id":"671964","latitude":"59.04416670","longitude":"25.21277780","name":"Kad'ya"},{"id":"671970","latitude":"59.37500000","longitude":"25.23055560","name":"Kaerso"},{"id":"671971","latitude":"59.37500000","longitude":"25.23055560","name":"Kaersoo"},{"id":"671972","latitude":"59.37416670","longitude":"24.26972220","name":"K\u00e4esalu"},{"id":"671983","latitude":"59.45861110","longitude":"25.52722220","name":"Kahala"},{"id":"671997","latitude":"59.28166670","longitude":"24.69611110","name":"Kaiamaa"},{"id":"671998","latitude":"59.28166670","longitude":"24.69611110","name":"Kaiama"},{"id":"672015","latitude":"59.28166670","longitude":"24.69611110","name":"Kajamaa"},{"id":"672016","latitude":"59.45861110","longitude":"25.52722220","name":"Kakhala"},{"id":"672023","latitude":"59.45305560","longitude":"24.58222220","name":"Kakum\u00e4e"},{"id":"672024","latitude":"59.45305560","longitude":"24.58222220","name":"Kakumee"},{"id":"672026","latitude":"59.45305560","longitude":"24.58222220","name":"Kakumyae"},{"id":"672042","latitude":"59.34305560","longitude":"25.13027780","name":"Kalesi"},{"id":"672061","latitude":"59.48638890","longitude":"25.03250000","name":"Kallavere"},{"id":"672067","latitude":"59.43388890","longitude":"24.72805560","name":"Kallinn"},{"id":"672074","latitude":"59.48361110","longitude":"25.68388890","name":"Kalme"},{"id":"672103","latitude":"59.30611110","longitude":"24.57500000","name":"Kanama"},{"id":"672108","latitude":"59.16833330","longitude":"25.06861110","name":"Kanavere"},{"id":"672117","latitude":"59.35166670","longitude":"25.04638890","name":"Kangla"},{"id":"672128","latitude":"59.28250000","longitude":"24.27611110","name":"Kanguste"},{"id":"672129","latitude":"59.28250000","longitude":"24.27611110","name":"Kangusti"},{"id":"672133","latitude":"59.28333330","longitude":"25.28333330","name":"K\u00e4nkari"},{"id":"672145","latitude":"59.12083330","longitude":"25.24111110","name":"Kantk\u00fcla"},{"id":"672148","latitude":"59.12083330","longitude":"25.24111110","name":"Kantkyula"},{"id":"672156","latitude":"59.37416670","longitude":"24.26972220","name":"Kaosalyu"},{"id":"672169","latitude":"59.33444440","longitude":"24.48138890","name":"Kapsa"},{"id":"672170","latitude":"59.33444440","longitude":"24.48138890","name":"Kapsak\u00fcla"},{"id":"672207","latitude":"59.25388890","longitude":"24.13666670","name":"Karilepa"},{"id":"672224","latitude":"59.34027780","longitude":"24.38555560","name":"Karjak\u00fcla"},{"id":"672241","latitude":"59.15833330","longitude":"25.12944440","name":"Karla"},{"id":"672243","latitude":"59.36861110","longitude":"24.92638890","name":"Karlak\u00fcla"},{"id":"672244","latitude":"59.36861110","longitude":"24.92638890","name":"Karlakyula"},{"id":"672248","latitude":"59.36861110","longitude":"24.92638890","name":"Karlya"},{"id":"672251","latitude":"59.45694440","longitude":"24.93611110","name":"K\u00e4rmu"},{"id":"672264","latitude":"59.34083330","longitude":"24.18111110","name":"K\u00e4rsalu"},{"id":"672298","latitude":"59.34027780","longitude":"24.38555560","name":"Kar'yakyulya"},{"id":"672303","latitude":"59.28138890","longitude":"24.66277780","name":"Kasemetsa"},{"id":"672307","latitude":"59.21305560","longitude":"24.16222220","name":"Kasepere"},{"id":"672311","latitude":"59.59777780","longitude":"25.77305560","name":"Kasisp\u00e4a"},{"id":"672312","latitude":"59.59777780","longitude":"25.77305560","name":"Kasispa"},{"id":"672313","latitude":"59.59777780","longitude":"25.77305560","name":"Kasispea"},{"id":"672314","latitude":"59.59777780","longitude":"25.77305560","name":"Kasispe"},{"id":"672330","latitude":"59.48333330","longitude":"24.90000000","name":"Kasti"},{"id":"672346","latitude":"59.18333330","longitude":"24.45000000","name":"Kata"},{"id":"672351","latitude":"59.08722220","longitude":"25.29611110","name":"Katsina"},{"id":"672362","latitude":"59.31527780","longitude":"25.28222220","name":"Kaugem\u00e4e"},{"id":"672363","latitude":"59.31527780","longitude":"25.28222220","name":"Kaugemyae"},{"id":"672371","latitude":"59.29722220","longitude":"25.35527780","name":"Kaunissaare"},{"id":"672379","latitude":"59.33944440","longitude":"24.91666670","name":"Kautjala"},{"id":"672413","latitude":"59.33611110","longitude":"25.32111110","name":"Kedder"},{"id":"672417","latitude":"59.35972220","longitude":"24.32472220","name":"Keelva"},{"id":"672424","latitude":"59.30361110","longitude":"24.41305560","name":"Kegel"},{"id":"672427","latitude":"59.33611110","longitude":"25.32111110","name":"Kehra"},{"id":"672431","latitude":"59.25888890","longitude":"23.76444440","name":"Keibu"},{"id":"672432","latitude":"59.39972220","longitude":"24.30444440","name":"Keila-Joa"},{"id":"672433","latitude":"59.30361110","longitude":"24.41305560","name":"Keila"},{"id":"672441","latitude":"59.33611110","longitude":"25.32111110","name":"Kekhra"},{"id":"672443","latitude":"59.33611110","longitude":"25.32111110","name":"Kekra"},{"id":"672452","latitude":"59.63250000","longitude":"25.01472220","name":"Kelnase"},{"id":"672454","latitude":"59.35972220","longitude":"24.32472220","name":"Kelva"},{"id":"672455","latitude":"59.45361110","longitude":"25.71555560","name":"Kemba"},{"id":"672490","latitude":"59.45694440","longitude":"24.93611110","name":"Kermo"},{"id":"672492","latitude":"59.14055560","longitude":"24.50361110","name":"Kernu"},{"id":"672494","latitude":"59.34083330","longitude":"24.18111110","name":"Kersalu"},{"id":"672508","latitude":"59.43694440","longitude":"24.74666670","name":"Kesklinn"},{"id":"672525","latitude":"59.25888890","longitude":"23.76444440","name":"Keybu"},{"id":"672527","latitude":"59.30361110","longitude":"24.41305560","name":"Keyla"},{"id":"672534","latitude":"59.51138890","longitude":"24.82111110","name":"Khaabneeme"},{"id":"672538","latitude":"59.46666670","longitude":"25.28333330","name":"Khaavakanni"},{"id":"672551","latitude":"59.39416670","longitude":"25.18611110","name":"Khal'yava"},{"id":"672558","latitude":"59.49888890","longitude":"25.30833330","name":"Khapse"},{"id":"672560","latitude":"59.56388890","longitude":"25.64361110","name":"Khara"},{"id":"672564","latitude":"59.13250000","longitude":"24.37111110","name":"Kharku"},{"id":"672569","latitude":"59.20194440","longitude":"23.94138890","name":"Khatukyula"},{"id":"672570","latitude":"59.65000000","longitude":"25.71666670","name":"Khauaneme"},{"id":"672573","latitude":"59.12666670","longitude":"24.46722220","name":"Khayba"},{"id":"672598","latitude":"59.44000000","longitude":"25.54000000","name":"Khirvli"},{"id":"672609","latitude":"59.35416670","longitude":"24.43388890","name":"Khumala-Arupealze"},{"id":"672610","latitude":"59.36527780","longitude":"24.40055560","name":"Khumala"},{"id":"672620","latitude":"59.39611110","longitude":"25.47000000","name":"Khyarmakosu"},{"id":"672627","latitude":"59.11277780","longitude":"24.31555560","name":"Khyur'yaste"},{"id":"672632","latitude":"59.28250000","longitude":"23.83583330","name":"Kibru"},{"id":"672633","latitude":"59.20388890","longitude":"24.29000000","name":"Kibuna"},{"id":"672652","latitude":"59.36138890","longitude":"25.25472220","name":"Kihmla"},{"id":"672653","latitude":"59.36694440","longitude":"24.48166670","name":"Kiia"},{"id":"672665","latitude":"59.30694440","longitude":"24.83777780","name":"Kiili"},{"id":"672669","latitude":"59.23694440","longitude":"24.68888890","name":"Kiisa"},{"id":"672679","latitude":"59.58444440","longitude":"25.51694440","name":"Kiiu-Aabla"},{"id":"672680","latitude":"59.44777780","longitude":"25.37944440","name":"Kiiu"},{"id":"672702","latitude":"59.30694440","longitude":"24.83777780","name":"Kili"},{"id":"672723","latitude":"59.58444440","longitude":"25.51694440","name":"Kioabla"},{"id":"672732","latitude":"59.25305560","longitude":"24.74222220","name":"Kirdalu"},{"id":"672735","latitude":"59.22805560","longitude":"23.99027780","name":"Kirikk\u00fcla"},{"id":"672736","latitude":"59.22805560","longitude":"23.99027780","name":"Kirikkyula"},{"id":"672737","latitude":"59.14277780","longitude":"24.54416670","name":"Kirikla"},{"id":"672746","latitude":"59.22805560","longitude":"23.99027780","name":"Kirikukyula"},{"id":"672750","latitude":"59.22805560","longitude":"23.99027780","name":"Kirikukyulla"},{"id":"672752","latitude":"59.14277780","longitude":"24.54416670","name":"Kiriku M\u00f5isad"},{"id":"672762","latitude":"59.12555560","longitude":"25.09555560","name":"Kirivalla"},{"id":"672776","latitude":"59.13194440","longitude":"25.34277780","name":"Kiruvere"},{"id":"672801","latitude":"59.28944440","longitude":"25.23861110","name":"Kivilo"},{"id":"672802","latitude":"59.28944440","longitude":"25.23861110","name":"Kiviloo"},{"id":"672808","latitude":"59.25638890","longitude":"25.13083330","name":"Kivioja"},{"id":"672811","latitude":"59.25638890","longitude":"25.13083330","name":"Kivioya"},{"id":"672815","latitude":"59.10027780","longitude":"24.25305560","name":"Kivitammi"},{"id":"672825","latitude":"59.58444440","longitude":"25.51694440","name":"Kiyu-Abla"},{"id":"672826","latitude":"59.44777780","longitude":"25.37944440","name":"Kiyu"},{"id":"672828","latitude":"59.23694440","longitude":"24.68888890","name":"Kiyza"},{"id":"672830","latitude":"59.23694440","longitude":"24.68888890","name":"Kiza"},{"id":"672845","latitude":"59.31972220","longitude":"24.21138890","name":"Kloga"},{"id":"672846","latitude":"59.34805560","longitude":"24.25444440","name":"Kloga-Rand"},{"id":"672848","latitude":"59.32833330","longitude":"24.21888890","name":"Klooga Aedlinn"},{"id":"672849","latitude":"59.31972220","longitude":"24.21138890","name":"Klooga"},{"id":"672850","latitude":"59.34805560","longitude":"24.25444440","name":"Klooga-Rand"},{"id":"672851","latitude":"59.34805560","longitude":"24.25444440","name":"Kloogaranna"},{"id":"672852","latitude":"59.34805560","longitude":"24.25444440","name":"Klooga-Ranna"},{"id":"672853","latitude":"59.23305560","longitude":"24.12027780","name":"Kloostri Asundus"},{"id":"672855","latitude":"59.23305560","longitude":"24.12027780","name":"Kloostri"},{"id":"672857","latitude":"59.46666670","longitude":"24.86666670","name":"Kloostrimetsa"},{"id":"672858","latitude":"59.23305560","longitude":"24.12027780","name":"Kloostri-Metsl\u00f5ugu"},{"id":"672860","latitude":"59.23305560","longitude":"24.12027780","name":"Klostri"},{"id":"672867","latitude":"59.16972220","longitude":"24.15777780","name":"Kobru"},{"id":"672870","latitude":"59.39333330","longitude":"24.52916670","name":"Kodasema"},{"id":"672874","latitude":"59.44444440","longitude":"25.27222220","name":"Kodasoo"},{"id":"672900","latitude":"59.37500000","longitude":"25.23055560","name":"Koerzo"},{"id":"672914","latitude":"59.16055560","longitude":"24.53388890","name":"Kohatu"},{"id":"672924","latitude":"59.55000000","longitude":"25.28333330","name":"Koibe"},{"id":"672925","latitude":"59.55000000","longitude":"25.28333330","name":"Koibse"},{"id":"672950","latitude":"59.44500000","longitude":"25.18333330","name":"Koila"},{"id":"672958","latitude":"59.55000000","longitude":"25.28333330","name":"Koipsi"},{"id":"672970","latitude":"59.16055560","longitude":"24.53388890","name":"Kokhatu"},{"id":"672991","latitude":"59.26222220","longitude":"24.45527780","name":"Kokuta"},{"id":"672998","latitude":"59.56027780","longitude":"25.53555560","name":"Kolga-Aabla"},{"id":"672999","latitude":"59.56027780","longitude":"25.53555560","name":"Kolgaabla"},{"id":"673001","latitude":"59.48666670","longitude":"25.61916670","name":"Kolga"},{"id":"673005","latitude":"59.52416670","longitude":"25.71972220","name":"Kolgak\u00fcla"},{"id":"673008","latitude":"59.29972220","longitude":"25.86555560","name":"Kolgu"},{"id":"673021","latitude":"59.28194440","longitude":"25.70750000","name":"Kolme"},{"id":"673027","latitude":"59.18277780","longitude":"25.05638890","name":"Kolu"},{"id":"673035","latitude":"59.43388890","longitude":"24.72805560","name":"Kolyvan"},{"id":"673036","latitude":"59.21555560","longitude":"24.04305560","name":"K\u00f5maste"},{"id":"673037","latitude":"59.21555560","longitude":"24.04305560","name":"K\u00f5mmaste"},{"id":"673049","latitude":"59.48166670","longitude":"25.71861110","name":"K\u00f5nnu"},{"id":"673056","latitude":"59.35000000","longitude":"25.71666670","name":"Konokerv"},{"id":"673060","latitude":"59.35000000","longitude":"25.71666670","name":"Konukyrve"},{"id":"673065","latitude":"59.44083330","longitude":"25.17555560","name":"Koogi"},{"id":"673082","latitude":"59.28194440","longitude":"25.70750000","name":"Koolme"},{"id":"673085","latitude":"59.35000000","longitude":"25.71666670","name":"Koonuk\u00f5rve"},{"id":"673102","latitude":"59.25722220","longitude":"24.58000000","name":"Kopelmani"},{"id":"673103","latitude":"59.39666670","longitude":"24.92611110","name":"Kopli"},{"id":"673107","latitude":"59.39666670","longitude":"24.92611110","name":"Koplik\u00fcla"},{"id":"673108","latitude":"59.39666670","longitude":"24.92611110","name":"Koplikyula"},{"id":"673111","latitude":"59.25722220","longitude":"24.58000000","name":"Koppelmaa"},{"id":"673112","latitude":"59.25722220","longitude":"24.58000000","name":"Koppelmanni"},{"id":"673121","latitude":"59.47861110","longitude":"24.70583330","name":"Kordon Pal'yassare"},{"id":"673129","latitude":"59.98333330","longitude":"25.15000000","name":"K\u00f5rgem\u00e4e Raba"},{"id":"673161","latitude":"59.38333330","longitude":"25.48333330","name":"K\u00f5rve Kaks"},{"id":"673169","latitude":"59.09777780","longitude":"25.43166670","name":"K\u00f5rvenurga"},{"id":"673172","latitude":"59.38333330","longitude":"25.43333330","name":"K\u00f5rve \u00dcks"},{"id":"673173","latitude":"59.40000000","longitude":"25.55000000","name":"K\u00f5rveveski"},{"id":"673177","latitude":"59.17888890","longitude":"25.17305560","name":"Kosch"},{"id":"673178","latitude":"59.45805560","longitude":"24.87833330","name":"Kose"},{"id":"673182","latitude":"59.30000000","longitude":"25.61666670","name":"Kosen\u00f5mme"},{"id":"673183","latitude":"59.30000000","longitude":"25.61666670","name":"Kosenymme"},{"id":"673184","latitude":"59.20000000","longitude":"25.10527780","name":"Kose-Uuem\u00f5isa"},{"id":"673186","latitude":"59.17888890","longitude":"25.17305560","name":"Kosh"},{"id":"673189","latitude":"59.48333330","longitude":"25.11666670","name":"Kostiranna"},{"id":"673190","latitude":"59.42555560","longitude":"25.10361110","name":"Kostivere"},{"id":"673192","latitude":"59.40500000","longitude":"25.47055560","name":"Kosu"},{"id":"673197","latitude":"59.54472220","longitude":"25.74166670","name":"Kotka"},{"id":"673200","latitude":"59.08333330","longitude":"25.23333330","name":"K\u00f5ue"},{"id":"673201","latitude":"59.08333330","longitude":"25.23333330","name":"K\u00f5u"},{"id":"673220","latitude":"59.44500000","longitude":"25.18333330","name":"Koyla"},{"id":"673224","latitude":"59.55000000","longitude":"25.28333330","name":"Koypsi"},{"id":"673225","latitude":"59.45805560","longitude":"24.87833330","name":"Koze"},{"id":"673227","latitude":"59.40500000","longitude":"25.47055560","name":"Kozu"},{"id":"673240","latitude":"59.18583330","longitude":"25.12500000","name":"Krei"},{"id":"673247","latitude":"59.43333330","longitude":"25.06666670","name":"Krodi"},{"id":"673248","latitude":"59.43333330","longitude":"25.06666670","name":"Kroodi"},{"id":"673286","latitude":"59.17500000","longitude":"25.11861110","name":"Kuivaj\u00f5e"},{"id":"673295","latitude":"59.01694440","longitude":"24.13444440","name":"Kuke"},{"id":"673298","latitude":"59.07444440","longitude":"25.31388890","name":"Kukepala"},{"id":"673332","latitude":"59.49444440","longitude":"25.31750000","name":"Kullam\u00e4e"},{"id":"673335","latitude":"59.49444440","longitude":"25.31750000","name":"Kullamyae"},{"id":"673340","latitude":"59.38194440","longitude":"25.02055560","name":"Kulli"},{"id":"673349","latitude":"59.41666670","longitude":"25.36666670","name":"K\u00fclmaallika"},{"id":"673351","latitude":"59.41666670","longitude":"25.36666670","name":"K\u00fclmalliku"},{"id":"673352","latitude":"59.29805560","longitude":"24.32527780","name":"Kulna"},{"id":"673358","latitude":"59.32500000","longitude":"24.43888890","name":"Kumna Asundas"},{"id":"673359","latitude":"59.32500000","longitude":"24.43888890","name":"Kumna"},{"id":"673387","latitude":"59.45222220","longitude":"25.47972220","name":"Kuppo"},{"id":"673388","latitude":"59.45222220","longitude":"25.47972220","name":"Kupu"},{"id":"673422","latitude":"59.24722220","longitude":"24.82000000","name":"Kurevere"},{"id":"673432","latitude":"59.38527780","longitude":"25.08972220","name":"Kurgla"},{"id":"673445","latitude":"59.28277780","longitude":"24.02666670","name":"Kurkse"},{"id":"673446","latitude":"59.28277780","longitude":"24.02666670","name":"Kurksi"},{"id":"673447","latitude":"59.28277780","longitude":"24.02666670","name":"Kurks"},{"id":"673451","latitude":"59.34138890","longitude":"24.84166670","name":"Kurna Asundus"},{"id":"673452","latitude":"59.34138890","longitude":"24.84166670","name":"Kurna"},{"id":"673455","latitude":"59.43333330","longitude":"25.51250000","name":"Kursi"},{"id":"673460","latitude":"59.23138890","longitude":"24.71833330","name":"Kurtna"},{"id":"673465","latitude":"59.23138890","longitude":"24.71833330","name":"Kurtna Siedlung"},{"id":"673468","latitude":"59.44388890","longitude":"25.44138890","name":"Kusal"},{"id":"673469","latitude":"59.44388890","longitude":"25.44138890","name":"Kusalu"},{"id":"673471","latitude":"59.29194440","longitude":"25.34138890","name":"Kusiku"},{"id":"673476","latitude":"59.11222220","longitude":"24.46444440","name":"Kustja"},{"id":"673478","latitude":"59.11222220","longitude":"24.46444440","name":"Kust'ya"},{"id":"673484","latitude":"59.33805560","longitude":"24.43638890","name":"K\u00fctke"},{"id":"673493","latitude":"59.44388890","longitude":"25.44138890","name":"Kuusalu"},{"id":"673495","latitude":"59.36972220","longitude":"25.32277780","name":"Kuusem\u00e4e"},{"id":"673496","latitude":"59.29194440","longitude":"25.34138890","name":"Kuusiku"},{"id":"673515","latitude":"59.44388890","longitude":"25.44138890","name":"Kuzal'"},{"id":"673517","latitude":"59.46666670","longitude":"25.23333330","name":"Kyaaniku"},{"id":"673528","latitude":"59.28333330","longitude":"25.28333330","name":"Kyankari"},{"id":"673548","latitude":"59.45694440","longitude":"24.93611110","name":"Kyarmu"},{"id":"673570","latitude":"59.21555560","longitude":"24.04305560","name":"Kymaste"},{"id":"673571","latitude":"59.48166670","longitude":"25.71861110","name":"Kynnu"},{"id":"673603","latitude":"59.09777780","longitude":"25.43166670","name":"Kyrvenurga"},{"id":"673604","latitude":"59.38333330","longitude":"25.43333330","name":"Kyrve Pervoye"},{"id":"673607","latitude":"59.40000000","longitude":"25.55000000","name":"Kyrveveski"},{"id":"673608","latitude":"59.38333330","longitude":"25.48333330","name":"Kyrve Vtoroye"},{"id":"673611","latitude":"59.08333330","longitude":"25.23333330","name":"Kyu"},{"id":"673616","latitude":"59.41666670","longitude":"25.36666670","name":"Kyul'mallika"},{"id":"673620","latitude":"59.33805560","longitude":"24.43638890","name":"Kyutke"},{"id":"673625","latitude":"59.40638890","longitude":"24.56194440","name":"Laabi"},{"id":"673629","latitude":"59.43416670","longitude":"24.38166670","name":"Laadrev\u00e4lja"},{"id":"673634","latitude":"59.35138890","longitude":"24.59888890","name":"Laagri"},{"id":"673635","latitude":"59.55000000","longitude":"24.53333330","name":"L\u00e4\u00e4nek\u00fcla"},{"id":"673638","latitude":"59.23722220","longitude":"24.09694440","name":"Laane"},{"id":"673644","latitude":"59.61750000","longitude":"25.00777780","name":"L\u00e4\u00e4neotsa"},{"id":"673653","latitude":"59.40638890","longitude":"24.56194440","name":"Labi"},{"id":"673659","latitude":"59.33694440","longitude":"25.22666670","name":"Lae"},{"id":"673664","latitude":"59.40555560","longitude":"24.94222220","name":"Lagedi"},{"id":"673689","latitude":"59.29638890","longitude":"24.85416670","name":"L\u00e4htse"},{"id":"673692","latitude":"59.46916670","longitude":"24.89250000","name":"Laiak\u00fcla"},{"id":"673693","latitude":"59.46916670","longitude":"24.89250000","name":"Laiakyula"},{"id":"673708","latitude":"59.19944440","longitude":"24.38027780","name":"Laitse"},{"id":"673711","latitude":"59.18333330","longitude":"25.28333330","name":"Lakeseyde"},{"id":"673712","latitude":"59.18333330","longitude":"25.28333330","name":"Lakes\u00f6\u00f6di"},{"id":"673722","latitude":"59.39416670","longitude":"24.19750000","name":"Lakhkhosal'"},{"id":"673736","latitude":"59.29666670","longitude":"24.17305560","name":"Langa"},{"id":"673746","latitude":"59.32666670","longitude":"24.12361110","name":"Laok\u00fcla"},{"id":"673748","latitude":"59.32666670","longitude":"24.12361110","name":"Laokyula"},{"id":"673757","latitude":"59.16666670","longitude":"24.13333330","name":"Larvi"},{"id":"673764","latitude":"59.44000000","longitude":"24.83305560","name":"Lasnam\u00e4e"},{"id":"673771","latitude":"59.35000000","longitude":"25.20000000","name":"L\u00e4ti"},{"id":"673784","latitude":"59.38638890","longitude":"24.22972220","name":"Laulasmaa Asundus"},{"id":"673785","latitude":"59.38638890","longitude":"24.22972220","name":"Laulasmaa"},{"id":"673815","latitude":"59.19944440","longitude":"24.38027780","name":"Laytse"},{"id":"673839","latitude":"59.60527780","longitude":"25.50361110","name":"Leesi"},{"id":"673851","latitude":"59.04500000","longitude":"24.26111110","name":"Lehetu Asundus"},{"id":"673852","latitude":"59.04500000","longitude":"24.26111110","name":"Lehetu"},{"id":"673853","latitude":"59.36055560","longitude":"24.55333330","name":"Lehmja"},{"id":"673854","latitude":"59.37222220","longitude":"24.83305560","name":"Lehmja M\u00f5isad"},{"id":"673855","latitude":"59.29250000","longitude":"24.31138890","name":"Lehola Asundus"},{"id":"673856","latitude":"59.29250000","longitude":"24.31138890","name":"Lehola"},{"id":"673858","latitude":"59.32000000","longitude":"25.35694440","name":"Lehtmetsa"},{"id":"673863","latitude":"59.29638890","longitude":"24.85416670","name":"Lehtse"},{"id":"673880","latitude":"59.16416670","longitude":"25.37972220","name":"Leistu"},{"id":"673883","latitude":"59.04500000","longitude":"24.26111110","name":"Lekhetu"},{"id":"673884","latitude":"59.36388890","longitude":"24.85916670","name":"Lekhm'ya"},{"id":"673885","latitude":"59.37222220","longitude":"24.83305560","name":"Lekh'mya"},{"id":"673892","latitude":"59.29638890","longitude":"24.85416670","name":"Lekhtse"},{"id":"673897","latitude":"59.21666670","longitude":"25.21666670","name":"Lellavere"},{"id":"673905","latitude":"59.22611110","longitude":"24.23888890","name":"Lemmaru"},{"id":"673917","latitude":"59.21611110","longitude":"25.25611110","name":"Lendermaa"},{"id":"673918","latitude":"59.21611110","longitude":"25.25611110","name":"Lenderma"},{"id":"673924","latitude":"59.07027780","longitude":"24.15722220","name":"Lepaste"},{"id":"673926","latitude":"59.48333330","longitude":"24.88333330","name":"Lepiku"},{"id":"673932","latitude":"59.54972220","longitude":"24.85166670","name":"Lepneeme"},{"id":"673934","latitude":"59.54972220","longitude":"24.85166670","name":"Leppneeme"},{"id":"673935","latitude":"59.33333330","longitude":"25.71666670","name":"Leppsilla"},{"id":"673937","latitude":"59.33333330","longitude":"25.71666670","name":"Lepsilla"},{"id":"673939","latitude":"59.60527780","longitude":"25.50361110","name":"Lesi"},{"id":"673943","latitude":"59.35000000","longitude":"25.20000000","name":"Leti"},{"id":"673956","latitude":"59.60527780","longitude":"25.50361110","name":"Leyezi"},{"id":"673961","latitude":"59.16416670","longitude":"25.37972220","name":"Leystu"},{"id":"673979","latitude":"59.46500000","longitude":"25.61805560","name":"Liiapeksi"},{"id":"673988","latitude":"59.42944440","longitude":"24.41083330","name":"Liikva"},{"id":"673993","latitude":"59.27583330","longitude":"25.21583330","name":"Liivaaugu"},{"id":"673997","latitude":"59.16888890","longitude":"25.14861110","name":"Liiva"},{"id":"674002","latitude":"59.45333330","longitude":"24.94666670","name":"Liivam\u00e4e"},{"id":"674012","latitude":"59.42944440","longitude":"24.41083330","name":"Likva"},{"id":"674017","latitude":"59.42138890","longitude":"24.72444440","name":"Lillek\u00fcla"},{"id":"674020","latitude":"59.36944440","longitude":"25.35916670","name":"Lilli"},{"id":"674024","latitude":"59.35500000","longitude":"24.98694440","name":"Limu"},{"id":"674032","latitude":"59.34583330","longitude":"25.18194440","name":"Linnakse"},{"id":"674078","latitude":"59.46500000","longitude":"25.61805560","name":"Liyapeksi"},{"id":"674080","latitude":"59.42944440","longitude":"24.41083330","name":"Liykva"},{"id":"674083","latitude":"59.27583330","longitude":"25.21583330","name":"Liyvaaugu"},{"id":"674086","latitude":"59.16888890","longitude":"25.14861110","name":"Liyva"},{"id":"674108","latitude":"59.39416670","longitude":"24.19750000","name":"Lohusalu"},{"id":"674122","latitude":"59.39416670","longitude":"24.19750000","name":"Lokhosal"},{"id":"674124","latitude":"59.39416670","longitude":"24.19750000","name":"Lokhusalu"},{"id":"674128","latitude":"59.28361110","longitude":"24.74305560","name":"Lokoti"},{"id":"674129","latitude":"59.28361110","longitude":"24.74305560","name":"Lokoti Siedlung"},{"id":"674131","latitude":"59.57638890","longitude":"25.72138890","name":"Loksa"},{"id":"674138","latitude":"59.28361110","longitude":"24.74305560","name":"Lokuti"},{"id":"674139","latitude":"59.35472220","longitude":"25.37861110","name":"Lokyula"},{"id":"674153","latitude":"59.35472220","longitude":"25.37861110","name":"Look\u00fcla"},{"id":"674155","latitude":"59.35472220","longitude":"25.37861110","name":"Loo-Kyulya"},{"id":"674157","latitude":"59.43638890","longitude":"24.94833330","name":"Loo"},{"id":"674170","latitude":"59.15027780","longitude":"25.15000000","name":"L\u00f5\u00f5ra"},{"id":"674183","latitude":"59.15027780","longitude":"25.15000000","name":"Lora"},{"id":"674191","latitude":"59.53333330","longitude":"24.53333330","name":"L\u00f5unak\u00fcla"},{"id":"674192","latitude":"59.53333330","longitude":"24.53333330","name":"Lounakyula"},{"id":"674197","latitude":"59.57638890","longitude":"25.72138890","name":"Loxa"},{"id":"674199","latitude":"59.51583330","longitude":"24.85055560","name":"Lubja"},{"id":"674202","latitude":"59.51583330","longitude":"24.85055560","name":"Lub'ya"},{"id":"674211","latitude":"59.33888890","longitude":"24.76166670","name":"Luige"},{"id":"674215","latitude":"59.36666670","longitude":"25.03333330","name":"Luime"},{"id":"674218","latitude":"59.27166670","longitude":"25.27944440","name":"L\u00fckati"},{"id":"674244","latitude":"59.11500000","longitude":"25.13361110","name":"Lutsuk\u00fcla"},{"id":"674245","latitude":"59.11500000","longitude":"25.13361110","name":"Lutsu"},{"id":"674264","latitude":"59.36666670","longitude":"25.03333330","name":"Luyme"},{"id":"674268","latitude":"59.33694440","longitude":"25.22666670","name":"Lyaekyulya"},{"id":"674274","latitude":"59.55000000","longitude":"24.53333330","name":"Lyanekyula"},{"id":"674296","latitude":"59.51583330","longitude":"24.85055560","name":"Lyubiya"},{"id":"674299","latitude":"59.27166670","longitude":"25.27944440","name":"Lyukati"},{"id":"674305","latitude":"59.55000000","longitude":"24.53333330","name":"Lyunakyula"},{"id":"674306","latitude":"59.55000000","longitude":"24.53333330","name":"Lyunakyulya"},{"id":"674319","latitude":"59.16555560","longitude":"25.26138890","name":"Maantee\u00e4\u00e4re"},{"id":"674321","latitude":"59.21055560","longitude":"24.09722220","name":"M\u00e4\u00e4rak\u00fcla"},{"id":"674322","latitude":"59.21055560","longitude":"24.09722220","name":"M\u00e4\u00e4ra"},{"id":"674326","latitude":"59.42805560","longitude":"25.02500000","name":"Maardu"},{"id":"674333","latitude":"59.45611110","longitude":"24.82666670","name":"Maarjam\u00e4e"},{"id":"674347","latitude":"59.09777780","longitude":"24.32277780","name":"Madila"},{"id":"674355","latitude":"59.18333330","longitude":"24.38333330","name":"M\u00e4ek\u00fcla"},{"id":"674377","latitude":"59.46111110","longitude":"25.41111110","name":"M\u00e4epea"},{"id":"674378","latitude":"59.46722220","longitude":"24.44222220","name":"M\u00e4eranna"},{"id":"674379","latitude":"59.25694440","longitude":"24.27694440","name":"Maeru"},{"id":"674402","latitude":"59.48944440","longitude":"24.87194440","name":"M\u00e4he"},{"id":"674413","latitude":"59.23305560","longitude":"24.61611110","name":"Maidla"},{"id":"674422","latitude":"59.26388890","longitude":"23.77416670","name":"Maisso"},{"id":"674423","latitude":"59.26388890","longitude":"23.77416670","name":"Maissu"},{"id":"674442","latitude":"59.26388890","longitude":"25.13361110","name":"Mallavere"},{"id":"674456","latitude":"59.47194440","longitude":"25.12611110","name":"Man'iva"},{"id":"674459","latitude":"59.34333330","longitude":"24.68277780","name":"M\u00e4nniku"},{"id":"674467","latitude":"59.47194440","longitude":"25.12611110","name":"Manniva"},{"id":"674471","latitude":"59.16555560","longitude":"25.26138890","name":"Manteere"},{"id":"674478","latitude":"59.21055560","longitude":"24.09722220","name":"Mara"},{"id":"674485","latitude":"59.19472220","longitude":"25.25333330","name":"Mardu"},{"id":"674486","latitude":"59.14972220","longitude":"25.20166670","name":"Marguse"},{"id":"674488","latitude":"59.45611110","longitude":"24.82666670","name":"Marienberg"},{"id":"674493","latitude":"59.45611110","longitude":"24.82666670","name":"Marinberg"},{"id":"674506","latitude":"59.45611110","longitude":"24.82666670","name":"Mar'yamyae"},{"id":"674536","latitude":"59.26388890","longitude":"23.77416670","name":"Mayssu"},{"id":"674557","latitude":"59.48944440","longitude":"24.87194440","name":"Mekhe"},{"id":"674584","latitude":"59.39777780","longitude":"24.27083330","name":"Merem\u00f5isa"},{"id":"674590","latitude":"59.49305560","longitude":"24.83861110","name":"Meriv\u00e4lja"},{"id":"674591","latitude":"59.49305560","longitude":"24.83861110","name":"Merivyal'ya"},{"id":"674604","latitude":"59.40166670","longitude":"25.02611110","name":"Metsak\u00fcla"},{"id":"674620","latitude":"59.40166670","longitude":"25.02611110","name":"Metsakyulya"},{"id":"674625","latitude":"59.40166670","longitude":"25.02611110","name":"Metsa"},{"id":"674629","latitude":"59.18638890","longitude":"24.50333330","name":"Metsanurga"},{"id":"674659","latitude":"59.15666670","longitude":"24.07916670","name":"Metsl\u00f5ugu"},{"id":"674660","latitude":"59.15666670","longitude":"24.07916670","name":"Metslyugu"},{"id":"674661","latitude":"59.18638890","longitude":"24.50333330","name":"Metsnurga"},{"id":"674674","latitude":"59.50027780","longitude":"24.82083330","name":"Miiduranna"},{"id":"674682","latitude":"59.50027780","longitude":"24.82083330","name":"Milduranna"},{"id":"674696","latitude":"59.33333330","longitude":"24.45000000","name":"M\u00f5hku"},{"id":"674697","latitude":"59.40861110","longitude":"24.80361110","name":"M\u00f5igu"},{"id":"674698","latitude":"59.22555560","longitude":"25.39444440","name":"M\u00f5isaaseme"},{"id":"674703","latitude":"59.20000000","longitude":"24.41666670","name":"M\u00f5isak\u00fcla"},{"id":"674744","latitude":"59.15000000","longitude":"24.45000000","name":"M\u00f5nuste-Eest"},{"id":"674745","latitude":"59.13527780","longitude":"24.42305560","name":"M\u00f5nuste"},{"id":"674747","latitude":"59.13527780","longitude":"24.42305560","name":"M\u00f5nuste-Takka"},{"id":"674755","latitude":"59.26388890","longitude":"23.77416670","name":"Moosi"},{"id":"674774","latitude":"59.48194440","longitude":"24.92944440","name":"Muga"},{"id":"674786","latitude":"59.50111110","longitude":"25.52833330","name":"Muksi"},{"id":"674793","latitude":"59.18972220","longitude":"24.26333330","name":"Munalaskme"},{"id":"674799","latitude":"59.45722220","longitude":"24.43083330","name":"Muraste"},{"id":"674821","latitude":"59.40250000","longitude":"24.67611110","name":"Mustam\u00e4e"},{"id":"674822","latitude":"59.46500000","longitude":"25.57055560","name":"Mustametsa"},{"id":"674834","latitude":"59.28500000","longitude":"25.53500000","name":"Mustj\u00f5e"},{"id":"674846","latitude":"59.10027780","longitude":"24.38694440","name":"Mustu"},{"id":"674856","latitude":"59.48194440","longitude":"24.92944440","name":"Muuga"},{"id":"674859","latitude":"59.50111110","longitude":"25.52833330","name":"Muuksi"},{"id":"674864","latitude":"59.21666670","longitude":"24.47055560","name":"Muusika"},{"id":"674871","latitude":"59.21666670","longitude":"24.47055560","name":"Muzika"},{"id":"674877","latitude":"59.18333330","longitude":"24.38333330","name":"Myaekyula"},{"id":"674887","latitude":"59.46111110","longitude":"25.41111110","name":"Myaepea"},{"id":"674888","latitude":"59.46722220","longitude":"24.44222220","name":"Myaeranna"},{"id":"674898","latitude":"59.48944440","longitude":"24.87194440","name":"Myakhe"},{"id":"674913","latitude":"59.46111110","longitude":"25.41111110","name":"Myapea"},{"id":"674940","latitude":"59.15000000","longitude":"24.45000000","name":"Mynuste-Est"},{"id":"674942","latitude":"59.13527780","longitude":"24.42305560","name":"Mynuste-Takka"},{"id":"674953","latitude":"59.22555560","longitude":"25.39444440","name":"Myyzaazeme"},{"id":"674956","latitude":"59.20000000","longitude":"24.41666670","name":"Myyzakyula"},{"id":"674971","latitude":"59.01666670","longitude":"25.28277780","name":"Myza Aela"},{"id":"674976","latitude":"59.24333330","longitude":"25.32444440","name":"Myza Alavere"},{"id":"674984","latitude":"59.25166670","longitude":"25.02388890","name":"Myza Aruvalla"},{"id":"674992","latitude":"59.25555560","longitude":"24.22138890","name":"Myza Emari"},{"id":"675007","latitude":"59.44277780","longitude":"25.14111110","name":"Myza Ioyelekhtme"},{"id":"675047","latitude":"59.09944440","longitude":"25.17527780","name":"Myza Khabaya"},{"id":"675051","latitude":"59.11638890","longitude":"25.19944440","name":"Myza Kharmi"},{"id":"675065","latitude":"59.44777780","longitude":"25.37944440","name":"Myza Kioa"},{"id":"675072","latitude":"59.44444440","longitude":"25.27222220","name":"Myza Kodaso"},{"id":"675073","latitude":"59.44444440","longitude":"25.27222220","name":"Myza Kodasu"},{"id":"675081","latitude":"59.25722220","longitude":"24.58000000","name":"Myza Koppvl'manni"},{"id":"675085","latitude":"59.42555560","longitude":"25.10361110","name":"Myza Kostifer"},{"id":"675086","latitude":"59.42555560","longitude":"25.10361110","name":"Myza Kostivere"},{"id":"675096","latitude":"59.32500000","longitude":"24.43888890","name":"Myza Kumna"},{"id":"675100","latitude":"59.34138890","longitude":"24.84166670","name":"Myza Kurna"},{"id":"675101","latitude":"59.23138890","longitude":"24.71833330","name":"Myza Kurtna"},{"id":"675105","latitude":"59.37416670","longitude":"24.26972220","name":"Myza Kyaesalu"},{"id":"675130","latitude":"59.38638890","longitude":"24.22972220","name":"Myza Laulasma"},{"id":"675134","latitude":"59.37222220","longitude":"24.83305560","name":"Myza Lekhm'ya"},{"id":"675135","latitude":"59.29250000","longitude":"24.31138890","name":"Myza Lekhola"},{"id":"675162","latitude":"59.23305560","longitude":"24.61611110","name":"Myza Maydla"},{"id":"675174","latitude":"59.45722220","longitude":"24.43083330","name":"Myza Murastu"},{"id":"675181","latitude":"59.44222220","longitude":"24.92194440","name":"Myza Nekhatu"},{"id":"675183","latitude":"59.65000000","longitude":"25.71666670","name":"Myza Neme"},{"id":"675184","latitude":"59.07583330","longitude":"24.33555560","name":"Myza Nurme"},{"id":"675214","latitude":"59.27500000","longitude":"25.34722220","name":"Myza Pikva"},{"id":"675251","latitude":"59.17861110","longitude":"25.21638890","name":"Myza Ravila"},{"id":"675283","latitude":"59.32027780","longitude":"24.55250000","name":"Myza Saue"},{"id":"675322","latitude":"59.51444440","longitude":"25.51805560","name":"Myza Tsitre"},{"id":"675325","latitude":"59.22638890","longitude":"24.96750000","name":"Myza Tukhala"},{"id":"675334","latitude":"59.11666670","longitude":"24.28333330","name":"Myza Ue-Riizipere"},{"id":"675390","latitude":"59.25166670","longitude":"23.87694440","name":"Myza Vikhterpalu"},{"id":"675396","latitude":"59.49666670","longitude":"24.84222220","name":"Myza Viymsi"},{"id":"675402","latitude":"59.25194440","longitude":"24.57944440","name":"Myza Vore"},{"id":"675418","latitude":"59.33333330","longitude":"24.45000000","name":"Myzhku"},{"id":"675420","latitude":"59.40694440","longitude":"24.35750000","name":"Naage"},{"id":"675424","latitude":"59.27388890","longitude":"24.85638890","name":"Nabala"},{"id":"675425","latitude":"59.26527780","longitude":"24.76694440","name":"Nabala-N\u00f5mme"},{"id":"675435","latitude":"59.32444440","longitude":"25.72666670","name":"Nahe"},{"id":"675436","latitude":"59.26944440","longitude":"24.30611110","name":"Nahkjala"},{"id":"675437","latitude":"59.55833330","longitude":"24.52750000","name":"Naissaare"},{"id":"675447","latitude":"59.32444440","longitude":"25.72666670","name":"Nakhe"},{"id":"675494","latitude":"59.52305560","longitude":"25.15055560","name":"Neeme"},{"id":"675500","latitude":"59.44222220","longitude":"24.92194440","name":"Nehatu"},{"id":"675510","latitude":"59.52305560","longitude":"25.15055560","name":"Neme"},{"id":"675547","latitude":"59.23333330","longitude":"24.31666670","name":"Niitv\u00e4lja"},{"id":"675551","latitude":"59.38388890","longitude":"24.68361110","name":"Nimme"},{"id":"675556","latitude":"59.17027780","longitude":"25.02805560","name":"Nirava"},{"id":"675557","latitude":"59.10666670","longitude":"24.31611110","name":"Nissi"},{"id":"675558","latitude":"59.10666670","longitude":"24.31611110","name":"Nissy"},{"id":"675574","latitude":"59.22888890","longitude":"25.24916670","name":"N\u00f5mbra"},{"id":"675577","latitude":"59.09027780","longitude":"25.37666670","name":"N\u00f5mmek\u00fcla"},{"id":"675582","latitude":"59.21638890","longitude":"25.15861110","name":"N\u00f5mmem\u00f5isa"},{"id":"675583","latitude":"59.09027780","longitude":"25.37666670","name":"N\u00f5mme"},{"id":"675593","latitude":"59.09027780","longitude":"25.37666670","name":"N\u00f5mmeri"},{"id":"675596","latitude":"59.26527780","longitude":"24.76694440","name":"N\u00f5mmk\u00fcla"},{"id":"675613","latitude":"59.17027780","longitude":"25.02805560","name":"N\u00f5rava"},{"id":"675633","latitude":"59.41666670","longitude":"24.38333330","name":"Nume"},{"id":"675638","latitude":"59.07583330","longitude":"24.33555560","name":"Nurme Asundus"},{"id":"675640","latitude":"59.07583330","longitude":"24.33555560","name":"Nurme"},{"id":"675656","latitude":"59.06916670","longitude":"25.21305560","name":"Nutu"},{"id":"675670","latitude":"59.26527780","longitude":"24.76694440","name":"Nymmekyula"},{"id":"675672","latitude":"59.09027780","longitude":"25.37666670","name":"Nymme"},{"id":"675711","latitude":"59.13611110","longitude":"24.33166670","name":"Odulemma"},{"id":"675737","latitude":"59.33333330","longitude":"24.11666670","name":"Ohtra"},{"id":"675738","latitude":"59.27833330","longitude":"24.36277780","name":"Ohtu"},{"id":"675746","latitude":"59.42027780","longitude":"24.64111110","name":"\u00d5ism\u00e4e"},{"id":"675756","latitude":"59.33361110","longitude":"25.36555560","name":"Ojak\u00fcla"},{"id":"675764","latitude":"59.12305560","longitude":"25.18472220","name":"Ojasoo"},{"id":"675773","latitude":"59.33333330","longitude":"24.11666670","name":"Okhtra"},{"id":"675774","latitude":"59.27833330","longitude":"24.36277780","name":"Okhtu"},{"id":"675784","latitude":"59.43888890","longitude":"24.75000000","name":"Oleviste"},{"id":"675829","latitude":"59.45805560","longitude":"24.40055560","name":"Orava"},{"id":"675875","latitude":"59.18777780","longitude":"24.98055560","name":"Oru"},{"id":"675911","latitude":"59.33361110","longitude":"25.36555560","name":"Oyakyula"},{"id":"675941","latitude":"59.34638890","longitude":"25.33777780","name":"Paasiku"},{"id":"675943","latitude":"59.35388890","longitude":"24.62527780","name":"P\u00e4\u00e4sk\u00fcla"},{"id":"675965","latitude":"59.23111110","longitude":"24.14055560","name":"Padise"},{"id":"675971","latitude":"59.27027780","longitude":"24.82222220","name":"Paekna"},{"id":"675981","latitude":"59.33333330","longitude":"25.25000000","name":"Paenurme"},{"id":"675982","latitude":"59.20555560","longitude":"24.01250000","name":"Pae"},{"id":"675992","latitude":"59.36888890","longitude":"24.52444440","name":"Pagavere"},{"id":"675994","latitude":"59.36888890","longitude":"24.52444440","name":"Pagovere"},{"id":"676043","latitude":"59.36888890","longitude":"24.95972220","name":"Pajupea"},{"id":"676061","latitude":"59.35000000","longitude":"24.11666670","name":"Pakre"},{"id":"676062","latitude":"59.35000000","longitude":"24.11666670","name":"Pakri"},{"id":"676073","latitude":"59.06694440","longitude":"25.29805560","name":"Pala"},{"id":"676085","latitude":"59.35666670","longitude":"24.05305560","name":"Paldiski"},{"id":"676091","latitude":"59.47861110","longitude":"24.70583330","name":"Paljassaare"},{"id":"676092","latitude":"59.36666670","longitude":"25.85000000","name":"Pallal'"},{"id":"676098","latitude":"59.24194440","longitude":"24.45722220","name":"P\u00e4llu"},{"id":"676106","latitude":"59.35666670","longitude":"24.05305560","name":"Paltiski"},{"id":"676110","latitude":"59.21638890","longitude":"25.41638890","name":"Paluk\u00fcla"},{"id":"676114","latitude":"59.21638890","longitude":"25.41638890","name":"Palukyula"},{"id":"676124","latitude":"59.21638890","longitude":"25.41638890","name":"Palu"},{"id":"676135","latitude":"59.19777780","longitude":"25.25611110","name":"Palvere"},{"id":"676137","latitude":"59.47861110","longitude":"24.70583330","name":"Pal'yassare"},{"id":"676163","latitude":"59.09694440","longitude":"24.46583330","name":"P\u00e4raldi"},{"id":"676169","latitude":"59.41111110","longitude":"25.13000000","name":"Parasm\u00e4e"},{"id":"676172","latitude":"59.41111110","longitude":"25.13000000","name":"Parasmyae"},{"id":"676173","latitude":"59.41111110","longitude":"25.13000000","name":"Parasmya"},{"id":"676179","latitude":"59.34444440","longitude":"25.24861110","name":"Parila"},{"id":"676186","latitude":"59.65055560","longitude":"25.69805560","name":"P\u00e4risp\u00e4\u00e4"},{"id":"676187","latitude":"59.65055560","longitude":"25.69805560","name":"P\u00e4rispea"},{"id":"676193","latitude":"59.49750000","longitude":"25.76055560","name":"Parksi"},{"id":"676196","latitude":"59.50638890","longitude":"24.85833330","name":"P\u00e4rnam\u00e4e"},{"id":"676213","latitude":"59.38972220","longitude":"25.30222220","name":"Partsaare"},{"id":"676214","latitude":"59.38972220","longitude":"25.30222220","name":"Partsare"},{"id":"676225","latitude":"59.31500000","longitude":"24.90638890","name":"Patika"},{"id":"676240","latitude":"59.14305560","longitude":"25.34555560","name":"Paunk\u00fcla"},{"id":"676241","latitude":"59.14305560","longitude":"25.34555560","name":"Paunkyula"},{"id":"676246","latitude":"59.33333330","longitude":"25.25000000","name":"Payenurme"},{"id":"676266","latitude":"59.27250000","longitude":"23.90472220","name":"Pedase"},{"id":"676267","latitude":"59.27250000","longitude":"23.90472220","name":"Pedaso"},{"id":"676269","latitude":"59.54444440","longitude":"25.56138890","name":"Pedaspea"},{"id":"676288","latitude":"59.39416670","longitude":"24.81333330","name":"Peetrik\u00fcla"},{"id":"676289","latitude":"59.33333330","longitude":"24.50000000","name":"Peetri-M\u00f5isak\u00fcla"},{"id":"676292","latitude":"59.39416670","longitude":"24.81333330","name":"Peetri"},{"id":"676301","latitude":"59.44194440","longitude":"24.68222220","name":"Pel'guliin"},{"id":"676302","latitude":"59.44194440","longitude":"24.68222220","name":"Pelgulinn"},{"id":"676303","latitude":"59.44722220","longitude":"24.69166670","name":"Pelguranna"},{"id":"676309","latitude":"59.33555560","longitude":"25.15805560","name":"Peningi"},{"id":"676336","latitude":"59.29694440","longitude":"25.17166670","name":"Perila"},{"id":"676338","latitude":"59.65055560","longitude":"25.69805560","name":"Perispe"},{"id":"676352","latitude":"59.39416670","longitude":"24.81333330","name":"Petrikyula"},{"id":"676353","latitude":"59.33333330","longitude":"24.50000000","name":"Petri-Myyzakyula"},{"id":"676400","latitude":"59.47388890","longitude":"24.82944440","name":"Piirita"},{"id":"676408","latitude":"59.25222220","longitude":"24.84500000","name":"Piissoo"},{"id":"676411","latitude":"59.25222220","longitude":"24.84500000","name":"Piisuk\u00fcla"},{"id":"676420","latitude":"59.42583330","longitude":"24.62888890","name":"Pikaliiva"},{"id":"676421","latitude":"59.42583330","longitude":"24.62888890","name":"Pikaliyva"},{"id":"676427","latitude":"59.17055560","longitude":"25.23444440","name":"Pikasoidi"},{"id":"676428","latitude":"59.17055560","longitude":"25.23444440","name":"Pikas\u00f6\u00f6di"},{"id":"676432","latitude":"59.27527780","longitude":"25.13527780","name":"Pikavere"},{"id":"676434","latitude":"59.30000000","longitude":"25.06666670","name":"Pikavere-Surso"},{"id":"676435","latitude":"59.30000000","longitude":"25.06666670","name":"Pikavere-Suursoo"},{"id":"676456","latitude":"59.27500000","longitude":"25.34722220","name":"Pikva"},{"id":"676466","latitude":"59.35027780","longitude":"25.58555560","name":"Pillapal'"},{"id":"676467","latitude":"59.35027780","longitude":"25.58555560","name":"Pillapalu"},{"id":"676483","latitude":"59.37277780","longitude":"25.38416670","name":"Pirga"},{"id":"676487","latitude":"59.47388890","longitude":"24.82944440","name":"Pirita"},{"id":"676488","latitude":"59.47388890","longitude":"24.82944440","name":"Piritta"},{"id":"676490","latitude":"59.36388890","longitude":"25.37555560","name":"Pirso"},{"id":"676491","latitude":"59.36388890","longitude":"25.37555560","name":"Pirsu"},{"id":"676493","latitude":"59.37277780","longitude":"25.38416670","name":"Pirzo"},{"id":"676499","latitude":"59.61916670","longitude":"24.97750000","name":"Pivimaa"},{"id":"676512","latitude":"59.25222220","longitude":"24.84500000","name":"Piyzukyula"},{"id":"676535","latitude":"59.58333330","longitude":"24.53333330","name":"P\u00f5hjak\u00fcla"},{"id":"676537","latitude":"59.47916670","longitude":"25.43444440","name":"P\u00f5hja"},{"id":"676538","latitude":"59.16444440","longitude":"24.37083330","name":"Pohla"},{"id":"676548","latitude":"59.16444440","longitude":"24.37083330","name":"Pokhla"},{"id":"676549","latitude":"59.58333330","longitude":"24.53333330","name":"Pokhyakyula"},{"id":"676550","latitude":"59.47916670","longitude":"25.43444440","name":"Pokhya"},{"id":"676565","latitude":"59.33111110","longitude":"24.18138890","name":"P\u00f5llk\u00fcla"},{"id":"676617","latitude":"59.20000000","longitude":"24.53333330","name":"Porsu"},{"id":"676618","latitude":"59.35666670","longitude":"24.05305560","name":"Port Baltic"},{"id":"676619","latitude":"59.35666670","longitude":"24.05305560","name":"Port Baltique"},{"id":"676636","latitude":"59.26833330","longitude":"23.83888890","name":"Praksi"},{"id":"676648","latitude":"59.44944440","longitude":"24.89361110","name":"Priisle"},{"id":"676650","latitude":"59.53944440","longitude":"24.79388890","name":"Pringi"},{"id":"676654","latitude":"59.44944440","longitude":"24.89361110","name":"Priysle"},{"id":"676664","latitude":"59.51750000","longitude":"25.56305560","name":"Pudisoo"},{"id":"676665","latitude":"59.51750000","longitude":"25.56305560","name":"Pudiso"},{"id":"676679","latitude":"59.36222220","longitude":"24.52194440","name":"P\u00fchak\u00fcla"},{"id":"676681","latitude":"59.36222220","longitude":"24.52194440","name":"P\u00fcha"},{"id":"676774","latitude":"59.55083330","longitude":"24.79583330","name":"P\u00fc\u00fcnsi"},{"id":"676791","latitude":"59.35388890","longitude":"24.62527780","name":"Pyaeskyula"},{"id":"676802","latitude":"59.09694440","longitude":"24.46583330","name":"Pyaraldi"},{"id":"676808","latitude":"59.65055560","longitude":"25.69805560","name":"Pyarispea"},{"id":"676810","latitude":"59.50638890","longitude":"24.85833330","name":"Pyarnamyae"},{"id":"676821","latitude":"59.35388890","longitude":"24.62527780","name":"Pyaskyula"},{"id":"676847","latitude":"59.36222220","longitude":"24.52194440","name":"Pyukhakyulya"},{"id":"676854","latitude":"59.55083330","longitude":"24.79583330","name":"Pyuynsi"},{"id":"676855","latitude":"59.55083330","longitude":"24.79583330","name":"Pyuyunsi"},{"id":"676882","latitude":"59.36638890","longitude":"25.18305560","name":"Raasiku"},{"id":"676891","latitude":"59.43388890","longitude":"24.72805560","name":"R\u00e4\u00e4veli"},{"id":"676916","latitude":"59.38583330","longitude":"24.88305560","name":"Rae"},{"id":"676934","latitude":"59.06361110","longitude":"24.34361110","name":"Rahula"},{"id":"676970","latitude":"59.06361110","longitude":"24.34361110","name":"Rakhula"},{"id":"676982","latitude":"59.56666670","longitude":"25.21666670","name":"Rammo"},{"id":"676986","latitude":"59.56666670","longitude":"25.21666670","name":"Rammu"},{"id":"676996","latitude":"59.50888890","longitude":"24.89972220","name":"Randvere"},{"id":"677005","latitude":"59.27722220","longitude":"24.10222220","name":"Rannak\u00fcla"},{"id":"677010","latitude":"59.27722220","longitude":"24.10222220","name":"Rannakyula"},{"id":"677011","latitude":"59.30805560","longitude":"23.92444440","name":"Ranna-Kyula"},{"id":"677018","latitude":"59.44000000","longitude":"24.51444440","name":"Rannam\u00f5isa"},{"id":"677020","latitude":"59.44000000","longitude":"24.51444440","name":"Rannam'ois"},{"id":"677021","latitude":"59.44000000","longitude":"24.51444440","name":"Rannamyyza"},{"id":"677026","latitude":"59.27722220","longitude":"24.10222220","name":"Ranna"},{"id":"677047","latitude":"59.36638890","longitude":"25.18305560","name":"Rasik"},{"id":"677048","latitude":"59.36638890","longitude":"25.18305560","name":"Rasiku"},{"id":"677051","latitude":"59.22250000","longitude":"25.37333330","name":"Rasivere"},{"id":"677062","latitude":"59.31305560","longitude":"25.20916670","name":"R\u00e4tla"},{"id":"677074","latitude":"59.39361110","longitude":"25.45111110","name":"Raudoja"},{"id":"677086","latitude":"59.09722220","longitude":"25.28583330","name":"Ravaa"},{"id":"677088","latitude":"59.09722220","longitude":"25.28583330","name":"Rava"},{"id":"677090","latitude":"59.17388890","longitude":"25.26194440","name":"Raveliku"},{"id":"677091","latitude":"59.17861110","longitude":"25.21638890","name":"Ravila"},{"id":"677101","latitude":"59.36638890","longitude":"25.18305560","name":"Razik'"},{"id":"677106","latitude":"59.45833330","longitude":"25.09500000","name":"Rebala"},{"id":"677119","latitude":"59.41750000","longitude":"25.42805560","name":"Rehatse"},{"id":"677121","latitude":"59.00444440","longitude":"24.11111110","name":"Rehem\u00e4e"},{"id":"677143","latitude":"59.41750000","longitude":"25.42805560","name":"Rekhatse"},{"id":"677144","latitude":"59.41750000","longitude":"25.42805560","name":"Rekhattse"},{"id":"677149","latitude":"59.31472220","longitude":"25.59611110","name":"Rekka"},{"id":"677164","latitude":"59.43388890","longitude":"24.72805560","name":"Reval"},{"id":"677165","latitude":"59.43388890","longitude":"24.72805560","name":"Revel'"},{"id":"677174","latitude":"59.20111110","longitude":"24.99861110","name":"Ridak\u00fcla"},{"id":"677191","latitude":"59.11416670","longitude":"24.31055560","name":"Riesenberg"},{"id":"677200","latitude":"59.11666670","longitude":"25.23472220","name":"Riidam\u00e4e"},{"id":"677202","latitude":"59.18638890","longitude":"24.14027780","name":"Riidika"},{"id":"677207","latitude":"59.11666670","longitude":"24.28333330","name":"Riisipere Asundus"},{"id":"677208","latitude":"59.11416670","longitude":"24.31055560","name":"Riisipere"},{"id":"677226","latitude":"59.11416670","longitude":"24.31055560","name":"Risipere"},{"id":"677241","latitude":"59.26944440","longitude":"23.74666670","name":"Ristna"},{"id":"677250","latitude":"59.11666670","longitude":"25.23472220","name":"Riydamyae"},{"id":"677251","latitude":"59.18638890","longitude":"24.14027780","name":"Riydika"},{"id":"677252","latitude":"59.11416670","longitude":"24.31055560","name":"Riyzipere"},{"id":"677253","latitude":"59.11416670","longitude":"24.31055560","name":"Rizipere"},{"id":"677258","latitude":"59.42777780","longitude":"24.61388890","name":"Rocca-al-Mare"},{"id":"677266","latitude":"59.35666670","longitude":"24.05305560","name":"Rogowik"},{"id":"677272","latitude":"59.55694440","longitude":"24.79722220","name":"Rohuneeme"},{"id":"677287","latitude":"59.55694440","longitude":"24.79722220","name":"Rokhuneme"},{"id":"677292","latitude":"59.26722220","longitude":"25.30694440","name":"Rokyula"},{"id":"677299","latitude":"59.23777780","longitude":"24.65277780","name":"Roobuka"},{"id":"677304","latitude":"59.26722220","longitude":"25.30694440","name":"Rook\u00fcla"},{"id":"677307","latitude":"59.13916670","longitude":"25.30722220","name":"R\u00f5\u00f5sa"},{"id":"677360","latitude":"59.11416670","longitude":"24.31055560","name":"Rozenberg'"},{"id":"677366","latitude":"59.19000000","longitude":"24.42833330","name":"Ruila"},{"id":"677375","latitude":"59.53527780","longitude":"24.79972220","name":"Rummu"},{"id":"677392","latitude":"59.44916670","longitude":"25.20694440","name":"Ruu"},{"id":"677417","latitude":"59.31305560","longitude":"25.20916670","name":"Ryatla"},{"id":"677502","latitude":"59.43333330","longitude":"24.96666670","name":"Saha-Liiva"},{"id":"677504","latitude":"59.42138890","longitude":"24.96583330","name":"Saha"},{"id":"677509","latitude":"59.34944440","longitude":"24.80222220","name":"Saire"},{"id":"677513","latitude":"59.42138890","longitude":"24.96583330","name":"Sakha"},{"id":"677531","latitude":"59.30222220","longitude":"24.65777780","name":"Saku"},{"id":"677553","latitude":"59.48861110","longitude":"25.37805560","name":"Salmisto"},{"id":"677554","latitude":"59.48861110","longitude":"25.37805560","name":"Sal'mist"},{"id":"677555","latitude":"59.48861110","longitude":"25.37805560","name":"Salmistu"},{"id":"677556","latitude":"59.48861110","longitude":"25.37805560","name":"Salmitsu"},{"id":"677558","latitude":"59.36361110","longitude":"25.22388890","name":"Salum\u00e4e"},{"id":"677559","latitude":"59.34138890","longitude":"25.30555560","name":"Salumetsa"},{"id":"677560","latitude":"59.26083330","longitude":"25.09388890","name":"Salu"},{"id":"677569","latitude":"59.38583330","longitude":"25.21611110","name":"Sambu"},{"id":"677590","latitude":"59.36638890","longitude":"25.18305560","name":"Sankt-Johannis"},{"id":"677624","latitude":"59.17194440","longitude":"24.94027780","name":"S\u00e4rge"},{"id":"677634","latitude":"59.30444440","longitude":"24.33222220","name":"Sassi"},{"id":"677649","latitude":"59.08305560","longitude":"25.36583330","name":"Saueaugu"},{"id":"677653","latitude":"59.32027780","longitude":"24.55250000","name":"Saue"},{"id":"677657","latitude":"59.19444440","longitude":"25.02916670","name":"Saula"},{"id":"677660","latitude":"59.38333330","longitude":"24.96666670","name":"Saunak\u00fcla"},{"id":"677663","latitude":"59.38333330","longitude":"24.96666670","name":"Saunakyula"},{"id":"677670","latitude":"59.42916670","longitude":"25.31138890","name":"Saunja"},{"id":"677672","latitude":"59.42916670","longitude":"25.31138890","name":"Saun'ya"},{"id":"677675","latitude":"59.30666670","longitude":"24.78111110","name":"Sausti"},{"id":"677699","latitude":"59.34944440","longitude":"24.80222220","name":"Sayre"},{"id":"677710","latitude":"59.11611110","longitude":"24.15694440","name":"Selgk\u00fcla"},{"id":"677711","latitude":"59.11611110","longitude":"24.15694440","name":"Sel'gkyula"},{"id":"677717","latitude":"59.33166670","longitude":"25.01527780","name":"Seli"},{"id":"677751","latitude":"59.18333330","longitude":"24.24444440","name":"Sepu"},{"id":"677761","latitude":"59.55000000","longitude":"24.53333330","name":"Shanetz"},{"id":"677762","latitude":"59.28583330","longitude":"25.61416670","name":"Sharlotengof"},{"id":"677763","latitude":"59.28583330","longitude":"25.61416670","name":"Sharlottengof'"},{"id":"677768","latitude":"59.24583330","longitude":"24.84972220","name":"Siberik\u00fcla"},{"id":"677771","latitude":"59.24583330","longitude":"24.84972220","name":"Siberikyula"},{"id":"677772","latitude":"59.24583330","longitude":"24.84972220","name":"Siberi"},{"id":"677779","latitude":"59.43111110","longitude":"25.59444440","name":"Sigula"},{"id":"677783","latitude":"59.14055560","longitude":"24.17000000","name":"Siimika"},{"id":"677803","latitude":"59.11416670","longitude":"25.30861110","name":"Silmsi"},{"id":"677821","latitude":"59.11750000","longitude":"24.50194440","name":"Sipa"},{"id":"677824","latitude":"59.36583330","longitude":"24.31611110","name":"Sipeksi"},{"id":"677837","latitude":"59.36583330","longitude":"24.31611110","name":"Sitpeksi"},{"id":"677838","latitude":"59.45000000","longitude":"24.70166670","name":"Sitsi"},{"id":"677850","latitude":"59.38027780","longitude":"25.37444440","name":"Sodla"},{"id":"677864","latitude":"59.27027780","longitude":"24.89638890","name":"S\u00f5gula"},{"id":"677868","latitude":"59.46138890","longitude":"25.46722220","name":"S\u00f5itme"},{"id":"677877","latitude":"59.18694440","longitude":"23.90527780","name":"Sol'tsa"},{"id":"677882","latitude":"59.15972220","longitude":"25.27083330","name":"S\u00f5meru"},{"id":"677900","latitude":"59.41055560","longitude":"24.88138890","name":"Soodevahe"},{"id":"677904","latitude":"59.38027780","longitude":"25.37444440","name":"Soodla"},{"id":"677907","latitude":"59.25972220","longitude":"24.77055560","name":"Sookaera"},{"id":"677913","latitude":"59.18694440","longitude":"23.90527780","name":"Sooltse"},{"id":"677935","latitude":"59.18694440","longitude":"23.90527780","name":"Soo-otsa"},{"id":"677951","latitude":"59.23361110","longitude":"25.38250000","name":"Soosta"},{"id":"677959","latitude":"59.23361110","longitude":"25.38250000","name":"Sootsa"},{"id":"677962","latitude":"59.18694440","longitude":"23.90527780","name":"Sootse"},{"id":"677973","latitude":"59.42611110","longitude":"24.44250000","name":"S\u00f5rve"},{"id":"677990","latitude":"59.46138890","longitude":"25.46722220","name":"Soytmaye"},{"id":"677992","latitude":"59.55000000","longitude":"24.53333330","name":"Star Fort"},{"id":"678027","latitude":"59.25083330","longitude":"24.41694440","name":"Sure-Aru"},{"id":"678028","latitude":"59.53055560","longitude":"25.65333330","name":"Surekerve"},{"id":"678029","latitude":"59.08583330","longitude":"24.23083330","name":"Surekivi"},{"id":"678031","latitude":"59.53055560","longitude":"25.65333330","name":"Surekyrve"},{"id":"678040","latitude":"59.27916670","longitude":"24.16888890","name":"Surevyal'ya"},{"id":"678048","latitude":"59.31666670","longitude":"23.93333330","name":"Surkyula"},{"id":"678049","latitude":"59.33333330","longitude":"23.96666670","name":"Sur-Kyula"},{"id":"678054","latitude":"59.26138890","longitude":"24.17944440","name":"Surkyulya"},{"id":"678058","latitude":"59.62305560","longitude":"25.69305560","name":"Surpea"},{"id":"678059","latitude":"59.62305560","longitude":"25.69305560","name":"Surpe"},{"id":"678062","latitude":"59.42305560","longitude":"25.79472220","name":"Surru"},{"id":"678067","latitude":"59.16666670","longitude":"24.95000000","name":"Sur-Syarge"},{"id":"678070","latitude":"59.42305560","longitude":"25.79472220","name":"Suru"},{"id":"678089","latitude":"59.25083330","longitude":"24.41694440","name":"Suurearu"},{"id":"678094","latitude":"59.08583330","longitude":"24.23083330","name":"Suurekivi"},{"id":"678098","latitude":"59.53055560","longitude":"25.65333330","name":"Suurek\u00f5rve"},{"id":"678111","latitude":"59.16666670","longitude":"24.95000000","name":"Suure-S\u00e4rge"},{"id":"678112","latitude":"59.30250000","longitude":"24.95888890","name":"Suuresta"},{"id":"678115","latitude":"59.27916670","longitude":"24.16888890","name":"Suurevalja"},{"id":"678122","latitude":"59.26138890","longitude":"24.17944440","name":"Suurk\u00fcla"},{"id":"678136","latitude":"59.62305560","longitude":"25.69305560","name":"Suurpea"},{"id":"678143","latitude":"59.28888890","longitude":"25.07055560","name":"Suursoo"},{"id":"678146","latitude":"59.45527780","longitude":"24.39138890","name":"Suurupi"},{"id":"678148","latitude":"59.39666670","longitude":"24.92611110","name":"Suur-Vaskjala"},{"id":"678177","latitude":"59.27027780","longitude":"24.89638890","name":"Sygula"},{"id":"678181","latitude":"59.24527780","longitude":"24.90305560","name":"Symeru"},{"id":"678193","latitude":"59.46138890","longitude":"25.46722220","name":"Syytme"},{"id":"678203","latitude":"59.10555560","longitude":"24.22388890","name":"Tabara"},{"id":"678204","latitude":"59.43027780","longitude":"24.53305560","name":"Tabasalu"},{"id":"678205","latitude":"59.43027780","longitude":"24.53305560","name":"Tabasalyu"},{"id":"678212","latitude":"59.19388890","longitude":"25.08944440","name":"Tade"},{"id":"678218","latitude":"59.21888890","longitude":"24.76722220","name":"Tagadi"},{"id":"678229","latitude":"59.15000000","longitude":"25.25000000","name":"Tagametsa"},{"id":"678233","latitude":"59.20250000","longitude":"25.47888890","name":"Taganurga"},{"id":"678277","latitude":"59.43388890","longitude":"24.72805560","name":"Talinas"},{"id":"678280","latitude":"59.43388890","longitude":"24.72805560","name":"Tallina"},{"id":"678281","latitude":"59.43388890","longitude":"24.72805560","name":"Tallinna"},{"id":"678282","latitude":"59.43388890","longitude":"24.72805560","name":"Tallinn"},{"id":"678283","latitude":"59.43388890","longitude":"24.72805560","name":"Tallin"},{"id":"678308","latitude":"59.20388890","longitude":"24.91888890","name":"Tammiku"},{"id":"678315","latitude":"59.55750000","longitude":"25.81861110","name":"Tammisp\u00e4\u00e4"},{"id":"678317","latitude":"59.55750000","longitude":"25.81861110","name":"Tammispea"},{"id":"678318","latitude":"59.55750000","longitude":"25.81861110","name":"Tammispe"},{"id":"678324","latitude":"59.62500000","longitude":"25.50027780","name":"Tammisto"},{"id":"678325","latitude":"59.62500000","longitude":"25.50027780","name":"Tammistu"},{"id":"678331","latitude":"59.52888890","longitude":"24.88638890","name":"Tammneeme"},{"id":"678335","latitude":"59.52888890","longitude":"24.88638890","name":"Tamneem"},{"id":"678341","latitude":"59.24472220","longitude":"23.87833330","name":"Tamse"},{"id":"678349","latitude":"59.33527780","longitude":"24.62861110","name":"T\u00e4nassilma"},{"id":"678354","latitude":"59.33527780","longitude":"24.62861110","name":"T\u00e4nnassilma"},{"id":"678365","latitude":"59.60388890","longitude":"25.57111110","name":"Tapurla"},{"id":"678366","latitude":"59.60388890","longitude":"25.57111110","name":"Tapurle"},{"id":"678412","latitude":"59.46333330","longitude":"24.66777780","name":"Teliskoppel"},{"id":"678417","latitude":"59.33527780","longitude":"24.62861110","name":"Tenasil'ma"},{"id":"678423","latitude":"59.03333330","longitude":"24.28333330","name":"Terjatu"},{"id":"678426","latitude":"59.03333330","longitude":"24.28333330","name":"Ter'yatu"},{"id":"678474","latitude":"59.42277780","longitude":"24.57000000","name":"Tiskre"},{"id":"678483","latitude":"59.27388890","longitude":"24.70444440","name":"T\u00f5dva"},{"id":"678488","latitude":"59.35111110","longitude":"25.12833330","name":"T\u00f5helgi"},{"id":"678522","latitude":"59.32750000","longitude":"24.37277780","name":"T\u00f5mmiku"},{"id":"678525","latitude":"59.40694440","longitude":"24.71694440","name":"Tondi"},{"id":"678547","latitude":"59.43833330","longitude":"24.74166670","name":"Toompea"},{"id":"678609","latitude":"59.09416670","longitude":"25.25638890","name":"Triigi"},{"id":"678629","latitude":"59.51444440","longitude":"25.51805560","name":"Tsitre M\u00f5is"},{"id":"678630","latitude":"59.51444440","longitude":"25.51805560","name":"Tsitre"},{"id":"678631","latitude":"59.51444440","longitude":"25.51805560","name":"Tsitri"},{"id":"678651","latitude":"59.22638890","longitude":"24.96750000","name":"Tuhala Siedlung"},{"id":"678652","latitude":"59.22638890","longitude":"24.96750000","name":"Tuhala"},{"id":"678666","latitude":"59.26750000","longitude":"24.44388890","name":"Tula"},{"id":"678667","latitude":"59.33722220","longitude":"24.27888890","name":"Tulina"},{"id":"678675","latitude":"59.61694440","longitude":"25.77694440","name":"Turbaneeme"},{"id":"678676","latitude":"59.08305560","longitude":"24.22500000","name":"Turba"},{"id":"678677","latitude":"59.61694440","longitude":"25.77694440","name":"Turbuneeme"},{"id":"678683","latitude":"59.41166670","longitude":"24.30722220","name":"T\u00fcrisalu"},{"id":"678699","latitude":"59.09583330","longitude":"24.11361110","name":"Turvaste"},{"id":"678706","latitude":"59.31777780","longitude":"24.46472220","name":"Tutermaa"},{"id":"678713","latitude":"59.26750000","longitude":"24.44388890","name":"Tuula Asundas"},{"id":"678714","latitude":"59.26750000","longitude":"24.44388890","name":"Tuula"},{"id":"678718","latitude":"59.33722220","longitude":"24.27888890","name":"Tuulina"},{"id":"678719","latitude":"59.33722220","longitude":"24.27888890","name":"Tuulna"},{"id":"678727","latitude":"59.33527780","longitude":"24.62861110","name":"Tyanassil'ma"},{"id":"678735","latitude":"59.35111110","longitude":"25.12833330","name":"Tykhelgi"},{"id":"678754","latitude":"59.41166670","longitude":"24.30722220","name":"Tyurisal'"},{"id":"678755","latitude":"59.41166670","longitude":"24.30722220","name":"Tyurisalu"},{"id":"678777","latitude":"59.48388890","longitude":"24.98638890","name":"Udik\u00fcla"},{"id":"678789","latitude":"59.24694440","longitude":"25.35694440","name":"Uearu"},{"id":"678790","latitude":"59.36694440","longitude":"25.23333330","name":"Uekyula"},{"id":"678795","latitude":"59.13944440","longitude":"25.20583330","name":"Ueveski"},{"id":"678796","latitude":"59.26694440","longitude":"23.81694440","name":"Ugla"},{"id":"678797","latitude":"59.26694440","longitude":"23.81694440","name":"Uglya"},{"id":"678812","latitude":"59.29194440","longitude":"24.61111110","name":"\u00dcksnurme"},{"id":"678817","latitude":"59.34138890","longitude":"25.36972220","name":"\u00dclej\u00f5e"},{"id":"678822","latitude":"59.29805560","longitude":"24.32527780","name":"\u00dclenomme"},{"id":"678826","latitude":"59.38333330","longitude":"24.40000000","name":"\u00dclevaltk\u00fcla"},{"id":"678827","latitude":"59.48666670","longitude":"25.07777780","name":"\u00dclgase"},{"id":"678828","latitude":"59.48666670","longitude":"25.07777780","name":"Ulgaste"},{"id":"678889","latitude":"59.16666670","longitude":"24.10000000","name":"Urgeta"},{"id":"678895","latitude":"59.45361110","longitude":"25.68055560","name":"Urita"},{"id":"678897","latitude":"59.48916670","longitude":"25.58027780","name":"Uri"},{"id":"678898","latitude":"59.11277780","longitude":"24.31555560","name":"\u00dcrjaste"},{"id":"678905","latitude":"59.26694440","longitude":"25.10416670","name":"Urvaste"},{"id":"678908","latitude":"59.35000000","longitude":"24.36666670","name":"Usad'ba Kar'yakyula"},{"id":"678913","latitude":"59.48388890","longitude":"24.98638890","name":"Uskyula"},{"id":"678931","latitude":"59.24694440","longitude":"25.35694440","name":"Uuearu"},{"id":"678935","latitude":"59.35000000","longitude":"24.36666670","name":"Uue Karjak\u00fcla"},{"id":"678937","latitude":"59.36694440","longitude":"25.23333330","name":"Uuek\u00fcla"},{"id":"678948","latitude":"59.11666670","longitude":"24.28333330","name":"Uue-Riisipere"},{"id":"678955","latitude":"59.13944440","longitude":"25.20583330","name":"Uueveski"},{"id":"678966","latitude":"59.45361110","longitude":"25.68055560","name":"Uurita"},{"id":"678967","latitude":"59.48916670","longitude":"25.58027780","name":"Uuri"},{"id":"678972","latitude":"59.36694440","longitude":"25.23333330","name":"Uusk\u00fcla"},{"id":"678977","latitude":"59.36694440","longitude":"25.23333330","name":"Uuskyulya"},{"id":"678987","latitude":"59.36694440","longitude":"25.23333330","name":"Uuyekyulya"},{"id":"678999","latitude":"59.43944440","longitude":"24.35972220","name":"V\u00e4\u00e4na-J\u00f5esuu"},{"id":"679000","latitude":"59.38333330","longitude":"24.43333330","name":"V\u00e4\u00e4na-M\u00f5isak\u00fcla"},{"id":"679001","latitude":"59.39388890","longitude":"24.40250000","name":"V\u00e4\u00e4na"},{"id":"679009","latitude":"59.35777780","longitude":"25.21305560","name":"Vaase"},{"id":"679021","latitude":"59.33083330","longitude":"24.81916670","name":"Vaela"},{"id":"679022","latitude":"59.26527780","longitude":"24.13472220","name":"V\u00e4emla"},{"id":"679035","latitude":"59.46305560","longitude":"25.60500000","name":"Vahastu"},{"id":"679041","latitude":"59.37722220","longitude":"24.44500000","name":"Vahik\u00fcla"},{"id":"679042","latitude":"59.37722220","longitude":"24.44500000","name":"Vahi"},{"id":"679058","latitude":"59.27222220","longitude":"25.01083330","name":"Vaidasoo"},{"id":"679059","latitude":"59.29055560","longitude":"24.96583330","name":"Vaida"},{"id":"679067","latitude":"59.28333330","longitude":"23.85000000","name":"V\u00e4ike-Kibru"},{"id":"679087","latitude":"59.18333330","longitude":"24.93333330","name":"V\u00e4ike-S\u00e4rge"},{"id":"679090","latitude":"59.36083330","longitude":"24.94361110","name":"V\u00e4ike Vaskjala"},{"id":"679096","latitude":"59.39638890","longitude":"24.36666670","name":"Vaila"},{"id":"679103","latitude":"59.21305560","longitude":"24.46472220","name":"Vaingu"},{"id":"679122","latitude":"59.46305560","longitude":"25.60500000","name":"Vakhasto"},{"id":"679123","latitude":"59.46305560","longitude":"25.60500000","name":"Vakhastu"},{"id":"679126","latitude":"59.37722220","longitude":"24.44500000","name":"Vakhikyulya"},{"id":"679142","latitude":"59.46305560","longitude":"25.79416670","name":"Valgej\u00f5e"},{"id":"679151","latitude":"59.46305560","longitude":"25.79416670","name":"Valgeyye"},{"id":"679152","latitude":"59.46305560","longitude":"25.79416670","name":"Valgeyygi"},{"id":"679156","latitude":"59.26583330","longitude":"23.96277780","name":"Valgma"},{"id":"679163","latitude":"59.30500000","longitude":"24.48250000","name":"Valingu"},{"id":"679179","latitude":"59.47444440","longitude":"25.31861110","name":"Valkla"},{"id":"679180","latitude":"59.32027780","longitude":"24.34083330","name":"Valkse"},{"id":"679184","latitude":"59.47444440","longitude":"25.31861110","name":"Val'kyul'"},{"id":"679201","latitude":"59.55000000","longitude":"24.53333330","name":"Vana Heinamaa"},{"id":"679206","latitude":"59.34027780","longitude":"24.38555560","name":"Vana-Karjak\u00fcla"},{"id":"679207","latitude":"59.34027780","longitude":"24.38555560","name":"Vana Kar'yakyula"},{"id":"679217","latitude":"59.47944440","longitude":"25.80305560","name":"Vanak\u00fcla"},{"id":"679226","latitude":"59.47944440","longitude":"25.80305560","name":"Vanakyulya"},{"id":"679229","latitude":"59.43888890","longitude":"24.75000000","name":"Vanalinn"},{"id":"679230","latitude":"59.32444440","longitude":"24.53472220","name":"Vanam\u00f5isa Asundus"},{"id":"679232","latitude":"59.31083330","longitude":"24.53916670","name":"Vanam\u00f5isa-M\u00e4ek\u00fcla"},{"id":"679233","latitude":"59.32444440","longitude":"24.53472220","name":"Vanam\u00f5isa"},{"id":"679243","latitude":"59.31083330","longitude":"24.53916670","name":"Vanamyyza-Myaekyula"},{"id":"679244","latitude":"59.32444440","longitude":"24.53472220","name":"Vanamyyza"},{"id":"679255","latitude":"59.41666670","longitude":"24.91666670","name":"Vanapere"},{"id":"679292","latitude":"59.43972220","longitude":"25.08027780","name":"Vandjala"},{"id":"679297","latitude":"59.43972220","longitude":"25.08027780","name":"Vand'yala"},{"id":"679301","latitude":"59.43972220","longitude":"25.08027780","name":"Van'yal"},{"id":"679305","latitude":"59.43333330","longitude":"24.91666670","name":"V\u00e4o"},{"id":"679319","latitude":"59.16388890","longitude":"25.22083330","name":"Vardja"},{"id":"679322","latitude":"59.16388890","longitude":"25.22083330","name":"Vard'ya"},{"id":"679326","latitude":"59.06527780","longitude":"24.31138890","name":"Varese"},{"id":"679331","latitude":"59.06527780","longitude":"24.31138890","name":"Vareze"},{"id":"679345","latitude":"59.45694440","longitude":"24.84027780","name":"Varsaallika"},{"id":"679355","latitude":"59.24416670","longitude":"24.29000000","name":"Vasalemma"},{"id":"679359","latitude":"59.35777780","longitude":"25.21305560","name":"Vase"},{"id":"679361","latitude":"59.36083330","longitude":"24.94361110","name":"Vaskjala"},{"id":"679365","latitude":"59.36083330","longitude":"24.94361110","name":"Vaskyala"},{"id":"679399","latitude":"59.39777780","longitude":"24.51361110","name":"Vatsla"},{"id":"679403","latitude":"59.29055560","longitude":"24.96583330","name":"Vayda"},{"id":"679407","latitude":"59.39638890","longitude":"24.36666670","name":"Vayla"},{"id":"679415","latitude":"59.24416670","longitude":"24.29000000","name":"Vazalemma"},{"id":"679458","latitude":"59.31277780","longitude":"24.85361110","name":"Venek\u00fcla"},{"id":"679463","latitude":"59.31277780","longitude":"24.85361110","name":"Venekyula"},{"id":"679475","latitude":"59.43333330","longitude":"24.91666670","name":"Veo"},{"id":"679492","latitude":"59.45361110","longitude":"25.06527780","name":"Verla"},{"id":"679498","latitude":"59.23500000","longitude":"24.23388890","name":"Veskik\u00fcla"},{"id":"679504","latitude":"59.31916670","longitude":"24.95861110","name":"Veskitaguse"},{"id":"679505","latitude":"59.31916670","longitude":"24.95861110","name":"Veskitaguze"},{"id":"679515","latitude":"59.21972220","longitude":"25.45250000","name":"Vetla"},{"id":"679517","latitude":"59.36083330","longitude":"24.94361110","name":"Veyke-Vaskyala"},{"id":"679530","latitude":"59.55944440","longitude":"25.80250000","name":"Vihasoo"},{"id":"679535","latitude":"59.25166670","longitude":"23.87694440","name":"Vihterpalu"},{"id":"679545","latitude":"59.49666670","longitude":"24.84222220","name":"Viimsi"},{"id":"679547","latitude":"59.64277780","longitude":"25.75611110","name":"Viinisto"},{"id":"679548","latitude":"59.64277780","longitude":"25.75611110","name":"Viinistu"},{"id":"679562","latitude":"59.13222220","longitude":"24.29888890","name":"Viisu"},{"id":"679573","latitude":"59.55944440","longitude":"25.80250000","name":"Vikhaso"},{"id":"679576","latitude":"59.25166670","longitude":"23.87694440","name":"Vikhterpalu"},{"id":"679580","latitude":"59.35194440","longitude":"25.43333330","name":"Vikipalu"},{"id":"679581","latitude":"59.43916670","longitude":"24.39194440","name":"Viki"},{"id":"679583","latitude":"59.19666670","longitude":"25.29444440","name":"Vilama"},{"id":"679591","latitude":"59.23611110","longitude":"23.92777780","name":"Vilivalla"},{"id":"679609","latitude":"59.11694440","longitude":"24.28333330","name":"Vilum\u00e4e"},{"id":"679610","latitude":"59.11694440","longitude":"24.28333330","name":"Vilumyae"},{"id":"679627","latitude":"59.27444440","longitude":"23.85500000","name":"Vintse"},{"id":"679633","latitude":"59.05472220","longitude":"25.26083330","name":"Virla"},{"id":"679639","latitude":"59.09222220","longitude":"24.20250000","name":"Viruk\u00fcla"},{"id":"679640","latitude":"59.09222220","longitude":"24.20250000","name":"Virukyula"},{"id":"679649","latitude":"59.59305560","longitude":"25.60305560","name":"Virve"},{"id":"679654","latitude":"59.21666670","longitude":"25.20361110","name":"Viskla"},{"id":"679655","latitude":"59.44416670","longitude":"24.58888890","name":"Vismeistri"},{"id":"679668","latitude":"59.43916670","longitude":"24.39194440","name":"Viti Asula"},{"id":"679669","latitude":"59.43916670","longitude":"24.39194440","name":"Viti"},{"id":"679680","latitude":"59.64277780","longitude":"25.75611110","name":"Viynistu"},{"id":"679684","latitude":"59.13222220","longitude":"24.29888890","name":"Viysu"},{"id":"679697","latitude":"59.45361110","longitude":"25.06527780","name":"V\u00f5erdla"},{"id":"679731","latitude":"59.18805560","longitude":"24.96833330","name":"V\u00f5ivere"},{"id":"679745","latitude":"59.18555560","longitude":"25.22388890","name":"V\u00f5lle"},{"id":"679765","latitude":"59.25194440","longitude":"24.57944440","name":"Voore Asundus"},{"id":"679770","latitude":"59.25194440","longitude":"24.57944440","name":"Voore"},{"id":"679775","latitude":"59.19777780","longitude":"25.42166670","name":"Voose"},{"id":"679796","latitude":"59.19777780","longitude":"25.42166670","name":"Vose"},{"id":"679804","latitude":"59.33083330","longitude":"24.81916670","name":"Vyaela"},{"id":"679816","latitude":"59.39388890","longitude":"24.40250000","name":"Vyana"},{"id":"679819","latitude":"59.43333330","longitude":"24.91666670","name":"Vyao"},{"id":"679831","latitude":"59.18333330","longitude":"24.93333330","name":"Vyayke-Syarge"},{"id":"679838","latitude":"59.45361110","longitude":"25.06527780","name":"Vyerdla"},{"id":"679855","latitude":"59.18555560","longitude":"25.22388890","name":"Vylle"},{"id":"679872","latitude":"59.18805560","longitude":"24.96833330","name":"Vyyvere"},{"id":"679881","latitude":"59.24416670","longitude":"24.29000000","name":"Wassalem"},{"id":"679894","latitude":"59.43916670","longitude":"24.39194440","name":"Witi"},{"id":"679903","latitude":"59.41722220","longitude":"25.23861110","name":"Yagala"},{"id":"679912","latitude":"59.31916670","longitude":"24.60166670","name":"Yalgimyae"},{"id":"679921","latitude":"59.15194440","longitude":"24.32222220","name":"Yanika"},{"id":"679923","latitude":"59.18333330","longitude":"24.06666670","name":"Yannima"},{"id":"679929","latitude":"59.37083330","longitude":"25.02944440","name":"Yarsi"},{"id":"679937","latitude":"59.37666670","longitude":"24.79277780","name":"Yarvekyulya"},{"id":"679938","latitude":"59.41666670","longitude":"24.63305560","name":"Yarve"},{"id":"679951","latitude":"59.39611110","longitude":"25.47000000","name":"Yermakozu"},{"id":"679964","latitude":"59.29194440","longitude":"24.61111110","name":"Yuksnurme"},{"id":"679967","latitude":"59.38333330","longitude":"24.40000000","name":"Yuleval'tkyula"},{"id":"679968","latitude":"59.34138890","longitude":"25.36972220","name":"Yuleyye"},{"id":"679970","latitude":"59.48666670","longitude":"25.07777780","name":"Yulgase"},{"id":"679971","latitude":"59.62833330","longitude":"25.52027780","name":"Yuminda"},{"id":"679976","latitude":"59.35416670","longitude":"24.89416670","name":"Yuri"},{"id":"679991","latitude":"59.46777780","longitude":"25.16444440","name":"Yyesu"},{"id":"679994","latitude":"59.27833330","longitude":"24.51055560","name":"Yygisu"},{"id":"680000","latitude":"59.42027780","longitude":"24.64111110","name":"Yyysmyae"}]