[{"id":"680067","latitude":"30.15611110","longitude":"31.18722220","name":"Abu al Ghayt"},{"id":"680110","latitude":"30.15611110","longitude":"31.18722220","name":"Abu el-Gheit"},{"id":"680272","latitude":"30.25000000","longitude":"31.35000000","name":"Abu Zaabal"},{"id":"680273","latitude":"30.25000000","longitude":"31.35000000","name":"Abu Za`bal"},{"id":"680286","latitude":"30.69416670","longitude":"31.12305560","name":"Ad Dababishah"},{"id":"680320","latitude":"30.33694440","longitude":"31.27416670","name":"Ad Dayr"},{"id":"680351","latitude":"30.29916670","longitude":"31.14638890","name":"Ag-h\u00fbr el-Kubra"},{"id":"680353","latitude":"30.26833330","longitude":"31.13833330","name":"Ag-hur el-Sughra"},{"id":"680361","latitude":"30.29916670","longitude":"31.14638890","name":"Ajhur al Kubra"},{"id":"680363","latitude":"30.26833330","longitude":"31.13833330","name":"Ajhur as -ughra"},{"id":"680369","latitude":"30.36194440","longitude":"31.15055560","name":"Al `Abadlah"},{"id":"680397","latitude":"30.34083330","longitude":"31.30777780","name":"Al Ahraz"},{"id":"680405","latitude":"30.16888890","longitude":"31.16805560","name":"Al Akhmiyin"},{"id":"680420","latitude":"30.34138890","longitude":"31.12527780","name":"Al `Amar al Kubra"},{"id":"680480","latitude":"30.29416670","longitude":"31.19750000","name":"Al 'assaniyah"},{"id":"680496","latitude":"30.23666670","longitude":"31.30222220","name":"Al `Attarah"},{"id":"680575","latitude":"30.23333330","longitude":"31.15027780","name":"Al Baradi`ah"},{"id":"680672","latitude":"30.47000000","longitude":"31.21833330","name":"Al Faruqiyah"},{"id":"680808","latitude":"30.30972220","longitude":"31.27583330","name":"Al Hasafah"},{"id":"680819","latitude":"30.35000000","longitude":"31.30000000","name":"Al Hassaniyah"},{"id":"680868","latitude":"30.21666670","longitude":"31.28333330","name":"Al Hizaniyah"},{"id":"680929","latitude":"30.38277780","longitude":"31.21083330","name":"Al 'issah"},{"id":"680945","latitude":"30.20750000","longitude":"31.28027780","name":"Al Ja`afirah"},{"id":"681037","latitude":"30.28333330","longitude":"31.26916670","name":"Al Kawm al Ahmar"},{"id":"681060","latitude":"30.21805560","longitude":"31.35888890","name":"Al Khankah"},{"id":"681062","latitude":"30.17527780","longitude":"31.17166670","name":"Al Kharaqaniyah"},{"id":"681079","latitude":"30.23333330","longitude":"31.30000000","name":"Al Khazzan"},{"id":"681093","latitude":"30.15972220","longitude":"31.31416670","name":"Al Khusus"},{"id":"681124","latitude":"30.20444440","longitude":"31.18888890","name":"'allabah"},{"id":"681182","latitude":"30.23250000","longitude":"31.31916670","name":"Al Manayil"},{"id":"681183","latitude":"30.18333330","longitude":"31.31666670","name":"Al Manayyah"},{"id":"681215","latitude":"30.33972220","longitude":"31.24694440","name":"Al Manzalah"},{"id":"681313","latitude":"30.24472220","longitude":"31.12138890","name":"Al Munirah"},{"id":"681320","latitude":"30.28694440","longitude":"31.31777780","name":"Al Murayj"},{"id":"681338","latitude":"30.17944440","longitude":"31.35305560","name":"Al Qalaj"},{"id":"681347","latitude":"30.19805560","longitude":"31.13416670","name":"Al Qanatir al Khayriyah"},{"id":"681374","latitude":"30.23472220","longitude":"31.28888890","name":"Al Qashshish"},{"id":"681412","latitude":"30.36472220","longitude":"31.31166670","name":"Al Qulzum"},{"id":"681500","latitude":"30.20000000","longitude":"31.20000000","name":"Ama"},{"id":"681508","latitude":"30.21944440","longitude":"31.16805560","name":"-anafir"},{"id":"681587","latitude":"30.28333330","longitude":"31.35000000","name":"`Arab al `Aliqat al Bahriyah"},{"id":"681588","latitude":"30.28333330","longitude":"31.35000000","name":"`Arab al `Aliqat"},{"id":"681605","latitude":"30.40000000","longitude":"31.30000000","name":"`Arab al Muqabilah"},{"id":"681616","latitude":"30.30000000","longitude":"31.35000000","name":"`Arab as Sawalihah"},{"id":"681620","latitude":"30.30000000","longitude":"31.36666670","name":"`Arab at Turbah"},{"id":"681625","latitude":"30.28333330","longitude":"31.35000000","name":"`Arab el- `Al\u00eeq\u00e2t"},{"id":"681626","latitude":"30.28333330","longitude":"31.35000000","name":"`Arab el `Aliqat el Bahariya"},{"id":"681637","latitude":"30.35000000","longitude":"31.30000000","name":"`Arab el-Haw\u00e2n"},{"id":"681643","latitude":"30.35000000","longitude":"31.26666670","name":"`Arab el-Khilwa"},{"id":"681645","latitude":"30.40000000","longitude":"31.30000000","name":"`Arab el-Muq\u00e2bla"},{"id":"681652","latitude":"30.30000000","longitude":"31.35000000","name":"`Arab el Sawalha"},{"id":"681658","latitude":"30.30000000","longitude":"31.36666670","name":"`Arab el Tirba"},{"id":"681659","latitude":"30.30000000","longitude":"31.36666670","name":"`Arab el-Turba"},{"id":"681662","latitude":"30.30000000","longitude":"31.35000000","name":"`Arab Giheina Wa el-Sawalih"},{"id":"681665","latitude":"30.30000000","longitude":"31.35000000","name":"`Arab Juhaynah wa as Sawalih"},{"id":"681711","latitude":"30.44027780","longitude":"31.15527780","name":"Ar Ramlah"},{"id":"681760","latitude":"30.23027780","longitude":"31.19055560","name":"As -abbah wa Kafr ash Shahid"},{"id":"681762","latitude":"30.30694440","longitude":"31.11333330","name":"As -alihiyah"},{"id":"681817","latitude":"30.30000000","longitude":"31.33333330","name":"Ash Shawbak"},{"id":"681857","latitude":"30.42972220","longitude":"31.20666670","name":"Ash Shimut"},{"id":"681873","latitude":"30.51083330","longitude":"31.27833330","name":"Ash Shuqr"},{"id":"681902","latitude":"30.26638890","longitude":"31.24666670","name":"As Sadd"},{"id":"681906","latitude":"30.38055560","longitude":"31.14583330","name":"As Safa"},{"id":"681945","latitude":"30.19805560","longitude":"31.28555560","name":"As Salmaniyah"},{"id":"681986","latitude":"30.37888890","longitude":"31.18972220","name":"As Sifaniyah"},{"id":"681998","latitude":"30.31305560","longitude":"31.11472220","name":"As Siyafa"},{"id":"682041","latitude":"30.46083330","longitude":"31.18750000","name":"Athribis"},{"id":"682297","latitude":"30.22222220","longitude":"31.14166670","name":"Bah\u00e2da"},{"id":"682298","latitude":"30.22222220","longitude":"31.14166670","name":"Bahadah"},{"id":"682324","latitude":"30.13972220","longitude":"31.27805560","name":"Bahtim"},{"id":"682335","latitude":"30.17805560","longitude":"31.28083330","name":"Balaqs"},{"id":"682355","latitude":"30.46083330","longitude":"31.18750000","name":"Bandar Banha"},{"id":"682360","latitude":"30.46083330","longitude":"31.18750000","name":"Banha"},{"id":"682508","latitude":"30.48333330","longitude":"31.26666670","name":"Barqata"},{"id":"682511","latitude":"30.19805560","longitude":"31.13416670","name":"Barrage"},{"id":"682518","latitude":"30.32361110","longitude":"31.10777780","name":"Barshum al Kubra"},{"id":"682519","latitude":"30.31944440","longitude":"31.11027780","name":"Barshum as -ughra"},{"id":"682520","latitude":"30.32361110","longitude":"31.10777780","name":"Barsh\u00fbm el-Kubra"},{"id":"682521","latitude":"30.31944440","longitude":"31.11027780","name":"Barsh\u00fbm el-Sughra"},{"id":"682538","latitude":"30.14083330","longitude":"31.20972220","name":"Basus"},{"id":"682541","latitude":"30.42861110","longitude":"31.29305560","name":"Batamda"},{"id":"682542","latitude":"30.42861110","longitude":"31.29305560","name":"Batamdah"},{"id":"682573","latitude":"30.46083330","longitude":"31.18750000","name":"Benha"},{"id":"682695","latitude":"30.46083330","longitude":"31.18750000","name":"Benna"},{"id":"682707","latitude":"30.13694440","longitude":"31.24416670","name":"Big\u00e2m"},{"id":"682716","latitude":"30.13694440","longitude":"31.24416670","name":"Bijam"},{"id":"682742","latitude":"30.38083330","longitude":"31.16000000","name":"Biltan"},{"id":"682935","latitude":"30.11916670","longitude":"31.23250000","name":"Damanh\u00fbr"},{"id":"682938","latitude":"30.11916670","longitude":"31.23250000","name":"Damanhur Shubra"},{"id":"682956","latitude":"30.26583330","longitude":"31.17361110","name":"Dandana"},{"id":"683116","latitude":"30.19805560","longitude":"31.13416670","name":"Delta-Barrage"},{"id":"683117","latitude":"30.20416670","longitude":"31.19083330","name":"Delta Barrage"},{"id":"683118","latitude":"30.19805560","longitude":"31.13416670","name":"Delta Barrage Station"},{"id":"683151","latitude":"30.38333330","longitude":"31.11416670","name":"Digwa"},{"id":"683153","latitude":"30.38333330","longitude":"31.11416670","name":"Dijwi"},{"id":"683270","latitude":"30.36194440","longitude":"31.15055560","name":"El-`Ab\u00e2dla"},{"id":"683300","latitude":"30.34083330","longitude":"31.30777780","name":"El-Ahraz"},{"id":"683308","latitude":"30.16888890","longitude":"31.16805560","name":"El-Akhm\u00eeyin"},{"id":"683322","latitude":"30.34111110","longitude":"31.12777780","name":"El-`Am\u00e2r el-Kubra"},{"id":"683323","latitude":"30.34138890","longitude":"31.12527780","name":"El `Am\u00e2r el Kubra"},{"id":"683394","latitude":"30.23666670","longitude":"31.30222220","name":"El-`Attara"},{"id":"683470","latitude":"30.23333330","longitude":"31.15027780","name":"El-Bar\u00e2d`a"},{"id":"683544","latitude":"30.69416670","longitude":"31.12305560","name":"El-Dab\u00e2bsha"},{"id":"683580","latitude":"30.33694440","longitude":"31.27416670","name":"El-Deir"},{"id":"683623","latitude":"30.47000000","longitude":"31.21833330","name":"El-Farouk\u00eeya"},{"id":"683646","latitude":"30.20750000","longitude":"31.28027780","name":"El-Ga`\u00e2fra"},{"id":"683811","latitude":"30.29416670","longitude":"31.19750000","name":"El-Hassaniya"},{"id":"683812","latitude":"30.35000000","longitude":"31.30000000","name":"El-Hass\u00e2niyah"},{"id":"683830","latitude":"30.21666670","longitude":"31.28333330","name":"El-Hazaniya"},{"id":"683860","latitude":"30.30972220","longitude":"31.27583330","name":"El-Hisafa"},{"id":"683867","latitude":"30.38277780","longitude":"31.21083330","name":"El-Hissa"},{"id":"683935","latitude":"30.17944440","longitude":"31.35305560","name":"El-Kalag"},{"id":"683965","latitude":"30.21805560","longitude":"31.35888890","name":"El-Kh\u00e2nka"},{"id":"683966","latitude":"30.21805560","longitude":"31.35888890","name":"El-Kh\u00e2nk\u00e2h"},{"id":"683968","latitude":"30.17527780","longitude":"31.17166670","name":"El-Kharaq\u00e2n\u00eeya"},{"id":"683982","latitude":"30.23333330","longitude":"31.30000000","name":"El-Khazz\u00e2n"},{"id":"684000","latitude":"30.15972220","longitude":"31.31416670","name":"El-Khusus"},{"id":"684018","latitude":"30.28333330","longitude":"31.26916670","name":"El-Kom el-Ahmar"},{"id":"684102","latitude":"30.18333330","longitude":"31.31666670","name":"El-Mana\u00eeya"},{"id":"684109","latitude":"30.23250000","longitude":"31.31916670","name":"El-Man\u00e2yil"},{"id":"684138","latitude":"30.33972220","longitude":"31.24694440","name":"El-Manzala"},{"id":"684235","latitude":"30.24472220","longitude":"31.12138890","name":"El-Mun\u00eera"},{"id":"684237","latitude":"30.28694440","longitude":"31.31777780","name":"El-Mureig"},{"id":"684308","latitude":"30.17944440","longitude":"31.35305560","name":"El-Qalag"},{"id":"684315","latitude":"30.19805560","longitude":"31.13416670","name":"El-Qanatir el-Khairiya"},{"id":"684338","latitude":"30.23472220","longitude":"31.28888890","name":"El-Qash-sh\u00eesh"},{"id":"684379","latitude":"30.36472220","longitude":"31.31166670","name":"El-Qulzum"},{"id":"684421","latitude":"30.44027780","longitude":"31.15527780","name":"El Ramla"},{"id":"684460","latitude":"30.22416670","longitude":"31.40555560","name":"El-Sa`\u00e2ida"},{"id":"684468","latitude":"30.23027780","longitude":"31.19055560","name":"El-Sabb\u00e2h wa Kafr el-Shah\u00eed"},{"id":"684476","latitude":"30.37888890","longitude":"31.18972220","name":"El-Safayna"},{"id":"684506","latitude":"30.30694440","longitude":"31.11333330","name":"El-Salhiya"},{"id":"684513","latitude":"30.19805560","longitude":"31.28555560","name":"El-Salm\u00e2n\u00eeya"},{"id":"684622","latitude":"30.42972220","longitude":"31.20666670","name":"El-Shim\u00fbt"},{"id":"684628","latitude":"30.30000000","longitude":"31.33333330","name":"El-Sh\u00f4bak"},{"id":"684638","latitude":"30.51083330","longitude":"31.27833330","name":"El-Shuqr"},{"id":"684645","latitude":"30.26638890","longitude":"31.24666670","name":"El-Sidd"},{"id":"685068","latitude":"30.17916670","longitude":"31.39222220","name":"`Ezbet B\u00fbgti"},{"id":"685131","latitude":"30.21666670","longitude":"31.38333330","name":"`Ezbet el-Dank"},{"id":"685293","latitude":"30.21666670","longitude":"31.16666670","name":"`Ezbet el-Sanablad see Nazlat Hawawi"},{"id":"685299","latitude":"30.18333330","longitude":"31.26666670","name":"`Ezbet el-Shar\u00e2qwa"},{"id":"685393","latitude":"30.25500000","longitude":"31.37388890","name":"`Ezbet Hasan"},{"id":"685649","latitude":"30.20416670","longitude":"31.19083330","name":"`Ezbet Shalaq\u00e2n"},{"id":"685719","latitude":"30.32166670","longitude":"31.15361110","name":"`Ezbet Zeinab"},{"id":"685761","latitude":"30.40194440","longitude":"31.20250000","name":"Farsis"},{"id":"685831","latitude":"30.50250000","longitude":"31.21611110","name":"Gamara"},{"id":"685834","latitude":"30.50083330","longitude":"31.23222220","name":"Gamgara el-Ged\u00eeda"},{"id":"685835","latitude":"30.50250000","longitude":"31.21611110","name":"Gamgara"},{"id":"685868","latitude":"30.41805560","longitude":"31.29361110","name":"Gez\u00eeret Billi"},{"id":"685870","latitude":"30.35472220","longitude":"31.10444440","name":"Geziret el-A`g\u00e2m"},{"id":"685882","latitude":"30.26555560","longitude":"31.26000000","name":"Gez\u00eeret el-Nagdi"},{"id":"685965","latitude":"30.20444440","longitude":"31.18888890","name":"Hallaba"},{"id":"686156","latitude":"30.36333330","longitude":"31.10138890","name":"Ikyad Dijwi"},{"id":"686166","latitude":"30.36361110","longitude":"31.13722220","name":"Imy\u00e2i"},{"id":"686167","latitude":"30.36361110","longitude":"31.13722220","name":"Imyay"},{"id":"686209","latitude":"30.53194440","longitude":"31.25166670","name":"Isnit"},{"id":"686411","latitude":"30.15444440","longitude":"31.21777780","name":"`Izbat Abu Sinnah"},{"id":"687050","latitude":"30.28527780","longitude":"31.12888890","name":"`Izbat Ash Shaykh As Saghir"},{"id":"687079","latitude":"30.17555560","longitude":"31.23861110","name":"`Izbat as Sa`adnah"},{"id":"687109","latitude":"30.21666670","longitude":"31.16666670","name":"`Izbat as Sanabilah"},{"id":"687510","latitude":"30.41611110","longitude":"31.23472220","name":"`Izbat `llaysh"},{"id":"687603","latitude":"30.42694440","longitude":"31.24361110","name":"`Izbat Muhammad Bashat"},{"id":"687610","latitude":"30.35944440","longitude":"31.18277780","name":"`Izbat Muhammad"},{"id":"687779","latitude":"30.20416670","longitude":"31.19083330","name":"`Izbat Shalqan"},{"id":"687909","latitude":"30.38972220","longitude":"31.14527780","name":"`Izbat Zawyat Biltan"},{"id":"687933","latitude":"30.50083330","longitude":"31.23222220","name":"Jamjarah al Jadidah"},{"id":"687934","latitude":"30.49861110","longitude":"31.22861110","name":"Jamjarah"},{"id":"687953","latitude":"30.35472220","longitude":"31.10444440","name":"Jazirat al Ahrar"},{"id":"687964","latitude":"30.26555560","longitude":"31.26000000","name":"Jazirat an Najdi"},{"id":"687970","latitude":"30.41805560","longitude":"31.29361110","name":"Jazirat Billi"},{"id":"688045","latitude":"30.34138890","longitude":"31.17138890","name":"Kafr `Abid"},{"id":"688096","latitude":"30.20666670","longitude":"31.21722220","name":"Kafr Abu Gum`a"},{"id":"688097","latitude":"30.20666670","longitude":"31.21722220","name":"Kafr Ab\u00fb Guni`a"},{"id":"688109","latitude":"30.20666670","longitude":"31.21722220","name":"Kafr Abu Jum`ah"},{"id":"688171","latitude":"30.45000000","longitude":"31.25000000","name":"Kafr Abu Zahrah"},{"id":"688172","latitude":"30.45000000","longitude":"31.25000000","name":"Kafr Abu Zahra"},{"id":"688195","latitude":"30.31666670","longitude":"31.28333330","name":"Kafr ad Dayr"},{"id":"688231","latitude":"30.34111110","longitude":"31.12777780","name":"Kafr al `Amar"},{"id":"688240","latitude":"30.40777780","longitude":"31.22527780","name":"Kafr al `Arab"},{"id":"688245","latitude":"30.49083330","longitude":"31.23138890","name":"Kafr al Arba`in"},{"id":"688286","latitude":"30.31805560","longitude":"31.12750000","name":"Kafr al Fuqaha'"},{"id":"688298","latitude":"30.36388890","longitude":"31.20833330","name":"Kafr al Haddadin"},{"id":"688318","latitude":"30.31666670","longitude":"31.25000000","name":"Kafr al Hasafah"},{"id":"688327","latitude":"30.29305560","longitude":"31.10611110","name":"Kafr al Hiwalah"},{"id":"688352","latitude":"30.39972220","longitude":"31.18972220","name":"Kafr al 'issah"},{"id":"688360","latitude":"30.32972220","longitude":"31.19166670","name":"Kafr al Jammal"},{"id":"688381","latitude":"30.37472220","longitude":"31.01750000","name":"Kafr al Khadrah"},{"id":"688465","latitude":"30.51666670","longitude":"31.23333330","name":"Kafr `\u00c2mir"},{"id":"688476","latitude":"30.33138890","longitude":"31.14027780","name":"Kafr an Nakhlah"},{"id":"688495","latitude":"30.33916670","longitude":"31.09472220","name":"Kafr ar Rijalat"},{"id":"688498","latitude":"30.33555560","longitude":"31.21166670","name":"Kafr 'asan Sa`d"},{"id":"688508","latitude":"30.53750000","longitude":"31.26666670","name":"Kafr ash Shahawi Khatir"},{"id":"688521","latitude":"30.29138890","longitude":"31.31944440","name":"Kafr ash Shawbak"},{"id":"688526","latitude":"30.38333330","longitude":"31.30000000","name":"Kafr ash Shaykhah Salimah"},{"id":"688530","latitude":"30.51666670","longitude":"31.23333330","name":"Kafr ash Shaykh `Amir"},{"id":"688541","latitude":"30.43333330","longitude":"31.26666670","name":"Kafr ash Shaykh Ibrahim"},{"id":"688557","latitude":"30.43361110","longitude":"31.22472220","name":"Kafr ash Shimut"},{"id":"688564","latitude":"30.22472220","longitude":"31.12555560","name":"Kafr ash Shurafa' al Gharbi"},{"id":"688565","latitude":"30.36666670","longitude":"31.33333330","name":"Kafr ash Shurafa' al Qibli"},{"id":"688569","latitude":"30.38777780","longitude":"31.11500000","name":"Kafr ash Shurafa'"},{"id":"688585","latitude":"30.21777780","longitude":"31.18916670","name":"Kafr as Sabil"},{"id":"688616","latitude":"30.37361110","longitude":"31.33333330","name":"Kafr as Suhbi"},{"id":"688621","latitude":"30.44333330","longitude":"31.27055560","name":"Kafr `Ata' Allah"},{"id":"688629","latitude":"30.44333330","longitude":"31.27055560","name":"Kafr `Atalla"},{"id":"688651","latitude":"30.21638890","longitude":"31.23333330","name":"Kafr at Turjuman"},{"id":"688692","latitude":"30.51666670","longitude":"31.25000000","name":"Kafr `Azab Ghunaym"},{"id":"688693","latitude":"30.51666670","longitude":"31.25000000","name":"Kafr `Azab Ghuneim"},{"id":"688726","latitude":"30.31666670","longitude":"31.11666670","name":"Kafr Barshum al Kubra"},{"id":"688727","latitude":"30.31666670","longitude":"31.11666670","name":"Kafr Barsh\u00fbm el-Kubra"},{"id":"688806","latitude":"30.34111110","longitude":"31.12777780","name":"Kafr el- `Am\u00e2r"},{"id":"688816","latitude":"30.40777780","longitude":"31.22527780","name":"Kafr el-`Arab"},{"id":"688821","latitude":"30.49083330","longitude":"31.23138890","name":"Kafr el-Arbi`\u00een"},{"id":"688875","latitude":"30.31666670","longitude":"31.28333330","name":"Kafr el-Deir"},{"id":"688885","latitude":"30.31805560","longitude":"31.12750000","name":"Kafr el-Fuqah\u00e2'"},{"id":"688893","latitude":"30.32972220","longitude":"31.19166670","name":"Kafr el-Gamm\u00e2l"},{"id":"688914","latitude":"30.32972220","longitude":"31.19166670","name":"Kafr el-Gim\u00e2l"},{"id":"688919","latitude":"30.36388890","longitude":"31.20833330","name":"Kafr el-Haddadin"},{"id":"688950","latitude":"30.31666670","longitude":"31.25000000","name":"Kafr el-Hisafa"},{"id":"688952","latitude":"30.39972220","longitude":"31.18972220","name":"Kafr el-Hissa"},{"id":"688953","latitude":"30.29305560","longitude":"31.10611110","name":"Kafr el-Hiwala"},{"id":"689026","latitude":"30.33138890","longitude":"31.14027780","name":"Kafr el-Nakhla"},{"id":"689057","latitude":"30.33916670","longitude":"31.09472220","name":"Kafr el-Rigal\u00e2t"},{"id":"689096","latitude":"30.53750000","longitude":"31.26666670","name":"Kafr el-Shahawi Khatir"},{"id":"689115","latitude":"30.51666670","longitude":"31.23333330","name":"Kafr el-Sheikh `\u00c2mir"},{"id":"689116","latitude":"30.38333330","longitude":"31.30000000","name":"Kafr el-Sheikha S\u00e2lma"},{"id":"689125","latitude":"30.43333330","longitude":"31.26666670","name":"Kafr el-Sheikh Ibr\u00e2h\u00eem"},{"id":"689142","latitude":"30.43361110","longitude":"31.22472220","name":"Kafr el-Shim\u00fbt"},{"id":"689145","latitude":"30.29138890","longitude":"31.31944440","name":"Kafr el-Sh\u00f4bak"},{"id":"689146","latitude":"30.22472220","longitude":"31.12555560","name":"Kafr el Shorafa el Gharbi"},{"id":"689150","latitude":"30.22472220","longitude":"31.12555560","name":"Kafr el-Shurafa el-Gharbi"},{"id":"689151","latitude":"30.36666670","longitude":"31.33333330","name":"Kafr el-Shurafa el-Qibli"},{"id":"689155","latitude":"30.38777780","longitude":"31.11500000","name":"Kafr el-Shurafa"},{"id":"689157","latitude":"30.22472220","longitude":"31.12555560","name":"Kafr el Shurah"},{"id":"689159","latitude":"30.21777780","longitude":"31.18916670","name":"Kafr el-Sib\u00eel"},{"id":"689164","latitude":"30.37361110","longitude":"31.33333330","name":"Kafr el-Suhbi"},{"id":"689176","latitude":"30.21638890","longitude":"31.23333330","name":"Kafr el-Turgum\u00e2n"},{"id":"689180","latitude":"30.53888890","longitude":"31.27888890","name":"Kafr el-Wagaga"},{"id":"689182","latitude":"30.53888890","longitude":"31.27888890","name":"Kafr el-Walaga"},{"id":"689206","latitude":"30.22472220","longitude":"31.12555560","name":"Kafr esh Shurafa el Gharbi"},{"id":"689238","latitude":"30.41500000","longitude":"31.21472220","name":"Kafr Farsis"},{"id":"689330","latitude":"30.25000000","longitude":"31.35000000","name":"Kafr `Ibiy\u00e2n"},{"id":"689346","latitude":"30.25000000","longitude":"31.35000000","name":"Kafr `Ibyan"},{"id":"689351","latitude":"30.25666670","longitude":"31.12527780","name":"Kafr `Ileim"},{"id":"689353","latitude":"30.36583330","longitude":"31.20138890","name":"Kafr `Ilwan"},{"id":"689385","latitude":"30.50666670","longitude":"31.24777780","name":"Kafr Kurdi"},{"id":"689406","latitude":"30.45000000","longitude":"31.18333330","name":"Kafr Manaqir"},{"id":"689412","latitude":"30.33888890","longitude":"31.16361110","name":"Kafr Mansur"},{"id":"689480","latitude":"30.47888890","longitude":"31.23194440","name":"Kafr Muways"},{"id":"689481","latitude":"30.47888890","longitude":"31.23194440","name":"Kafr Muweis"},{"id":"689526","latitude":"30.27027780","longitude":"31.04972220","name":"Kafr Quras"},{"id":"689530","latitude":"30.51666670","longitude":"31.23333330","name":"Kafr Radwan"},{"id":"689533","latitude":"30.21555560","longitude":"31.23138890","name":"Kafr Ramadah"},{"id":"689534","latitude":"30.21555560","longitude":"31.23138890","name":"Kafr Ram\u00e2da"},{"id":"689537","latitude":"30.51666670","longitude":"31.23333330","name":"Kafr Ridwan"},{"id":"689540","latitude":"30.36666670","longitude":"31.33333330","name":"Kafr Sa`d Biheiri"},{"id":"689541","latitude":"30.36666670","longitude":"31.33333330","name":"Kafr Sa`d Buhayri"},{"id":"689543","latitude":"30.49111110","longitude":"31.20000000","name":"Kafr Sa`d"},{"id":"689565","latitude":"30.18250000","longitude":"31.16722220","name":"Kafr Salim"},{"id":"689571","latitude":"30.41083330","longitude":"31.17111110","name":"Kafr Sandanhur"},{"id":"689594","latitude":"30.53333330","longitude":"31.23333330","name":"Kafr Sharaf ad Din"},{"id":"689595","latitude":"30.53333330","longitude":"31.23333330","name":"Kafr Sharaf el-D\u00een"},{"id":"689602","latitude":"30.29611110","longitude":"31.30444440","name":"Kafr Shibin"},{"id":"689621","latitude":"30.38333330","longitude":"31.26666670","name":"Kafr Shuman"},{"id":"689629","latitude":"30.18250000","longitude":"31.16722220","name":"Kafr Sil\u00eem"},{"id":"689633","latitude":"30.26666670","longitude":"31.31666670","name":"Kafr Sindiwah"},{"id":"689634","latitude":"30.26666670","longitude":"31.31666670","name":"Kafr Sindiwa"},{"id":"689646","latitude":"30.33333330","longitude":"31.33333330","name":"Kafr Sulayman al Wirr"},{"id":"689656","latitude":"30.33333330","longitude":"31.33333330","name":"Kafr Sul\u00eem\u00e2n el-Win"},{"id":"689657","latitude":"30.33333330","longitude":"31.33333330","name":"Kafr Sul\u00eem\u00e2n el-Wirr"},{"id":"689669","latitude":"30.26972220","longitude":"31.30138890","name":"Kafr Taha"},{"id":"689670","latitude":"30.26972220","longitude":"31.30138890","name":"Kafr Taha'"},{"id":"689672","latitude":"30.39805560","longitude":"31.13083330","name":"Kafr Tahlah"},{"id":"689704","latitude":"30.39805560","longitude":"31.13083330","name":"Kafr (tm)ahla"},{"id":"689707","latitude":"30.36666670","longitude":"31.31666670","name":"Kafr Tuhuriyah"},{"id":"689708","latitude":"30.36666670","longitude":"31.31666670","name":"Kafr Tuhuriya"},{"id":"689714","latitude":"30.25666670","longitude":"31.12527780","name":"Kafr `Ulaym"},{"id":"689767","latitude":"30.18305560","longitude":"31.20527780","name":"Kaly\u00fbb"},{"id":"689803","latitude":"30.34750000","longitude":"31.15555560","name":"Kawm al Atrun"},{"id":"689832","latitude":"30.21555560","longitude":"31.28444440","name":"Kawm as Samn"},{"id":"689857","latitude":"30.18000000","longitude":"31.25694440","name":"Kawm Ishfin"},{"id":"689887","latitude":"30.32777780","longitude":"31.17027780","name":"Khalwat `Abd an Nabi"},{"id":"689889","latitude":"30.23333330","longitude":"31.16666670","name":"Khalwat al Baradi`ah"},{"id":"689891","latitude":"30.33333330","longitude":"31.31666670","name":"Khalwat ash Shaykh `Uthman"},{"id":"689898","latitude":"30.21805560","longitude":"31.35888890","name":"Khanka"},{"id":"689918","latitude":"30.27333330","longitude":"31.23388890","name":"Khilwat Sinhirah"},{"id":"689919","latitude":"30.32777780","longitude":"31.17027780","name":"Khilwet Abd el Nabi"},{"id":"689921","latitude":"30.23333330","longitude":"31.16666670","name":"Khilwet el Bar\u00e2d`a"},{"id":"689923","latitude":"30.33333330","longitude":"31.31666670","name":"Khilwet el-Sheikh `Osm\u00e2n"},{"id":"689928","latitude":"30.27333330","longitude":"31.23388890","name":"Khilwet Sinhira"},{"id":"689971","latitude":"30.34750000","longitude":"31.15555560","name":"Kom el-Atrun"},{"id":"689993","latitude":"30.21555560","longitude":"31.28444440","name":"K\u00f4m el-Samn"},{"id":"689995","latitude":"30.21555560","longitude":"31.28444440","name":"K\u00f4m el-Shamn"},{"id":"690008","latitude":"30.18000000","longitude":"31.25694440","name":"K\u00f4m Ishf\u00een"},{"id":"690286","latitude":"30.34027780","longitude":"31.13750000","name":"Manshiyat al `Amar"},{"id":"690332","latitude":"30.34027780","longitude":"31.13750000","name":"Manshiyet el-Amar"},{"id":"690354","latitude":"30.32694440","longitude":"31.24416670","name":"Mansurat Namul"},{"id":"690355","latitude":"30.32694440","longitude":"31.24416670","name":"Mansuret Namul"},{"id":"690358","latitude":"30.14472220","longitude":"31.24222220","name":"Manti"},{"id":"690388","latitude":"30.40861110","longitude":"31.24611110","name":"Marsafa and Kafr Ahmad Hashish"},{"id":"690389","latitude":"30.40861110","longitude":"31.24611110","name":"Marsafa and Kafr Ahmed Hashish"},{"id":"690390","latitude":"30.40861110","longitude":"31.24611110","name":"Marsafa"},{"id":"690391","latitude":"30.40861110","longitude":"31.24611110","name":"Marsafa wa Kafr Ahmad 'ashish"},{"id":"690392","latitude":"30.40861110","longitude":"31.24611110","name":"Marsafa wa Kafr Ahmad Hashish"},{"id":"690425","latitude":"30.33333330","longitude":"31.35000000","name":"Mashtul"},{"id":"690457","latitude":"30.20000000","longitude":"31.38333330","name":"Mazra `et el-Gebel el-Asfar"},{"id":"690578","latitude":"30.18333330","longitude":"31.20000000","name":"Minshat az Zahwi"},{"id":"690593","latitude":"30.41666670","longitude":"31.28333330","name":"Minshat Dhi'ab"},{"id":"690595","latitude":"30.41666670","longitude":"31.28333330","name":"Minsh\u00e2t Diyab"},{"id":"690616","latitude":"30.18333330","longitude":"31.20000000","name":"Minsh\u00e2t el-Zahawi"},{"id":"690617","latitude":"30.18333330","longitude":"31.20000000","name":"Minsh\u00e2t el-Zahwi"},{"id":"690681","latitude":"30.31111110","longitude":"31.20472220","name":"Minshat Shubra Haris"},{"id":"690695","latitude":"30.15000000","longitude":"31.23333330","name":"Mintai"},{"id":"690696","latitude":"30.15000000","longitude":"31.23333330","name":"Mintay"},{"id":"690712","latitude":"30.45277780","longitude":"31.22750000","name":"Minyat as Siba`"},{"id":"690731","latitude":"30.32361110","longitude":"31.34305560","name":"Minyat Shibin"},{"id":"690750","latitude":"30.45277780","longitude":"31.22750000","name":"Minyet el-Sib\u00e2`"},{"id":"690764","latitude":"30.32361110","longitude":"31.34305560","name":"Minyet Shib\u00een"},{"id":"690803","latitude":"30.44027780","longitude":"31.13750000","name":"Mit al `Attar"},{"id":"690806","latitude":"30.16000000","longitude":"31.23527780","name":"Mit 'alfah"},{"id":"690841","latitude":"30.42472220","longitude":"31.17555560","name":"Mit `Asim"},{"id":"690871","latitude":"30.44027780","longitude":"31.13750000","name":"Mit el-`Attar"},{"id":"690934","latitude":"30.16000000","longitude":"31.23527780","name":"Mit Halfa"},{"id":"690961","latitude":"30.38694440","longitude":"31.26111110","name":"Mit Kinanah"},{"id":"690962","latitude":"30.38694440","longitude":"31.26111110","name":"M\u00eet Kin\u00e2na"},{"id":"690985","latitude":"30.14611110","longitude":"31.23111110","name":"Mit Nama"},{"id":"690994","latitude":"30.49638890","longitude":"31.20888890","name":"Mit Radi"},{"id":"691044","latitude":"30.35194440","longitude":"31.22611110","name":"Moshtohor"},{"id":"691050","latitude":"30.39194440","longitude":"31.17250000","name":"Mug\u00fbl"},{"id":"691055","latitude":"30.20416670","longitude":"31.19083330","name":"Muhammed `Ali Barrage"},{"id":"691061","latitude":"30.39194440","longitude":"31.17250000","name":"Mujul"},{"id":"691081","latitude":"30.35194440","longitude":"31.22611110","name":"Mushtahir"},{"id":"691082","latitude":"30.35194440","longitude":"31.22611110","name":"Mushtohor"},{"id":"691083","latitude":"30.35194440","longitude":"31.22611110","name":"Mushtuhur"},{"id":"691090","latitude":"30.14833330","longitude":"31.29861110","name":"Musturud"},{"id":"691398","latitude":"30.20000000","longitude":"31.25000000","name":"N\u00e2i"},{"id":"691615","latitude":"30.40000000","longitude":"31.30000000","name":"Naj` Ghanim Abu Ra's"},{"id":"691705","latitude":"30.30750000","longitude":"31.23611110","name":"Namul"},{"id":"691725","latitude":"30.22777780","longitude":"31.26444440","name":"Naw\u00e1"},{"id":"691732","latitude":"30.20000000","longitude":"31.25000000","name":"Nay"},{"id":"691818","latitude":"30.30000000","longitude":"31.36666670","name":"Nazlat `Arab Juhaynah"},{"id":"691821","latitude":"30.38333330","longitude":"31.28333330","name":"Nazlat ar Rawashidah"},{"id":"691824","latitude":"30.18333330","longitude":"31.28333330","name":"Nazlat ash Sharaqiwah"},{"id":"691836","latitude":"30.41666670","longitude":"31.30000000","name":"Nazlat as Siba`at"},{"id":"691842","latitude":"30.41666670","longitude":"31.30000000","name":"Nazlat `Awdah Hammud"},{"id":"691860","latitude":"30.40000000","longitude":"31.30000000","name":"Nazlat Busaylan"},{"id":"691878","latitude":"30.21666670","longitude":"31.16666670","name":"Nazlat Hawawi"},{"id":"691890","latitude":"30.25333330","longitude":"31.12166670","name":"Nazlat Kafr `Ulaym"},{"id":"691918","latitude":"30.23333330","longitude":"31.13333330","name":"Nazlat Salih Sulayman"},{"id":"691920","latitude":"30.41666670","longitude":"31.28333330","name":"Nazlat Salman Za'id"},{"id":"691943","latitude":"30.35000000","longitude":"31.26666670","name":"Nazlat Wali Rashid"},{"id":"691967","latitude":"30.30000000","longitude":"31.36666670","name":"Nazlet `Arab Giheina"},{"id":"691987","latitude":"30.40000000","longitude":"31.30000000","name":"Nazlet Buseilan"},{"id":"692041","latitude":"30.38333330","longitude":"31.28333330","name":"Nazlet el-Raw\u00e2shda"},{"id":"692045","latitude":"30.18333330","longitude":"31.28333330","name":"Nazlet el-Shar\u00e2qwa"},{"id":"692054","latitude":"30.41666670","longitude":"31.30000000","name":"Nazlet el Sib\u00e2`\u00e2t"},{"id":"692066","latitude":"30.40000000","longitude":"31.30000000","name":"Nazlet Gh\u00e2nim Abu R\u00e2s"},{"id":"692073","latitude":"30.21666670","longitude":"31.16666670","name":"Nazlet Hawawi"},{"id":"692110","latitude":"30.23333330","longitude":"31.13333330","name":"Nazlet Salih Suliman"},{"id":"692112","latitude":"30.41666670","longitude":"31.28333330","name":"Nazlet Salm\u00e2n Z\u00e2yid"},{"id":"692132","latitude":"30.41666670","longitude":"31.30000000","name":"Nazlet `Uda Humud"},{"id":"692133","latitude":"30.35000000","longitude":"31.26666670","name":"Nazlet W\u00e2li R\u00e2shid"},{"id":"692165","latitude":"30.46666670","longitude":"31.18333330","name":"Nisf Atrib"},{"id":"692198","latitude":"30.25666670","longitude":"31.29722220","name":"Nub Taha"},{"id":"692199","latitude":"30.25666670","longitude":"31.29722220","name":"Nub Taha'"},{"id":"692232","latitude":"30.44722220","longitude":"31.23138890","name":"Nuqbas"},{"id":"692297","latitude":"30.28000000","longitude":"31.20361110","name":"Qaha"},{"id":"692303","latitude":"30.21638890","longitude":"31.20638890","name":"Qalama"},{"id":"692316","latitude":"30.18305560","longitude":"31.20527780","name":"Qaliub"},{"id":"692319","latitude":"30.18166670","longitude":"31.22583330","name":"Qalyub al Mahattah"},{"id":"692320","latitude":"30.18166670","longitude":"31.22583330","name":"Qalyub el-Mahatta"},{"id":"692321","latitude":"30.18305560","longitude":"31.20527780","name":"Qalyub"},{"id":"692333","latitude":"30.27916670","longitude":"31.15805560","name":"Qaranfil"},{"id":"692344","latitude":"30.30388890","longitude":"31.16333330","name":"Qarqashandah"},{"id":"692345","latitude":"30.30388890","longitude":"31.16333330","name":"Qarqashanda"},{"id":"692584","latitude":"30.44027780","longitude":"31.15527780","name":"Ramleh"},{"id":"692805","latitude":"30.41333330","longitude":"31.19166670","name":"Sandanhur"},{"id":"692901","latitude":"30.31277780","longitude":"31.32111110","name":"Shabin al Qanatir"},{"id":"692902","latitude":"30.31277780","longitude":"31.32111110","name":"Shabir al-Kanatir"},{"id":"692913","latitude":"30.19138890","longitude":"31.16333330","name":"Shalaqan"},{"id":"692985","latitude":"30.47277780","longitude":"31.26222220","name":"Sheblengeh"},{"id":"693003","latitude":"30.31277780","longitude":"31.32111110","name":"Shibin al Qanatir"},{"id":"693005","latitude":"30.31277780","longitude":"31.32111110","name":"Shibin el-Qanatir"},{"id":"693006","latitude":"30.47277780","longitude":"31.26222220","name":"Shiblanga"},{"id":"693007","latitude":"30.47277780","longitude":"31.26222220","name":"Shiblanjah"},{"id":"693075","latitude":"30.31527780","longitude":"31.18861110","name":"Shubra 'aris"},{"id":"693123","latitude":"30.27805560","longitude":"31.10777780","name":"Shubra Shihab"},{"id":"693172","latitude":"30.28333330","longitude":"31.25000000","name":"S\u00eedi Sanad"},{"id":"693205","latitude":"30.25527780","longitude":"31.16166670","name":"Sindbis"},{"id":"693206","latitude":"30.25527780","longitude":"31.16166670","name":"Sindibis"},{"id":"693207","latitude":"30.24861110","longitude":"31.31305560","name":"Sindiwah"},{"id":"693208","latitude":"30.24861110","longitude":"31.31305560","name":"Sindiwa"},{"id":"693209","latitude":"30.24750000","longitude":"31.20444440","name":"Sindiyun"},{"id":"693220","latitude":"30.29361110","longitude":"31.24500000","name":"Sinhirah"},{"id":"693221","latitude":"30.29361110","longitude":"31.24500000","name":"Sinhira"},{"id":"693233","latitude":"30.19972220","longitude":"31.32222220","name":"Siriaqus"},{"id":"693246","latitude":"30.19972220","longitude":"31.32222220","name":"Siryaqus"},{"id":"693352","latitude":"30.28000000","longitude":"31.29638890","name":"Taha' Nub"},{"id":"693362","latitude":"30.28000000","longitude":"31.29638890","name":"Tahnub"},{"id":"693393","latitude":"30.33277780","longitude":"31.33527780","name":"Tall Bani Tamim"},{"id":"693433","latitude":"30.24388890","longitude":"31.24333330","name":"Tanan"},{"id":"693452","latitude":"30.35833330","longitude":"31.08222220","name":"Tant al Jazirah"},{"id":"693484","latitude":"30.33277780","longitude":"31.33527780","name":"Tell Beni Tam\u00eem"},{"id":"693553","latitude":"30.30305560","longitude":"31.18138890","name":"Tirsa"},{"id":"693560","latitude":"30.39805560","longitude":"31.13083330","name":"(tm)ahla"},{"id":"693562","latitude":"30.35833330","longitude":"31.08222220","name":"(tm)ant el-Gezira"},{"id":"693567","latitude":"30.34833330","longitude":"31.15805560","name":"Toukh"},{"id":"693569","latitude":"30.36666670","longitude":"31.33333330","name":"Tuhuriyah"},{"id":"693570","latitude":"30.36666670","longitude":"31.33333330","name":"Tuhuriya"},{"id":"693574","latitude":"30.34833330","longitude":"31.15805560","name":"Tukh al Malaq"},{"id":"693582","latitude":"30.34833330","longitude":"31.15805560","name":"T\u00fbkh el-Malaq"},{"id":"693588","latitude":"30.34833330","longitude":"31.15805560","name":"Tukh"},{"id":"693682","latitude":"30.20055560","longitude":"31.34250000","name":"`Urb\u00e2n F\u00f4da"},{"id":"693746","latitude":"30.43194440","longitude":"31.31638890","name":"Zahr Shurb"},{"id":"693780","latitude":"30.17861110","longitude":"31.32388890","name":"Zawiyat an Najjar"},{"id":"693787","latitude":"30.38333330","longitude":"31.16666670","name":"Zawiyat Biltan wa Minshat `Ismat"},{"id":"693810","latitude":"30.30250000","longitude":"31.28944440","name":"Zawiyat Sidi Sanad"},{"id":"693837","latitude":"30.38333330","longitude":"31.16666670","name":"Z\u00e2wyet Bilt\u00e2n and Minsh\u00e2t `Ismat"},{"id":"693852","latitude":"30.17861110","longitude":"31.32388890","name":"Z\u00e2wyet el-Nagg\u00e2r"},{"id":"693883","latitude":"30.30250000","longitude":"31.28944440","name":"Z\u00e2wyet S\u00eedi Sanad"},{"id":"693893","latitude":"30.33333330","longitude":"31.35000000","name":"Zifeitet Masht\u00fbl"},{"id":"693918","latitude":"30.33333330","longitude":"31.35000000","name":"Zufaytat Mashtul"}]