[{"id":"695293","latitude":"42.31666700","longitude":"2.31666700","name":"Abella"},{"id":"695295","latitude":"42.16666700","longitude":"1.10000000","name":"Abella de la Conca"},{"id":"695341","latitude":"41.51666700","longitude":"1.90000000","name":"Abrera"},{"id":"695433","latitude":"42.31666700","longitude":"1.40000000","name":"Adrall"},{"id":"695436","latitude":"42.05000000","longitude":"2.75000000","name":"Adri"},{"id":"695450","latitude":"41.53333300","longitude":"2.40000000","name":"Agell"},{"id":"695451","latitude":"42.00000000","longitude":"0.76666700","name":"Ager"},{"id":"695461","latitude":"41.78333300","longitude":"1.10000000","name":"Agramunt"},{"id":"695537","latitude":"41.75000000","longitude":"1.63333300","name":"Aguilar de Segarra"},{"id":"695543","latitude":"41.55000000","longitude":"1.41666700","name":"Aguil\u00f3"},{"id":"695550","latitude":"42.40000000","longitude":"0.95000000","name":"Aguir\u00f3"},{"id":"695553","latitude":"42.40000000","longitude":"2.85000000","name":"Agullana"},{"id":"695569","latitude":"41.76666700","longitude":"2.25000000","name":"Aiguafreda"},{"id":"695570","latitude":"41.33333300","longitude":"1.36666700","name":"Aiguamurcia"},{"id":"695571","latitude":"42.43333300","longitude":"1.00000000","name":"Aiguavella"},{"id":"695572","latitude":"41.93333300","longitude":"2.76666700","name":"Aiguaviva"},{"id":"695583","latitude":"41.48333300","longitude":"0.46666700","name":"Aitona"},{"id":"695594","latitude":"42.41666700","longitude":"1.95000000","name":"Aj\u00e1"},{"id":"695639","latitude":"42.35000000","longitude":"1.51666700","name":"Al\u00e1s"},{"id":"695656","latitude":"41.45000000","longitude":"0.75000000","name":"Albag\u00e9s"},{"id":"695680","latitude":"42.30000000","longitude":"2.73333300","name":"Alba\u00f1\u00e1"},{"id":"695687","latitude":"41.30000000","longitude":"0.91666700","name":"Albarca"},{"id":"695700","latitude":"41.56666700","longitude":"0.60000000","name":"Albatarrech"},{"id":"695730","latitude":"41.75000000","longitude":"0.66666700","name":"Albesa"},{"id":"695732","latitude":"41.41666700","longitude":"0.93333300","name":"Alb\u00ed"},{"id":"695736","latitude":"41.25000000","longitude":"1.48333300","name":"Albi\u00f1ana"},{"id":"695737","latitude":"41.25000000","longitude":"1.10000000","name":"Albiol"},{"id":"695752","latitude":"42.10000000","longitude":"3.08333300","name":"Alb\u00f3ns"},{"id":"695807","latitude":"40.55000000","longitude":"0.48333300","name":"Alcanar"},{"id":"695812","latitude":"41.46666700","longitude":"0.61666700","name":"Alcan\u00f3"},{"id":"695824","latitude":"41.56666700","longitude":"0.51666700","name":"Alcarras"},{"id":"695825","latitude":"41.56666700","longitude":"0.51666700","name":"Alcarraz"},{"id":"695850","latitude":"41.26666700","longitude":"1.16666700","name":"Alcober"},{"id":"695867","latitude":"41.65000000","longitude":"0.70000000","name":"Alcoletge"},{"id":"695890","latitude":"41.26666700","longitude":"1.16666700","name":"Alcover"},{"id":"696040","latitude":"40.88333300","longitude":"0.50000000","name":"Aldover"},{"id":"696052","latitude":"41.20000000","longitude":"1.05000000","name":"Aleixar"},{"id":"696055","latitude":"41.48333300","longitude":"2.30000000","name":"Alella"},{"id":"696060","latitude":"41.91666700","longitude":"1.06666700","name":"Alentorn"},{"id":"696076","latitude":"40.86666700","longitude":"0.40000000","name":"Alfara"},{"id":"696079","latitude":"40.86666700","longitude":"0.40000000","name":"Alfara de Carles"},{"id":"696081","latitude":"41.61666700","longitude":"2.43333300","name":"Alfar"},{"id":"696089","latitude":"41.81666700","longitude":"0.58333300","name":"Alfarr\u00e1s"},{"id":"696092","latitude":"41.51666700","longitude":"0.61666700","name":"Alf\u00e9s"},{"id":"696096","latitude":"41.20000000","longitude":"0.98333300","name":"Alforja"},{"id":"696120","latitude":"41.81666700","longitude":"0.63333300","name":"Algerri"},{"id":"696123","latitude":"41.21666700","longitude":"1.30000000","name":"Algilaga"},{"id":"696132","latitude":"41.73333300","longitude":"0.60000000","name":"Alguaire"},{"id":"696169","latitude":"41.30000000","longitude":"1.30000000","name":"Ali\u00f3"},{"id":"696211","latitude":"41.73333300","longitude":"0.45000000","name":"Almacellas"},{"id":"696245","latitude":"41.30000000","longitude":"-0.43333300","name":"Almatret"},{"id":"696264","latitude":"41.80000000","longitude":"0.56666700","name":"Almenar"},{"id":"696309","latitude":"41.20000000","longitude":"1.11666700","name":"Almoster"},{"id":"696335","latitude":"42.70000000","longitude":"1.10000000","name":"Al\u00f3s"},{"id":"696336","latitude":"41.91666700","longitude":"0.96666700","name":"Al\u00f3s de Balaguer"},{"id":"696337","latitude":"42.70000000","longitude":"1.10000000","name":"Al\u00f3s de Isil"},{"id":"696341","latitude":"42.36666700","longitude":"-1.88333300","name":"Alp"},{"id":"696350","latitude":"42.11666700","longitude":"2.10000000","name":"Alp\u00e9ns"},{"id":"696353","latitude":"41.66666700","longitude":"0.55000000","name":"Alpicat"},{"id":"696399","latitude":"41.13333300","longitude":"1.38333300","name":"Altafulla"},{"id":"696406","latitude":"41.68333300","longitude":"1.15000000","name":"Altet"},{"id":"696411","latitude":"42.45000000","longitude":"1.11666700","name":"Altr\u00f3n"},{"id":"696474","latitude":"42.01666700","longitude":"-2.60000000","name":"Amer"},{"id":"696477","latitude":"41.56666700","longitude":"1.25000000","name":"Ametlla"},{"id":"696478","latitude":"40.90000000","longitude":"0.80000000","name":"Ametlla del Mar"},{"id":"696479","latitude":"40.90000000","longitude":"0.80000000","name":"Ametlla de Mar"},{"id":"696480","latitude":"41.83333300","longitude":"1.88333300","name":"Ametlla de Merola"},{"id":"696502","latitude":"40.80000000","longitude":"0.71666700","name":"Ampolla"},{"id":"696503","latitude":"40.71666700","longitude":"0.58333300","name":"Amposta"},{"id":"696506","latitude":"42.13333300","longitude":"3.11666700","name":"Ampurias"},{"id":"696517","latitude":"42.58333300","longitude":"1.21666700","name":"An\u00e1s"},{"id":"696543","latitude":"41.83333300","longitude":"0.58333300","name":"Andan\u00ed"},{"id":"696587","latitude":"41.95000000","longitude":"2.65000000","name":"Angl\u00e9s"},{"id":"696588","latitude":"41.65000000","longitude":"1.08333300","name":"Anglesola"},{"id":"696643","latitude":"42.38333300","longitude":"-1.45000000","name":"Anserall"},{"id":"696719","latitude":"42.53333300","longitude":"1.26666700","name":"Arah\u00f3s"},{"id":"696727","latitude":"42.20000000","longitude":"-1.00000000","name":"Aramunt"},{"id":"696755","latitude":"42.40000000","longitude":"1.66666700","name":"Arans\u00e1"},{"id":"696756","latitude":"42.08333300","longitude":"0.96666700","name":"Arans\u00eds"},{"id":"696792","latitude":"41.53333300","longitude":"0.93333300","name":"Arbeca"},{"id":"696802","latitude":"41.23333300","longitude":"-0.95000000","name":"Arbol\u00ed"},{"id":"696806","latitude":"41.26666700","longitude":"1.60000000","name":"Arb\u00f3s"},{"id":"696807","latitude":"41.10000000","longitude":"0.96666700","name":"Arboset"},{"id":"696808","latitude":"41.81666700","longitude":"2.51666700","name":"Arbucias"},{"id":"696814","latitude":"42.43333300","longitude":"1.48333300","name":"Arcabell"},{"id":"696840","latitude":"41.68333300","longitude":"0.83333300","name":"Archs"},{"id":"696873","latitude":"41.16666700","longitude":"1.35000000","name":"Arde\u00f1a"},{"id":"696874","latitude":"41.16666700","longitude":"1.35000000","name":"Ardenya"},{"id":"696877","latitude":"41.85000000","longitude":"1.51666700","name":"Ardevol"},{"id":"696927","latitude":"42.16666700","longitude":"2.96666700","name":"Arenys de Ampurd\u00e1"},{"id":"696929","latitude":"41.58333300","longitude":"2.55000000","name":"Arenys de Mar"},{"id":"696930","latitude":"41.61666700","longitude":"2.55000000","name":"Arenys de Munt"},{"id":"696933","latitude":"42.58333300","longitude":"1.33333300","name":"Areo"},{"id":"696941","latitude":"42.50000000","longitude":"1.16666700","name":"Arest\u00fay"},{"id":"696946","latitude":"42.33333300","longitude":"1.41666700","name":"Arfa"},{"id":"696969","latitude":"42.21666700","longitude":"2.65000000","name":"Argelaguer"},{"id":"696975","latitude":"41.13333300","longitude":"0.91666700","name":"Argentera"},{"id":"696976","latitude":"41.55000000","longitude":"2.40000000","name":"Argentona"},{"id":"696979","latitude":"42.33333300","longitude":"1.31666700","name":"Argestues"},{"id":"696980","latitude":"41.21666700","longitude":"1.30000000","name":"Argilaga"},{"id":"696982","latitude":"42.43333300","longitude":"1.45000000","name":"Argolell"},{"id":"697040","latitude":"42.38333300","longitude":"1.63333300","name":"Aristot"},{"id":"697061","latitude":"41.90000000","longitude":"3.16666700","name":"Armad\u00e1s"},{"id":"697078","latitude":"42.16666700","longitude":"3.08333300","name":"Armentera"},{"id":"697109","latitude":"40.90000000","longitude":"0.26666700","name":"Arn\u00e9s"},{"id":"697139","latitude":"40.83333300","longitude":"0.51666700","name":"Arrabal de Jes\u00fas"},{"id":"697140","latitude":"41.31666700","longitude":"1.91666700","name":"Arrabal de la Barceloneta"},{"id":"697141","latitude":"40.80000000","longitude":"0.53333300","name":"Arrabal de la Leche"},{"id":"697146","latitude":"41.50000000","longitude":"1.90000000","name":"Arrabal Las Matas"},{"id":"697168","latitude":"42.75000000","longitude":"0.73333300","name":"Arr\u00e9s"},{"id":"697191","latitude":"42.75000000","longitude":"0.71666700","name":"Arr\u00f3"},{"id":"697204","latitude":"42.58333300","longitude":"1.25000000","name":"Arr\u00f3s"},{"id":"697277","latitude":"41.55000000","longitude":"0.70000000","name":"Artesa de L\u00e9rida"},{"id":"697278","latitude":"41.90000000","longitude":"1.05000000","name":"Artesa de Segre"},{"id":"697279","latitude":"41.80000000","longitude":"1.95000000","name":"Art\u00e9s"},{"id":"697288","latitude":"42.70000000","longitude":"0.86666700","name":"Arti\u00e9s"},{"id":"697319","latitude":"41.18333300","longitude":"0.56666700","name":"Asc\u00f3"},{"id":"697329","latitude":"42.43333300","longitude":"1.41666700","name":"Asnurri"},{"id":"697335","latitude":"41.50000000","longitude":"0.68333300","name":"Aspa"},{"id":"697354","latitude":"42.40000000","longitude":"0.96666700","name":"Astell"},{"id":"697404","latitude":"42.73333300","longitude":"0.78333300","name":"Aubert"},{"id":"697429","latitude":"41.90000000","longitude":"0.76666700","name":"Avellanes"},{"id":"697435","latitude":"42.06666700","longitude":"1.85000000","name":"Avi\u00e1"},{"id":"697446","latitude":"42.25000000","longitude":"2.91666700","name":"Avi\u00f1onet"},{"id":"697447","latitude":"42.25000000","longitude":"2.91666700","name":"Avi\u00f1onet de Puig Vent\u00f3s"},{"id":"697448","latitude":"41.86666700","longitude":"1.96666700","name":"Aviny\u00f3"},{"id":"697449","latitude":"41.35000000","longitude":"1.78333300","name":"Avinyonet"},{"id":"697461","latitude":"42.51666700","longitude":"1.20000000","name":"Ayd\u00ed"},{"id":"697469","latitude":"41.76666700","longitude":"2.25000000","name":"Ayguafreda"},{"id":"697479","latitude":"41.48333300","longitude":"0.46666700","name":"Aytona"},{"id":"697558","latitude":"41.45000000","longitude":"2.25000000","name":"Badalona"},{"id":"697572","latitude":"42.25000000","longitude":"1.86666700","name":"Bag\u00e1"},{"id":"697573","latitude":"42.71666700","longitude":"0.91666700","name":"Bagerque"},{"id":"697574","latitude":"42.31666700","longitude":"2.48333300","name":"Baget"},{"id":"697580","latitude":"41.95000000","longitude":"3.21666700","name":"Bagur"},{"id":"697603","latitude":"41.78333300","longitude":"0.81666700","name":"Balaguer"},{"id":"697621","latitude":"41.91666700","longitude":"1.01666700","name":"Baldom\u00e1"},{"id":"697627","latitude":"41.81666700","longitude":"2.21666700","name":"Baleny\u00e1"},{"id":"697637","latitude":"42.35000000","longitude":"3.11666700","name":"Balleta"},{"id":"697656","latitude":"41.86666700","longitude":"1.88333300","name":"Balsareny"},{"id":"697687","latitude":"41.28333300","longitude":"1.58333300","name":"Ba\u00f1eras"},{"id":"697696","latitude":"42.11666700","longitude":"2.76666700","name":"Ba\u00f1olas"},{"id":"697697","latitude":"42.11666700","longitude":"2.76666700","name":"Ba\u00f1oles"},{"id":"697772","latitude":"41.40000000","longitude":"1.23333300","name":"Barbar\u00e1"},{"id":"697786","latitude":"41.66666700","longitude":"1.01666700","name":"Barb\u00e9ns"},{"id":"697806","latitude":"41.38333300","longitude":"2.18333300","name":"Barcelona"},{"id":"697807","latitude":"41.38333300","longitude":"2.18333300","name":"Barceloneta"},{"id":"697945","latitude":"41.43333300","longitude":"2.21666700","name":"Barriada Artigas"},{"id":"698057","latitude":"41.48333300","longitude":"1.91666700","name":"Barrio Ca'n Bros"},{"id":"698080","latitude":"41.46666700","longitude":"2.25000000","name":"Barrio de Canyet"},{"id":"698089","latitude":"41.81666700","longitude":"3.06666700","name":"Barrio de Fanals"},{"id":"698124","latitude":"41.45000000","longitude":"2.26666700","name":"Barrio de Manres\u00e1"},{"id":"698140","latitude":"41.46666700","longitude":"2.16666700","name":"Barrio de Santa Mar\u00eda de Moncada"},{"id":"698148","latitude":"41.45000000","longitude":"2.00000000","name":"Barrio El Canyet"},{"id":"698153","latitude":"41.33333300","longitude":"1.85000000","name":"Barrio El Hospital"},{"id":"698183","latitude":"41.43333300","longitude":"2.06666700","name":"Barrio La Floresta Pearson"},{"id":"698190","latitude":"41.43333300","longitude":"2.11666700","name":"Barrio La Rabassada"},{"id":"698191","latitude":"41.50000000","longitude":"1.96666700","name":"Barrio Las Casetas Oliver\u00f3"},{"id":"698280","latitude":"41.23333300","longitude":"1.86666700","name":"Barrio Vallcarca"},{"id":"698281","latitude":"41.45000000","longitude":"2.03333300","name":"Barrio Valldoreix"},{"id":"698300","latitude":"42.50000000","longitude":"0.80000000","name":"Barruera"},{"id":"698311","latitude":"42.11666700","longitude":"2.46666700","name":"Bas"},{"id":"698312","latitude":"42.16666700","longitude":"2.91666700","name":"B\u00e1scara"},{"id":"698333","latitude":"42.01666700","longitude":"1.30000000","name":"Basella"},{"id":"698340","latitude":"42.30000000","longitude":"2.70000000","name":"Bassagoda"},{"id":"698349","latitude":"41.10000000","longitude":"0.31666700","name":"Batea"},{"id":"698352","latitude":"42.33333300","longitude":"2.16666700","name":"Batet"},{"id":"698359","latitude":"42.83333300","longitude":"0.71666700","name":"Baus\u00e9n"},{"id":"698366","latitude":"42.50000000","longitude":"1.15000000","name":"Bayasca"},{"id":"698427","latitude":"41.33333300","longitude":"1.93333300","name":"Begas"},{"id":"698435","latitude":"41.33333300","longitude":"1.93333300","name":"Begues"},{"id":"698436","latitude":"41.95000000","longitude":"3.21666700","name":"Begur"},{"id":"698482","latitude":"41.55000000","longitude":"1.01666700","name":"Belianes"},{"id":"698485","latitude":"41.26666700","longitude":"1.28333300","name":"Bellavista"},{"id":"698486","latitude":"42.08333300","longitude":"3.10000000","name":"Bellcaire"},{"id":"698487","latitude":"42.08333300","longitude":"3.10000000","name":"Bellcaire d'Emporda"},{"id":"698488","latitude":"41.75000000","longitude":"0.91666700","name":"Bellcaire de Urgel"},{"id":"698489","latitude":"41.75000000","longitude":"0.91666700","name":"Bellcaire d'Urgell"},{"id":"698491","latitude":"41.63333300","longitude":"0.78333300","name":"Bell Lloch"},{"id":"698492","latitude":"41.83333300","longitude":"2.98333300","name":"Bell-Lloch"},{"id":"698493","latitude":"41.63333300","longitude":"0.78333300","name":"Bell Loch"},{"id":"698494","latitude":"41.15000000","longitude":"0.76666700","name":"Bellmunt"},{"id":"698495","latitude":"41.15000000","longitude":"0.76666700","name":"Bellmunt de Ciurana"},{"id":"698498","latitude":"41.63333300","longitude":"0.78333300","name":"Belloch"},{"id":"698500","latitude":"41.51666700","longitude":"1.43333300","name":"Bellprat"},{"id":"698501","latitude":"41.61666700","longitude":"1.01666700","name":"Bellpuig"},{"id":"698503","latitude":"41.50000000","longitude":"1.18333300","name":"Belltal"},{"id":"698505","latitude":"41.75000000","longitude":"1.30000000","name":"Bellveh\u00ed"},{"id":"698506","latitude":"42.36666700","longitude":"1.78333300","name":"Bellver"},{"id":"698507","latitude":"41.23333300","longitude":"1.58333300","name":"Bellvey"},{"id":"698508","latitude":"41.66666700","longitude":"0.81666700","name":"Bellv\u00eds"},{"id":"698526","latitude":"41.61666700","longitude":"1.01666700","name":"Belpuig"},{"id":"698588","latitude":"41.70000000","longitude":"0.63333300","name":"Benavent de L\u00e9rida"},{"id":"698609","latitude":"42.40000000","longitude":"0.86666700","name":"Ben\u00e9s"},{"id":"698638","latitude":"40.96666700","longitude":"0.51666700","name":"Benifallet"},{"id":"698670","latitude":"41.05000000","longitude":"0.63333300","name":"Benisanet"},{"id":"698687","latitude":"42.73333300","longitude":"0.73333300","name":"Benos"},{"id":"698754","latitude":"42.10000000","longitude":"1.85000000","name":"Berga"},{"id":"698801","latitude":"42.45000000","longitude":"1.08333300","name":"Bern\u00fay"},{"id":"698843","latitude":"42.56666700","longitude":"1.15000000","name":"Berr\u00f3s-Josa"},{"id":"698844","latitude":"42.56666700","longitude":"1.16666700","name":"Berr\u00f3s-Subir\u00e1"},{"id":"698863","latitude":"42.20000000","longitude":"2.70000000","name":"Besal\u00fa"},{"id":"698868","latitude":"41.96666700","longitude":"2.75000000","name":"Bescan\u00f3"},{"id":"698891","latitude":"42.71666700","longitude":"0.78333300","name":"Betl\u00e1n"},{"id":"698896","latitude":"42.70000000","longitude":"0.81666700","name":"Betr\u00e9n"},{"id":"698897","latitude":"42.23333300","longitude":"2.71666700","name":"Beuda"},{"id":"698924","latitude":"42.08333300","longitude":"2.71666700","name":"Biert"},{"id":"698927","latitude":"41.68333300","longitude":"2.23333300","name":"Bigas"},{"id":"698951","latitude":"41.85000000","longitude":"1.36666700","name":"Biosca"},{"id":"698955","latitude":"41.26666700","longitude":"0.71666700","name":"Bisbal de Falset"},{"id":"698956","latitude":"41.28333300","longitude":"1.48333300","name":"Bisbal del Panad\u00e9s"},{"id":"698957","latitude":"42.10000000","longitude":"1.10000000","name":"Biscarri"},{"id":"698965","latitude":"40.85000000","longitude":"0.53333300","name":"Bitem"},{"id":"698966","latitude":"41.48333300","longitude":"1.35000000","name":"Biure"},{"id":"698976","latitude":"41.68333300","longitude":"2.80000000","name":"Blanes"},{"id":"698994","latitude":"42.33333300","longitude":"2.85000000","name":"Boadella"},{"id":"699003","latitude":"42.61666700","longitude":"-4.13333300","name":"Bo\u00e1n"},{"id":"699011","latitude":"41.31666700","longitude":"0.65000000","name":"Bobera"},{"id":"699053","latitude":"42.51666700","longitude":"0.83333300","name":"Boh\u00ed"},{"id":"699065","latitude":"42.16666700","longitude":"1.16666700","name":"Boixols"},{"id":"699079","latitude":"42.61666700","longitude":"1.26666700","name":"Boldis-Josa"},{"id":"699080","latitude":"42.61666700","longitude":"1.26666700","name":"Boldis-Subir\u00e1"},{"id":"699081","latitude":"41.71666700","longitude":"1.01666700","name":"Bold\u00fa"},{"id":"699106","latitude":"42.41666700","longitude":"1.88333300","name":"Bolvir"},{"id":"699112","latitude":"41.21666700","longitude":"1.45000000","name":"Bonastre"},{"id":"699113","latitude":"42.03333300","longitude":"1.95000000","name":"Bonayre"},{"id":"699116","latitude":"42.56666700","longitude":"1.21666700","name":"Bonestarre"},{"id":"699126","latitude":"41.96666700","longitude":"2.66666700","name":"Bonmat\u00ed"},{"id":"699146","latitude":"42.05000000","longitude":"2.91666700","name":"Bordils"},{"id":"699154","latitude":"42.10000000","longitude":"2.80000000","name":"Borgo\u00f1\u00e1"},{"id":"699155","latitude":"42.06666700","longitude":"2.25000000","name":"Borgonu\u00e1"},{"id":"699156","latitude":"42.06666700","longitude":"2.25000000","name":"Borgony\u00e1"},{"id":"699160","latitude":"41.51666700","longitude":"0.86666700","name":"Borjas Blancas"},{"id":"699161","latitude":"41.16666700","longitude":"1.01666700","name":"Borjas del Campo"},{"id":"699177","latitude":"42.21666700","longitude":"2.93333300","name":"Borrass\u00e1"},{"id":"699179","latitude":"42.13333300","longitude":"2.00000000","name":"Borred\u00e1"},{"id":"699189","latitude":"42.78333300","longitude":"0.70000000","name":"Bosost"},{"id":"699192","latitude":"41.13333300","longitude":"1.00000000","name":"Botarell"},{"id":"699195","latitude":"41.00000000","longitude":"0.38333300","name":"Bot"},{"id":"699229","latitude":"41.26666700","longitude":"1.33333300","name":"Br\u00e1fim"},{"id":"699286","latitude":"41.75000000","longitude":"2.56666700","name":"Breda"},{"id":"699335","latitude":"41.58333300","longitude":"1.78333300","name":"Bruch"},{"id":"699337","latitude":"41.91666700","longitude":"3.18333300","name":"Brugarol"},{"id":"699339","latitude":"42.28333300","longitude":"2.18333300","name":"Bruguera"},{"id":"699343","latitude":"41.81666700","longitude":"2.31666700","name":"Brull"},{"id":"699349","latitude":"41.90000000","longitude":"2.68333300","name":"Bru\u00f1ola"},{"id":"699351","latitude":"42.33333300","longitude":"2.85000000","name":"Buadella"},{"id":"699405","latitude":"41.80000000","longitude":"3.03333300","name":"Bufaga\u00f1as"},{"id":"699462","latitude":"42.50000000","longitude":"1.26666700","name":"Burch"},{"id":"699585","latitude":"41.80000000","longitude":"1.00000000","name":"Butsenit"},{"id":"699595","latitude":"41.25000000","longitude":"0.73333300","name":"Cabac\u00e9s"},{"id":"699606","latitude":"41.85000000","longitude":"1.21666700","name":"Cabanabona"},{"id":"699634","latitude":"42.23333300","longitude":"2.81666700","name":"Cabanellas"},{"id":"699653","latitude":"42.46666700","longitude":"1.00000000","name":"Cabdella"},{"id":"699657","latitude":"41.58333300","longitude":"1.28333300","name":"Cabestany"},{"id":"699720","latitude":"41.40000000","longitude":"1.28333300","name":"Cabra del Campo"},{"id":"699741","latitude":"41.51666700","longitude":"1.70000000","name":"Cabrera de Igualada"},{"id":"699742","latitude":"41.51666700","longitude":"2.40000000","name":"Cabrera de Matar\u00f3"},{"id":"699752","latitude":"41.80000000","longitude":"1.91666700","name":"Cabrianas"},{"id":"699757","latitude":"41.53333300","longitude":"2.36666700","name":"Cabrils"},{"id":"699779","latitude":"42.28333300","longitude":"3.28333300","name":"Cadagu\u00e9s"},{"id":"699787","latitude":"42.28333300","longitude":"3.28333300","name":"Cadaqu\u00e9s"},{"id":"699813","latitude":"42.21666700","longitude":"2.80000000","name":"Caix\u00e1ns"},{"id":"699814","latitude":"42.21666700","longitude":"2.80000000","name":"Caix\u00e1s"},{"id":"699829","latitude":"42.15000000","longitude":"2.93333300","name":"Calabuig"},{"id":"699834","latitude":"41.73333300","longitude":"1.51666700","name":"Calaf"},{"id":"699835","latitude":"41.18333300","longitude":"1.56666700","name":"Calafell"},{"id":"699862","latitude":"42.36666700","longitude":"1.46666700","name":"Calavi\u00f1a"},{"id":"699868","latitude":"41.56666700","longitude":"2.53333300","name":"Caldas de Estrach"},{"id":"699870","latitude":"41.83333300","longitude":"2.81666700","name":"Caldas de Malavella"},{"id":"699871","latitude":"41.63333300","longitude":"2.16666700","name":"Caldas de Momb\u00fay"},{"id":"699872","latitude":"41.63333300","longitude":"2.16666700","name":"Caldas de Monbui"},{"id":"699873","latitude":"41.63333300","longitude":"2.16666700","name":"Caldas de Montbuy"},{"id":"699885","latitude":"41.78333300","longitude":"2.00000000","name":"Calders"},{"id":"699887","latitude":"41.63333300","longitude":"2.16666700","name":"Caldes de Montbuy"},{"id":"699900","latitude":"41.61666700","longitude":"2.66666700","name":"Calella"},{"id":"699924","latitude":"41.61666700","longitude":"2.66666700","name":"Callella"},{"id":"699938","latitude":"41.86666700","longitude":"3.08333300","name":"Calonge"},{"id":"699939","latitude":"41.86666700","longitude":"3.08333300","name":"Calonges"},{"id":"699941","latitude":"41.33333300","longitude":"1.65000000","name":"Ca'l Rubio"},{"id":"699951","latitude":"42.36666700","longitude":"1.46666700","name":"Calviny\u00e1"},{"id":"699977","latitude":"42.11666700","longitude":"2.96666700","name":"Camallera"},{"id":"699983","latitude":"41.86666700","longitude":"0.88333300","name":"Camarasa"},{"id":"700011","latitude":"41.06666700","longitude":"1.05000000","name":"Cambrils"},{"id":"700031","latitude":"42.08333300","longitude":"2.76666700","name":"Cam\u00f3s"},{"id":"700052","latitude":"41.25000000","longitude":"1.86666700","name":"Campdesens"},{"id":"700053","latitude":"41.25000000","longitude":"1.86666700","name":"Campdessens"},{"id":"700054","latitude":"42.21666700","longitude":"2.16666700","name":"Campdev\u00e1nol"},{"id":"700055","latitude":"42.01666700","longitude":"2.85000000","name":"Campdur\u00e1"},{"id":"700056","latitude":"42.30000000","longitude":"2.15000000","name":"Campellas"},{"id":"700098","latitude":"41.71666700","longitude":"2.46666700","name":"Camp\u00edns"},{"id":"700101","latitude":"41.88333300","longitude":"-2.83333300","name":"Campllonch"},{"id":"700177","latitude":"40.73333300","longitude":"0.55000000","name":"Campred\u00f3"},{"id":"700178","latitude":"42.31666700","longitude":"2.36666700","name":"Camprod\u00f3n"},{"id":"700254","latitude":"41.48333300","longitude":"1.70000000","name":"Canaletas"},{"id":"700278","latitude":"41.45000000","longitude":"1.88333300","name":"Ca'n Bargallo"},{"id":"700279","latitude":"41.41666700","longitude":"1.78333300","name":"Ca'n Batista"},{"id":"700280","latitude":"41.48333300","longitude":"1.91666700","name":"Ca'n Bros"},{"id":"700339","latitude":"42.83333300","longitude":"0.75000000","name":"Canej\u00e1n"},{"id":"700340","latitude":"42.20000000","longitude":"2.88333300","name":"Ca\u00f1ellas"},{"id":"700344","latitude":"41.46666700","longitude":"2.25000000","name":"Ca\u00f1et"},{"id":"700345","latitude":"42.03333300","longitude":"2.73333300","name":"Canet de Adri"},{"id":"700347","latitude":"41.58333300","longitude":"2.58333300","name":"Canet de Mar"},{"id":"700388","latitude":"41.46666700","longitude":"1.88333300","name":"Ca'n Margarit"},{"id":"700389","latitude":"41.91666700","longitude":"2.70000000","name":"Can Nin"},{"id":"700398","latitude":"41.61666700","longitude":"2.28333300","name":"Canovellas"},{"id":"700399","latitude":"41.68333300","longitude":"2.35000000","name":"C\u00e1noves"},{"id":"700401","latitude":"41.48333300","longitude":"1.88333300","name":"Ca'n Prats"},{"id":"700404","latitude":"41.40000000","longitude":"1.81666700","name":"Ca'n Rossell"},{"id":"700413","latitude":"42.41666700","longitude":"2.93333300","name":"Cantallops"},{"id":"700441","latitude":"41.50000000","longitude":"1.93333300","name":"C'an Torras"},{"id":"700442","latitude":"41.35000000","longitude":"2.15000000","name":"Can Tunis"},{"id":"700443","latitude":"41.60000000","longitude":"2.45000000","name":"Canyam\u00e1s"},{"id":"700444","latitude":"41.28333300","longitude":"1.73333300","name":"Canyellas"},{"id":"700445","latitude":"41.45000000","longitude":"2.00000000","name":"Canyet"},{"id":"700446","latitude":"41.30000000","longitude":"1.03333300","name":"Capafons"},{"id":"700452","latitude":"42.46666700","longitude":"1.00000000","name":"Capdella"},{"id":"700459","latitude":"41.53333300","longitude":"1.70000000","name":"Capellades"},{"id":"700466","latitude":"42.36666700","longitude":"2.91666700","name":"Capmany"},{"id":"700472","latitude":"41.10000000","longitude":"0.78333300","name":"Capsanes"},{"id":"700473","latitude":"42.23333300","longitude":"2.48333300","name":"Capsech"},{"id":"700491","latitude":"42.35000000","longitude":"2.16666700","name":"Caralps"},{"id":"700590","latitude":"41.63333300","longitude":"2.36666700","name":"Cardedeu"},{"id":"700610","latitude":"41.91666700","longitude":"1.68333300","name":"Cardona"},{"id":"700615","latitude":"42.46666700","longitude":"1.10000000","name":"Caregn\u00e9"},{"id":"700633","latitude":"41.53333300","longitude":"1.61666700","name":"Carme"},{"id":"700717","latitude":"41.60000000","longitude":"2.18333300","name":"Carrer de Dalt"},{"id":"700718","latitude":"41.48333300","longitude":"2.30000000","name":"Carrer del Canonge"},{"id":"700754","latitude":"42.01666700","longitude":"2.76666700","name":"Cartell\u00e1"},{"id":"700773","latitude":"41.35000000","longitude":"2.15000000","name":"Casa-Antunez"},{"id":"700860","latitude":"41.88333300","longitude":"2.88333300","name":"Cas\u00e1 de la Selva"},{"id":"700934","latitude":"41.26666700","longitude":"1.30000000","name":"Casafort"},{"id":"701102","latitude":"40.55000000","longitude":"0.53333300","name":"Casas de Alcanar"},{"id":"701450","latitude":"42.00000000","longitude":"3.03333300","name":"Casavells"},{"id":"701477","latitude":"41.03333300","longitude":"0.25000000","name":"Caseras"},{"id":"701484","latitude":"41.66666700","longitude":"1.78333300","name":"Caseria El Arrabal de Coll d'Arbos"},{"id":"701488","latitude":"42.31666700","longitude":"2.31666700","name":"Caser\u00edo Abella"},{"id":"701492","latitude":"41.53333300","longitude":"2.40000000","name":"Caser\u00edo Agell"},{"id":"701517","latitude":"41.61666700","longitude":"2.43333300","name":"Caser\u00edo Alfar"},{"id":"701548","latitude":"41.90000000","longitude":"3.16666700","name":"Caser\u00edo Armad\u00e1s"},{"id":"701602","latitude":"42.33333300","longitude":"2.16666700","name":"Caser\u00edo Batet"},{"id":"701604","latitude":"41.83333300","longitude":"2.98333300","name":"Caser\u00edo Bell-Lloch"},{"id":"701634","latitude":"42.03333300","longitude":"1.95000000","name":"Caser\u00edo Bonayre"},{"id":"701646","latitude":"41.80000000","longitude":"3.03333300","name":"Caser\u00edo Bufaga\u00f1as"},{"id":"701661","latitude":"41.41666700","longitude":"1.78333300","name":"Caser\u00edo Cal Batista"},{"id":"701663","latitude":"41.33333300","longitude":"1.65000000","name":"Caser\u00edo Cal Rubio"},{"id":"701667","latitude":"41.25000000","longitude":"1.86666700","name":"Caser\u00edo Campdessens"},{"id":"701695","latitude":"41.45000000","longitude":"1.88333300","name":"Caserio Ca'n Bargallo"},{"id":"701699","latitude":"42.20000000","longitude":"2.88333300","name":"Caser\u00edo Canellas"},{"id":"701700","latitude":"41.76666700","longitude":"2.98333300","name":"Caser\u00edo Ca\u00f1et de Mar"},{"id":"701702","latitude":"41.46666700","longitude":"1.88333300","name":"Caserio Ca'n Margarit"},{"id":"701705","latitude":"41.48333300","longitude":"1.88333300","name":"Caserio Ca'n Prats"},{"id":"701706","latitude":"41.40000000","longitude":"1.81666700","name":"Caserio C'an Rosell"},{"id":"701731","latitude":"41.31666700","longitude":"1.56666700","name":"Caser\u00edo Carro\u00f1a"},{"id":"701806","latitude":"41.76666700","longitude":"2.85000000","name":"Caser\u00edo Caules de Vidreras"},{"id":"701823","latitude":"42.36666700","longitude":"0.88333300","name":"Caser\u00edo Cherallo"},{"id":"701894","latitude":"41.41666700","longitude":"1.78333300","name":"Caserio de Ca'l Batista"},{"id":"701897","latitude":"41.48333300","longitude":"1.70000000","name":"Caser\u00edo de Canaletas"},{"id":"701899","latitude":"41.40000000","longitude":"1.81666700","name":"Caserio de Ca'n Rosell"},{"id":"701906","latitude":"41.85000000","longitude":"2.86666700","name":"Caser\u00edo de Esclet"},{"id":"701907","latitude":"41.43333300","longitude":"1.81666700","name":"Caser\u00edo de Espiells"},{"id":"701918","latitude":"41.28333300","longitude":"1.83333300","name":"Caserio de Jafra"},{"id":"701939","latitude":"41.90000000","longitude":"2.86666700","name":"Caser\u00edo de Llabr\u00e9s"},{"id":"701952","latitude":"41.86666700","longitude":"2.86666700","name":"Caser\u00edo de Montroig"},{"id":"701965","latitude":"41.86666700","longitude":"2.88333300","name":"Caser\u00edo de Seri\u00f1\u00e1"},{"id":"701989","latitude":"41.40000000","longitude":"1.91666700","name":"Caser\u00edo El Amunt"},{"id":"701991","latitude":"41.35000000","longitude":"1.96666700","name":"Caser\u00edo El Arrabal Mas"},{"id":"701992","latitude":"41.33333300","longitude":"1.95000000","name":"Caser\u00edo El Arrabal Torrelletas"},{"id":"702032","latitude":"41.76666700","longitude":"2.23333300","name":"Caser\u00edo el Cerda de la Garga"},{"id":"702074","latitude":"42.25000000","longitude":"3.15000000","name":"Caser\u00edo El Grao"},{"id":"702120","latitude":"41.95000000","longitude":"2.80000000","name":"Caser\u00edo el Perell\u00f3"},{"id":"702135","latitude":"41.43333300","longitude":"1.85000000","name":"Caser\u00edo El Puig"},{"id":"702160","latitude":"42.28333300","longitude":"2.95000000","name":"Caser\u00edo els Hostalets"},{"id":"702163","latitude":"41.43333300","longitude":"1.86666700","name":"Caser\u00edo Els Taronjers"},{"id":"702187","latitude":"41.85000000","longitude":"2.86666700","name":"Caser\u00edo Esclet"},{"id":"702201","latitude":"42.10000000","longitude":"2.66666700","name":"Caser\u00edo Falgons"},{"id":"702207","latitude":"41.73333300","longitude":"2.45000000","name":"Caser\u00edo Fogas de Montcl\u00fas"},{"id":"702211","latitude":"41.86666700","longitude":"3.08333300","name":"Caser\u00edo Fonts"},{"id":"702254","latitude":"41.25000000","longitude":"1.90000000","name":"Caser\u00edo Garraf"},{"id":"702267","latitude":"42.06666700","longitude":"1.86666700","name":"Caser\u00edo Graug\u00e9s"},{"id":"702324","latitude":"41.28333300","longitude":"1.83333300","name":"Caser\u00edo Jafra"},{"id":"702357","latitude":"41.31666700","longitude":"1.91666700","name":"Caser\u00edo La Barceloneta"},{"id":"702394","latitude":"41.96666700","longitude":"2.85000000","name":"Caser\u00edo la Crehueta"},{"id":"702484","latitude":"41.26666700","longitude":"2.00000000","name":"Caser\u00edo La Pineda"},{"id":"702487","latitude":"42.10000000","longitude":"1.98333300","name":"Caser\u00edo La Quart"},{"id":"702489","latitude":"42.28333300","longitude":"2.36666700","name":"Caser\u00edo La Ral"},{"id":"702495","latitude":"41.43333300","longitude":"2.05000000","name":"Caser\u00edo La Rierada"},{"id":"702521","latitude":"41.65000000","longitude":"2.15000000","name":"Caser\u00edo Las Canteras"},{"id":"702530","latitude":"41.36666700","longitude":"1.93333300","name":"Caserio Las Casetas d'en Montaner"},{"id":"702548","latitude":"42.08333300","longitude":"2.00000000","name":"Caser\u00edo Las Euras"},{"id":"702549","latitude":"41.90000000","longitude":"2.83333300","name":"Caser\u00edo Las Ferrer\u00edas"},{"id":"702550","latitude":"41.90000000","longitude":"2.83333300","name":"Caser\u00edo Las Ferrer\u00edes"},{"id":"702566","latitude":"41.81666700","longitude":"2.73333300","name":"Caser\u00edo Las Mallorquinas"},{"id":"702608","latitude":"41.43333300","longitude":"1.86666700","name":"Caser\u00edo La Valenciana"},{"id":"702609","latitude":"41.46666700","longitude":"2.20000000","name":"Caser\u00edo La Vallensana"},{"id":"702640","latitude":"42.30000000","longitude":"2.70000000","name":"Caser\u00edo Llorona"},{"id":"702641","latitude":"41.88333300","longitude":"1.36666700","name":"Caser\u00edo Lloverola"},{"id":"702796","latitude":"41.26666700","longitude":"1.95000000","name":"Caser\u00edo Los Pinares"},{"id":"702870","latitude":"41.88333300","longitude":"2.23333300","name":"Caser\u00edo Mall\u00e1"},{"id":"702890","latitude":"41.25000000","longitude":"1.43333300","name":"Caser\u00edo Masarbon\u00e9s"},{"id":"702898","latitude":"41.85000000","longitude":"1.61666700","name":"Caser\u00edo Matamargos"},{"id":"702928","latitude":"41.88333300","longitude":"2.18333300","name":"Caser\u00edo Montanyola"},{"id":"702939","latitude":"42.26666700","longitude":"2.08333300","name":"Caser\u00edo Montgrony"},{"id":"702940","latitude":"42.25000000","longitude":"3.23333300","name":"Caser\u00edo Montjoys"},{"id":"702941","latitude":"41.71666700","longitude":"2.25000000","name":"Caser\u00edo Montmany"},{"id":"702942","latitude":"41.90000000","longitude":"3.15000000","name":"Caser\u00edo Montr\u00e1s"},{"id":"702943","latitude":"41.86666700","longitude":"2.86666700","name":"Caser\u00edo Montroig"},{"id":"702958","latitude":"41.91666700","longitude":"2.70000000","name":"Caser\u00edo Nin"},{"id":"702968","latitude":"42.06666700","longitude":"2.21666700","name":"Caser\u00edo Oris"},{"id":"702970","latitude":"41.66666700","longitude":"2.63333300","name":"Caser\u00edo Orsavinya"},{"id":"702984","latitude":"42.13333300","longitude":"3.05000000","name":"Caser\u00edo Palau Borrell"},{"id":"703084","latitude":"42.06666700","longitude":"2.93333300","name":"Caser\u00edo Raset"},{"id":"703087","latitude":"41.68333300","longitude":"0.48333300","name":"Caser\u00edo Raymat"},{"id":"703098","latitude":"41.48333300","longitude":"2.20000000","name":"Caser\u00edo Reixach"},{"id":"703103","latitude":"41.70000000","longitude":"2.20000000","name":"Caser\u00edo Riells del Fay"},{"id":"703122","latitude":"41.85000000","longitude":"2.98333300","name":"Caser\u00edo Romaya de la Selva"},{"id":"703130","latitude":"42.26666700","longitude":"2.60000000","name":"Caser\u00edo Sadernas"},{"id":"703131","latitude":"42.08333300","longitude":"2.25000000","name":"Caser\u00edo Saderra"},{"id":"703142","latitude":"41.68333300","longitude":"2.31666700","name":"Caser\u00edo Samal\u00fas"},{"id":"703144","latitude":"42.11666700","longitude":"2.53333300","name":"Caser\u00edo San Acisclo de Colltort"},{"id":"703149","latitude":"41.41666700","longitude":"2.03333300","name":"Caser\u00edo San Bartolom\u00e9 de la Cuadra"},{"id":"703156","latitude":"42.05000000","longitude":"2.63333300","name":"Caser\u00edo San Esteban de Ll\u00e9mana"},{"id":"703157","latitude":"42.01666700","longitude":"1.68333300","name":"Caser\u00edo San Feliu de Lluellas"},{"id":"703161","latitude":"42.16666700","longitude":"2.43333300","name":"Caser\u00edo San Juan de Balps"},{"id":"703162","latitude":"42.01666700","longitude":"2.46666700","name":"Caser\u00edo San Juan de F\u00e1bregas"},{"id":"703165","latitude":"42.06666700","longitude":"2.40000000","name":"Caser\u00edo San Juli\u00e1 de Cabrera"},{"id":"703169","latitude":"42.15000000","longitude":"2.58333300","name":"Caser\u00edo San Mart\u00edn"},{"id":"703170","latitude":"41.76666700","longitude":"2.21666700","name":"Caser\u00edo San Mart\u00edn de Centellas"},{"id":"703171","latitude":"41.93333300","longitude":"2.28333300","name":"Caser\u00edo San Mart\u00edn de Riudeperas"},{"id":"703172","latitude":"42.08333300","longitude":"1.96666700","name":"Caser\u00edo San Mauricio"},{"id":"703175","latitude":"42.15000000","longitude":"2.48333300","name":"Caser\u00edo San Miguel de Corp"},{"id":"703176","latitude":"42.10000000","longitude":"2.51666700","name":"Caser\u00edo San Miguel de la Pineda"},{"id":"703178","latitude":"42.28333300","longitude":"2.50000000","name":"Caser\u00edo San Miguel de Pera"},{"id":"703180","latitude":"41.96666700","longitude":"1.96666700","name":"Caser\u00edo San Pau de Pinos"},{"id":"703183","latitude":"42.25000000","longitude":"2.15000000","name":"Caser\u00edo San Pedro de Huire"},{"id":"703186","latitude":"42.23333300","longitude":"2.10000000","name":"Caser\u00edo San Quint\u00edn de Puigredon"},{"id":"703188","latitude":"42.18333300","longitude":"1.93333300","name":"Caser\u00edo San Rom\u00e1 de La Clusa"},{"id":"703190","latitude":"41.90000000","longitude":"2.38333300","name":"Caser\u00edo San Saturnino de Osoniort"},{"id":"703191","latitude":"41.66666700","longitude":"2.13333300","name":"Caser\u00edo San Sebasti\u00e1n de Montmayor"},{"id":"703195","latitude":"42.26666700","longitude":"2.56666700","name":"Caser\u00edo Santa Barbara"},{"id":"703201","latitude":"41.73333300","longitude":"2.26666700","name":"Caser\u00edo Santa Eugenia del Congost"},{"id":"703203","latitude":"41.78333300","longitude":"2.46666700","name":"Caser\u00edo Santa F\u00e9"},{"id":"703207","latitude":"42.20000000","longitude":"2.61666700","name":"Caser\u00edo Santa Magdalena"},{"id":"703208","latitude":"41.90000000","longitude":"3.18333300","name":"Caser\u00edo Santa Margarita"},{"id":"703209","latitude":"42.11666700","longitude":"2.60000000","name":"Caser\u00edo Santa Mar\u00eda de Finestras"},{"id":"703210","latitude":"42.00000000","longitude":"1.98333300","name":"Caser\u00edo Santa Mar\u00eda de Marl\u00e9s"},{"id":"703211","latitude":"41.50000000","longitude":"1.93333300","name":"Caser\u00edo Santa Mar\u00eda de Villalba"},{"id":"703215","latitude":"41.73333300","longitude":"2.40000000","name":"Caser\u00edo Santa Susana"},{"id":"703217","latitude":"41.90000000","longitude":"1.51666700","name":"Caserio Sant Just d'Ardevol"},{"id":"703236","latitude":"41.86666700","longitude":"2.88333300","name":"Caser\u00edo Seri\u00f1a"},{"id":"703264","latitude":"42.08333300","longitude":"3.11666700","name":"Caser\u00edo Sobrestany"},{"id":"703270","latitude":"41.81666700","longitude":"2.96666700","name":"Caser\u00edo Solius"},{"id":"703287","latitude":"41.61666700","longitude":"2.55000000","name":"Caser\u00edo Subirans"},{"id":"703288","latitude":"41.70000000","longitude":"0.41666700","name":"Caser\u00edo Suchs"},{"id":"703293","latitude":"42.30000000","longitude":"2.58333300","name":"Caser\u00edo Talaix\u00e1"},{"id":"703318","latitude":"42.20000000","longitude":"2.98333300","name":"Caser\u00edo Ton\u00f1\u00e1"},{"id":"703320","latitude":"41.50000000","longitude":"1.93333300","name":"Caser\u00edo Torras"},{"id":"703372","latitude":"41.75000000","longitude":"2.25000000","name":"Caser\u00edo Valldenen"},{"id":"703379","latitude":"41.68333300","longitude":"2.65000000","name":"Caser\u00edo Valmanya"},{"id":"703394","latitude":"41.85000000","longitude":"2.43333300","name":"Caser\u00edo Vehinat de Cerdans"},{"id":"703395","latitude":"41.90000000","longitude":"2.86666700","name":"Caser\u00edo Vehinat de Llabr\u00e9s"},{"id":"703396","latitude":"41.81666700","longitude":"2.43333300","name":"Caser\u00edo Vehinat de Lliors"},{"id":"703397","latitude":"41.80000000","longitude":"2.91666700","name":"Caser\u00edo Vehinat de San Lorenzo"},{"id":"703415","latitude":"42.00000000","longitude":"1.86666700","name":"Caser\u00edo Viladomiu Nova"},{"id":"703416","latitude":"42.00000000","longitude":"1.88333300","name":"Caser\u00edo Viladom\u00edu Vella"},{"id":"703417","latitude":"41.60000000","longitude":"0.65000000","name":"Caser\u00edo Vilanoveta"},{"id":"703418","latitude":"41.98333300","longitude":"2.95000000","name":"Caser\u00edo Vilers"},{"id":"703449","latitude":"42.01666700","longitude":"1.85000000","name":"Caserras"},{"id":"703451","latitude":"42.01666700","longitude":"1.85000000","name":"Caserres"},{"id":"703453","latitude":"40.55000000","longitude":"0.53333300","name":"Cases d'Alcanar"},{"id":"703497","latitude":"41.88333300","longitude":"2.88333300","name":"Cass\u00e1 de la Selva"},{"id":"703544","latitude":"41.46666700","longitude":"1.96666700","name":"Castelbispal"},{"id":"703548","latitude":"41.90000000","longitude":"1.78333300","name":"Castelladral"},{"id":"703559","latitude":"41.61666700","longitude":"2.08333300","name":"Castellar"},{"id":"703561","latitude":"42.23333300","longitude":"2.50000000","name":"Castellar de la Monta\u00f1a"},{"id":"703563","latitude":"41.95000000","longitude":"2.88333300","name":"Castellar de la Selva"},{"id":"703564","latitude":"42.28333300","longitude":"2.01666700","name":"Castellar d'En Huch"},{"id":"703565","latitude":"42.28333300","longitude":"2.01666700","name":"Castellar de N'Hug"},{"id":"703566","latitude":"42.28333300","longitude":"2.01666700","name":"Castellar de Nuch"},{"id":"703567","latitude":"42.28333300","longitude":"2.01666700","name":"Castellar de Nunch"},{"id":"703572","latitude":"41.63333300","longitude":"1.86666700","name":"Castellbell"},{"id":"703573","latitude":"41.46666700","longitude":"1.96666700","name":"Castellbisbal"},{"id":"703574","latitude":"41.46666700","longitude":"1.96666700","name":"Castellbispal"},{"id":"703575","latitude":"42.36666700","longitude":"1.36666700","name":"Castellb\u00f3"},{"id":"703576","latitude":"41.76666700","longitude":"2.15000000","name":"Castellcir"},{"id":"703577","latitude":"42.35000000","longitude":"1.46666700","name":"Castellciutat"},{"id":"703578","latitude":"41.50000000","longitude":"0.76666700","name":"Castelld\u00e1ns"},{"id":"703581","latitude":"41.28333300","longitude":"1.96666700","name":"Castelldefells"},{"id":"703582","latitude":"41.28333300","longitude":"1.96666700","name":"Castelldefels"},{"id":"703584","latitude":"42.16666700","longitude":"1.95000000","name":"Castell del Areny"},{"id":"703585","latitude":"41.26666700","longitude":"1.63333300","name":"Castellet"},{"id":"703587","latitude":"41.66666700","longitude":"1.70000000","name":"Castellfullil de Boix"},{"id":"703588","latitude":"42.21666700","longitude":"2.55000000","name":"Castellfullit de la Roca"},{"id":"703589","latitude":"41.66666700","longitude":"1.70000000","name":"Castellfullit del Boix"},{"id":"703590","latitude":"41.76666700","longitude":"1.43333300","name":"Castellfullit de Riubreg\u00f3s"},{"id":"703592","latitude":"42.40000000","longitude":"0.91666700","name":"Castellnou de Avellan\u00f3s"},{"id":"703593","latitude":"41.98333300","longitude":"1.30000000","name":"Castellnou de Basella"},{"id":"703594","latitude":"41.98333300","longitude":"1.30000000","name":"Castellnou de Bassella"},{"id":"703595","latitude":"41.70000000","longitude":"1.30000000","name":"Castellnou de Olujas"},{"id":"703596","latitude":"41.65000000","longitude":"0.98333300","name":"Castellnou de Seana"},{"id":"703598","latitude":"41.00000000","longitude":"0.85000000","name":"Castell\u00f3"},{"id":"703599","latitude":"42.25000000","longitude":"3.08333300","name":"Castell\u00f3 de Ampurias"},{"id":"703600","latitude":"41.81666700","longitude":"0.73333300","name":"Castell\u00f3 de Farfa\u00f1a"},{"id":"703601","latitude":"41.60000000","longitude":"1.70000000","name":"Castellol\u00ed"},{"id":"703603","latitude":"42.25000000","longitude":"3.08333300","name":"Castell\u00f3n de Ampurias"},{"id":"703609","latitude":"41.75000000","longitude":"1.00000000","name":"Castellser\u00e1"},{"id":"703610","latitude":"41.75000000","longitude":"2.11666700","name":"Castelltersol"},{"id":"703611","latitude":"41.16666700","longitude":"1.10000000","name":"Castellvell"},{"id":"703612","latitude":"41.45000000","longitude":"1.90000000","name":"Castellv\u00ed de Rosan\u00e9s"},{"id":"703674","latitude":"41.81666700","longitude":"3.03333300","name":"Castillo de Aro"},{"id":"703688","latitude":"41.36666700","longitude":"2.16666700","name":"Castillo de Montjuich"},{"id":"703691","latitude":"42.26666700","longitude":"2.95000000","name":"Castillo de San Fernando"},{"id":"703853","latitude":"41.16666700","longitude":"1.31666700","name":"Catllar"},{"id":"703865","latitude":"41.76666700","longitude":"2.85000000","name":"Caulers"},{"id":"703866","latitude":"41.76666700","longitude":"2.85000000","name":"Caul\u00e9s"},{"id":"703867","latitude":"41.76666700","longitude":"2.85000000","name":"Caul\u00e9s de Vidreras"},{"id":"703874","latitude":"41.58333300","longitude":"1.28333300","name":"Cavestany"},{"id":"703929","latitude":"41.73333300","longitude":"1.26666700","name":"Ced\u00f3"},{"id":"703989","latitude":"42.03333300","longitude":"2.88333300","name":"Celr\u00e1"},{"id":"704009","latitude":"40.63333300","longitude":"0.28333300","name":"Cenia"},{"id":"704017","latitude":"41.80000000","longitude":"2.21666700","name":"Centellas"},{"id":"704026","latitude":"42.45000000","longitude":"0.98333300","name":"Central"},{"id":"704049","latitude":"41.76666700","longitude":"2.23333300","name":"Cerd\u00e1 de la Garga"},{"id":"704050","latitude":"41.48333300","longitude":"2.13333300","name":"Cerda\u00f1ola"},{"id":"704109","latitude":"41.86666700","longitude":"1.11666700","name":"Cer\u00f3"},{"id":"704141","latitude":"41.40000000","longitude":"1.95000000","name":"Cervell\u00f3"},{"id":"704145","latitude":"41.66666700","longitude":"1.28333300","name":"Cervera"},{"id":"704158","latitude":"41.41666700","longitude":"0.86666700","name":"Cervi\u00e1"},{"id":"704159","latitude":"42.06666700","longitude":"2.91666700","name":"Cervi\u00e1 de Ter"},{"id":"704273","latitude":"42.36666700","longitude":"0.88333300","name":"Cherallo"},{"id":"704279","latitude":"40.90000000","longitude":"0.50000000","name":"Cherta"},{"id":"704469","latitude":"42.26666700","longitude":"2.85000000","name":"Cistella"},{"id":"704485","latitude":"41.25000000","longitude":"0.93333300","name":"Ciurana"},{"id":"704486","latitude":"41.25000000","longitude":"0.93333300","name":"Ciurana de Prades"},{"id":"704487","latitude":"41.25000000","longitude":"0.93333300","name":"Ciurana de Tarragona"},{"id":"704488","latitude":"41.55000000","longitude":"1.15000000","name":"Ciutadilla"},{"id":"704491","latitude":"42.46666700","longitude":"1.41666700","name":"Civ\u00eds"},{"id":"704495","latitude":"42.21666700","longitude":"2.48333300","name":"Clacalou"},{"id":"704496","latitude":"41.85000000","longitude":"2.56666700","name":"Cladells"},{"id":"704498","latitude":"41.15000000","longitude":"1.41666700","name":"Clar\u00e1"},{"id":"704499","latitude":"41.55000000","longitude":"1.68333300","name":"Claramunt"},{"id":"704500","latitude":"41.70000000","longitude":"1.13333300","name":"Claravalls"},{"id":"704503","latitude":"41.93333300","longitude":"1.63333300","name":"Clariana"},{"id":"704506","latitude":"42.21666700","longitude":"2.48333300","name":"Clocalou"},{"id":"704507","latitude":"41.41666700","longitude":"2.18333300","name":"Clot"},{"id":"704508","latitude":"42.26666700","longitude":"1.98333300","name":"Clot del Moro"},{"id":"704585","latitude":"42.08333300","longitude":"2.55000000","name":"Cogolls"},{"id":"704589","latitude":"41.46666700","longitude":"0.68333300","name":"Cogul"},{"id":"704590","latitude":"41.46666700","longitude":"0.68333300","name":"Cogull"},{"id":"704603","latitude":"42.18333300","longitude":"1.31666700","name":"Col de Nargo"},{"id":"704605","latitude":"42.40000000","longitude":"3.15000000","name":"Colera"},{"id":"704638","latitude":"41.56666700","longitude":"1.83333300","name":"Collbat\u00f3"},{"id":"704639","latitude":"41.36666700","longitude":"2.13333300","name":"Collblanch"},{"id":"704640","latitude":"41.36666700","longitude":"2.13333300","name":"Collblanch-Torassa"},{"id":"704641","latitude":"41.36666700","longitude":"2.13333300","name":"Collblanch y la Torassa"},{"id":"704642","latitude":"41.36666700","longitude":"2.13333300","name":"Collblanch y La Torrassa"},{"id":"704643","latitude":"42.46666700","longitude":"0.76666700","name":"Coll"},{"id":"704644","latitude":"41.10000000","longitude":"0.90000000","name":"Colldejou"},{"id":"704645","latitude":"42.18333300","longitude":"1.31666700","name":"Coll de Narg\u00f3"},{"id":"704646","latitude":"42.18333300","longitude":"1.31666700","name":"Coll de Negr\u00f3"},{"id":"704654","latitude":"41.81666700","longitude":"2.18333300","name":"Collsuspina"},{"id":"704666","latitude":"42.08333300","longitude":"2.98333300","name":"Colom\u00e9s"},{"id":"704712","latitude":"42.05000000","longitude":"2.25000000","name":"Conanglell"},{"id":"704713","latitude":"41.75000000","longitude":"1.23333300","name":"Concabella"},{"id":"704734","latitude":"41.51666700","longitude":"1.30000000","name":"Conesa"},{"id":"704751","latitude":"42.11666700","longitude":"1.01666700","name":"Conques"},{"id":"704761","latitude":"41.15000000","longitude":"1.21666700","name":"Constant\u00ed"},{"id":"704769","latitude":"41.98333300","longitude":"2.68333300","name":"Contestins"},{"id":"704784","latitude":"41.63333300","longitude":"1.51666700","name":"Cop\u00f3ns"},{"id":"704796","latitude":"41.41666700","longitude":"1.93333300","name":"Corbera Baja"},{"id":"704797","latitude":"41.06666700","longitude":"0.48333300","name":"Corbera"},{"id":"704799","latitude":"41.41666700","longitude":"1.93333300","name":"Corbera del Llobregat"},{"id":"704800","latitude":"41.41666700","longitude":"1.93333300","name":"Corbera de Llobregat"},{"id":"704804","latitude":"41.68333300","longitude":"0.70000000","name":"Corb\u00edns"},{"id":"704863","latitude":"41.35000000","longitude":"2.08333300","name":"Cornell\u00e1"},{"id":"704864","latitude":"41.35000000","longitude":"2.08333300","name":"Cornell\u00e1 de Llobregat"},{"id":"704865","latitude":"42.08333300","longitude":"2.81666700","name":"Cornell\u00e1 de Terri"},{"id":"704878","latitude":"41.26666700","longitude":"0.90000000","name":"Cornudella"},{"id":"704884","latitude":"41.90000000","longitude":"1.70000000","name":"Coromina"},{"id":"704924","latitude":"41.61666700","longitude":"2.30000000","name":"Corr\u00f3 de Vall"},{"id":"704928","latitude":"41.98333300","longitude":"3.01666700","name":"Cors\u00e1"},{"id":"704929","latitude":"42.10000000","longitude":"2.78333300","name":"Cors"},{"id":"705642","latitude":"41.16666700","longitude":"1.45000000","name":"Creixell"},{"id":"705646","latitude":"42.18333300","longitude":"2.80000000","name":"Crespi\u00e1"},{"id":"705670","latitude":"41.95000000","longitude":"3.01666700","name":"Cruilles"},{"id":"705709","latitude":"41.21666700","longitude":"1.68333300","name":"Cubella"},{"id":"705710","latitude":"41.21666700","longitude":"1.68333300","name":"Cubellas"},{"id":"705711","latitude":"41.21666700","longitude":"1.68333300","name":"Cubelles"},{"id":"705712","latitude":"41.85000000","longitude":"0.96666700","name":"Cubells"},{"id":"705752","latitude":"41.95000000","longitude":"2.63333300","name":"Cuch"},{"id":"705875","latitude":"42.40000000","longitude":"3.15000000","name":"Culera"},{"id":"705895","latitude":"41.20000000","longitude":"1.63333300","name":"Cunit"},{"id":"705947","latitude":"41.08333300","longitude":"0.71666700","name":"Darm\u00f3s"},{"id":"705948","latitude":"42.36666700","longitude":"2.83333300","name":"Darn\u00edus"},{"id":"705954","latitude":"42.35000000","longitude":"1.86666700","name":"Das"},{"id":"706006","latitude":"42.35000000","longitude":"3.03333300","name":"Delfi\u00e1"},{"id":"706070","latitude":"41.98333300","longitude":"2.78333300","name":"Domeny"},{"id":"706119","latitude":"42.58333300","longitude":"1.15000000","name":"Dorb\u00e9"},{"id":"706132","latitude":"42.33333300","longitude":"2.06666700","name":"Dorria"},{"id":"706135","latitude":"41.15000000","longitude":"0.93333300","name":"Dosaiguas"},{"id":"706136","latitude":"41.15000000","longitude":"0.93333300","name":"Dosaiqua"},{"id":"706143","latitude":"41.58333300","longitude":"2.41666700","name":"Dosr\u00edus"},{"id":"706174","latitude":"42.50000000","longitude":"0.81666700","name":"Durro"},{"id":"706277","latitude":"41.40000000","longitude":"1.91666700","name":"El Amunt"},{"id":"706287","latitude":"41.66666700","longitude":"1.78333300","name":"El Arrabal de Coll d'Arbos"},{"id":"706288","latitude":"41.66666700","longitude":"1.78333300","name":"El Arrabal de Coll de Arb\u00f3s"},{"id":"706290","latitude":"41.38333300","longitude":"2.10000000","name":"El Arrabal"},{"id":"706291","latitude":"41.35000000","longitude":"1.96666700","name":"El Arrabal Mas"},{"id":"706292","latitude":"41.33333300","longitude":"1.95000000","name":"El Arrabal Torrelletas"},{"id":"706346","latitude":"41.38333300","longitude":"2.20000000","name":"El Bogatell"},{"id":"706360","latitude":"41.58333300","longitude":"1.78333300","name":"El Bruch"},{"id":"706361","latitude":"41.81666700","longitude":"2.31666700","name":"El Brull"},{"id":"706427","latitude":"41.45000000","longitude":"2.00000000","name":"El Canyet"},{"id":"706444","latitude":"41.56666700","longitude":"2.18333300","name":"El Carrer d'Abaix"},{"id":"706445","latitude":"41.56666700","longitude":"2.18333300","name":"El Carrer de Abaix"},{"id":"706446","latitude":"41.60000000","longitude":"2.18333300","name":"El Carrer de Dalt"},{"id":"706447","latitude":"41.48333300","longitude":"2.30000000","name":"El Carrer del Canonge"},{"id":"706480","latitude":"41.76666700","longitude":"2.23333300","name":"El Cerd\u00e1 de la Carga"},{"id":"706481","latitude":"41.76666700","longitude":"2.23333300","name":"El Cerd\u00e1 de la Garga"},{"id":"706519","latitude":"42.26666700","longitude":"1.98333300","name":"El Clot del Moro"},{"id":"706520","latitude":"41.41666700","longitude":"2.18333300","name":"El Clot"},{"id":"706533","latitude":"41.96666700","longitude":"2.53333300","name":"El Coll"},{"id":"706606","latitude":"41.60000000","longitude":"1.60000000","name":"El Espelt"},{"id":"706625","latitude":"41.71666700","longitude":"2.28333300","name":"El Figar\u00f3"},{"id":"706626","latitude":"41.71666700","longitude":"2.28333300","name":"El Figuero de Montmany"},{"id":"706662","latitude":"42.25000000","longitude":"3.15000000","name":"El Grao"},{"id":"706679","latitude":"41.73333300","longitude":"1.83333300","name":"El Guix"},{"id":"706680","latitude":"41.95000000","longitude":"2.21666700","name":"El Gurb"},{"id":"706695","latitude":"41.33333300","longitude":"1.85000000","name":"El Hospital"},{"id":"706696","latitude":"41.53333300","longitude":"1.76666700","name":"El Hostalets"},{"id":"706723","latitude":"42.41666700","longitude":"1.80000000","name":"\u00c9llar"},{"id":"706792","latitude":"41.30000000","longitude":"1.70000000","name":"El Monjos"},{"id":"706821","latitude":"41.50000000","longitude":"1.96666700","name":"El Oliver\u00f3"},{"id":"706865","latitude":"41.98333300","longitude":"2.61666700","name":"El Pasteral"},{"id":"706887","latitude":"40.86666700","longitude":"0.71666700","name":"El Perell\u00f3"},{"id":"706909","latitude":"42.13333300","longitude":"2.26666700","name":"El Pla de la Teya"},{"id":"706910","latitude":"42.13333300","longitude":"2.26666700","name":"El Pla de Tey\u00e1"},{"id":"706914","latitude":"41.40000000","longitude":"2.20000000","name":"El Poble Nou"},{"id":"706915","latitude":"42.01666700","longitude":"2.25000000","name":"El Poble Sech"},{"id":"706920","latitude":"41.70000000","longitude":"1.88333300","name":"El Pont de Vilumara"},{"id":"706943","latitude":"41.33333300","longitude":"2.10000000","name":"El Prat de Llobregat"},{"id":"706968","latitude":"42.36666700","longitude":"3.16666700","name":"El Puerto"},{"id":"706974","latitude":"41.43333300","longitude":"1.85000000","name":"El Puig"},{"id":"707001","latitude":"41.51666700","longitude":"1.90000000","name":"El Rebato"},{"id":"707084","latitude":"41.86666700","longitude":"2.51666700","name":"El Serrat"},{"id":"707088","latitude":"41.53333300","longitude":"1.76666700","name":"Els Hostalets"},{"id":"707091","latitude":"42.31666700","longitude":"2.91666700","name":"Els Molins"},{"id":"707092","latitude":"41.30000000","longitude":"1.70000000","name":"Els Monjos"},{"id":"707102","latitude":"41.43333300","longitude":"1.86666700","name":"Els Taronjers"},{"id":"707104","latitude":"42.40000000","longitude":"3.00000000","name":"Els Vilars"},{"id":"707139","latitude":"42.15000000","longitude":"2.65000000","name":"El Torn"},{"id":"707174","latitude":"41.21666700","longitude":"1.53333300","name":"El Vendrell"},{"id":"707279","latitude":"42.40000000","longitude":"1.10000000","name":"Enviny"},{"id":"707307","latitude":"42.51666700","longitude":"0.83333300","name":"Erilavall"},{"id":"707308","latitude":"42.51666700","longitude":"0.83333300","name":"Erillavall"},{"id":"707309","latitude":"42.41666700","longitude":"0.80000000","name":"Erill-Castell"},{"id":"707327","latitude":"41.96666700","longitude":"2.13333300","name":"Ermita de Sant Gen\u00eds"},{"id":"707345","latitude":"42.41666700","longitude":"0.83333300","name":"Erta"},{"id":"707351","latitude":"41.45000000","longitude":"1.45000000","name":"Esblada"},{"id":"707359","latitude":"42.61666700","longitude":"1.13333300","name":"Escalarre"},{"id":"707363","latitude":"42.55000000","longitude":"1.15000000","name":"Escal\u00f3"},{"id":"707392","latitude":"42.53333300","longitude":"1.13333300","name":"Escart"},{"id":"707395","latitude":"41.93333300","longitude":"3.18333300","name":"Escla\u00f1a"},{"id":"707440","latitude":"42.70000000","longitude":"0.83333300","name":"Escu\u00f1au"},{"id":"707477","latitude":"41.53333300","longitude":"1.86666700","name":"Esparraguera"},{"id":"707503","latitude":"41.43333300","longitude":"1.81666700","name":"Espiells"},{"id":"707520","latitude":"42.38333300","longitude":"2.40000000","name":"Espinavell"},{"id":"707521","latitude":"42.18333300","longitude":"2.85000000","name":"Espinavesa"},{"id":"707525","latitude":"41.86666700","longitude":"2.41666700","name":"Espinelvas"},{"id":"707554","latitude":"41.50000000","longitude":"1.01666700","name":"Espluga Calva"},{"id":"707555","latitude":"41.38333300","longitude":"1.10000000","name":"Espluga de Francol\u00ed"},{"id":"707557","latitude":"41.36666700","longitude":"2.08333300","name":"Espluga"},{"id":"707558","latitude":"41.36666700","longitude":"2.08333300","name":"Esplugas de Llobregat"},{"id":"707559","latitude":"41.36666700","longitude":"2.08333300","name":"Esplugas"},{"id":"707562","latitude":"42.38333300","longitude":"3.00000000","name":"Espolla"},{"id":"707563","latitude":"42.16666700","longitude":"2.80000000","name":"Esponell\u00e1"},{"id":"707569","latitude":"42.56666700","longitude":"1.08333300","name":"Espot"},{"id":"707572","latitude":"42.45000000","longitude":"0.98333300","name":"Esp\u00fay"},{"id":"707640","latitude":"42.58333300","longitude":"1.21666700","name":"Estah\u00f3n"},{"id":"707644","latitude":"41.93333300","longitude":"2.75000000","name":"Esta\u00f1ol"},{"id":"707645","latitude":"41.86666700","longitude":"2.11666700","name":"Estany"},{"id":"707646","latitude":"42.53333300","longitude":"1.20000000","name":"Estar\u00f3n"},{"id":"707649","latitude":"42.05000000","longitude":"3.20000000","name":"Estartit"},{"id":"707669","latitude":"42.63333300","longitude":"1.13333300","name":"Esterri de Aneo"},{"id":"707670","latitude":"42.63333300","longitude":"1.13333300","name":"Esterri de Aneu"},{"id":"707671","latitude":"42.58333300","longitude":"1.26666700","name":"Esterri de Card\u00f3s"},{"id":"707722","latitude":"42.36666700","longitude":"2.41666700","name":"Fabert"},{"id":"707752","latitude":"42.10000000","longitude":"2.66666700","name":"Falg\u00f3ns"},{"id":"707753","latitude":"42.10000000","longitude":"2.90000000","name":"Fallinas"},{"id":"707754","latitude":"41.13333300","longitude":"0.81666700","name":"Falset"},{"id":"707758","latitude":"41.81666700","longitude":"3.05000000","name":"Fanals de Aro"},{"id":"707778","latitude":"42.18333300","longitude":"2.75000000","name":"Faras"},{"id":"707781","latitude":"41.30000000","longitude":"1.08333300","name":"Farena"},{"id":"707782","latitude":"42.41666700","longitude":"1.46666700","name":"Farga de Moles"},{"id":"707791","latitude":"42.48333300","longitude":"1.26666700","name":"Farrera"},{"id":"707797","latitude":"41.16666700","longitude":"0.48333300","name":"Fatarella"},{"id":"707798","latitude":"41.03333300","longitude":"0.80000000","name":"Fatg\u00e9s"},{"id":"707803","latitude":"42.36666700","longitude":"2.41666700","name":"Favert"},{"id":"707810","latitude":"41.26666700","longitude":"1.00000000","name":"Febr\u00f3"},{"id":"707851","latitude":"41.13333300","longitude":"1.35000000","name":"Ferr\u00e1n"},{"id":"707903","latitude":"41.71666700","longitude":"2.28333300","name":"Figar\u00f3"},{"id":"707912","latitude":"42.26666700","longitude":"2.96666700","name":"Figueras"},{"id":"707918","latitude":"42.13333300","longitude":"1.00000000","name":"Figuerola de Orcau"},{"id":"707919","latitude":"41.36666700","longitude":"1.26666700","name":"Figuerola"},{"id":"707921","latitude":"41.70000000","longitude":"1.16666700","name":"Figuerosa"},{"id":"707953","latitude":"42.06666700","longitude":"2.96666700","name":"Flasa"},{"id":"707954","latitude":"42.06666700","longitude":"2.96666700","name":"Flass\u00e1"},{"id":"707959","latitude":"41.23333300","longitude":"0.55000000","name":"Flix"},{"id":"707961","latitude":"41.80000000","longitude":"1.21666700","name":"Florejachs"},{"id":"707965","latitude":"41.51666700","longitude":"0.91666700","name":"Floresta"},{"id":"707966","latitude":"41.43333300","longitude":"2.06666700","name":"Floresta Pearson"},{"id":"707971","latitude":"41.73333300","longitude":"2.45000000","name":"Fog\u00e1s de Moncl\u00fas"},{"id":"707972","latitude":"41.73333300","longitude":"2.68333300","name":"Fog\u00e1s de Tordera"},{"id":"707974","latitude":"42.03333300","longitude":"3.00000000","name":"Foix\u00e1"},{"id":"707982","latitude":"41.93333300","longitude":"2.31666700","name":"Folgarolas"},{"id":"708015","latitude":"42.01666700","longitude":"3.05000000","name":"Fonalleras"},{"id":"708024","latitude":"41.63333300","longitude":"0.88333300","name":"Fondarella"},{"id":"708039","latitude":"42.01666700","longitude":"3.05000000","name":"Fonolleras"},{"id":"708040","latitude":"41.76666700","longitude":"1.66666700","name":"Fonollosa"},{"id":"708060","latitude":"42.01666700","longitude":"3.11666700","name":"Fontanillas"},{"id":"708067","latitude":"41.98333300","longitude":"3.13333300","name":"Fontclara"},{"id":"708068","latitude":"42.13333300","longitude":"2.80000000","name":"Fontcuberta"},{"id":"708085","latitude":"41.95000000","longitude":"3.06666700","name":"Fonteta"},{"id":"708092","latitude":"41.48333300","longitude":"1.38333300","name":"Fontils"},{"id":"708098","latitude":"41.86666700","longitude":"3.08333300","name":"Fonts"},{"id":"708109","latitude":"41.48333300","longitude":"1.23333300","name":"For\u00e9s"},{"id":"708133","latitude":"42.31666700","longitude":"2.05000000","name":"Fornells de la Monta\u00f1a"},{"id":"708134","latitude":"41.93333300","longitude":"2.81666700","name":"Fornells de la Selva"},{"id":"708156","latitude":"42.23333300","longitude":"3.05000000","name":"Forti\u00e1"},{"id":"708189","latitude":"41.86666700","longitude":"2.78333300","name":"Franciach"},{"id":"708215","latitude":"40.66666700","longitude":"0.51666700","name":"Freginals"},{"id":"708229","latitude":"42.33333300","longitude":"2.38333300","name":"Freixanet de Dalt"},{"id":"708230","latitude":"42.33333300","longitude":"2.36666700","name":"Freixanet"},{"id":"708231","latitude":"41.91666700","longitude":"1.56666700","name":"Freixinet"},{"id":"708541","latitude":"41.71666700","longitude":"1.01666700","name":"Fuliola"},{"id":"708542","latitude":"41.45000000","longitude":"1.03333300","name":"Fulleda"},{"id":"708553","latitude":"42.35000000","longitude":"2.16666700","name":"Fusta\u00f1a"},{"id":"708555","latitude":"42.35000000","longitude":"2.16666700","name":"Fustanya"},{"id":"708563","latitude":"42.63333300","longitude":"1.16666700","name":"Gab\u00e1s"},{"id":"708564","latitude":"42.11666700","longitude":"0.93333300","name":"Gabet"},{"id":"708584","latitude":"42.10000000","longitude":"2.96666700","name":"Gahusas"},{"id":"708659","latitude":"41.70000000","longitude":"2.11666700","name":"Gallifa"},{"id":"708667","latitude":"42.15000000","longitude":"-2.86666700","name":"Gallin\u00e9s"},{"id":"708702","latitude":"41.05000000","longitude":"0.43333300","name":"Gandesa"},{"id":"708733","latitude":"41.13333300","longitude":"0.65000000","name":"Garc\u00eda"},{"id":"708766","latitude":"41.20000000","longitude":"1.25000000","name":"Garidells"},{"id":"708773","latitude":"42.70000000","longitude":"0.85000000","name":"Gar\u00f3s"},{"id":"708776","latitude":"41.25000000","longitude":"1.90000000","name":"Garraf"},{"id":"708783","latitude":"41.68333300","longitude":"2.28333300","name":"Garriga"},{"id":"708784","latitude":"42.20000000","longitude":"2.95000000","name":"Garrig\u00e1s"},{"id":"708785","latitude":"42.10000000","longitude":"3.03333300","name":"Garrigolas"},{"id":"708786","latitude":"42.33333300","longitude":"3.06666700","name":"Garriguella"},{"id":"708817","latitude":"42.70000000","longitude":"0.80000000","name":"Gausach"},{"id":"708819","latitude":"41.30000000","longitude":"2.01666700","name":"Gav\u00e1"},{"id":"708820","latitude":"42.11666700","longitude":"0.93333300","name":"Gavet"},{"id":"708826","latitude":"41.91666700","longitude":"1.93333300","name":"Gay\u00e1"},{"id":"708844","latitude":"41.43333300","longitude":"1.86666700","name":"G\u00e9lida"},{"id":"708870","latitude":"42.41666700","longitude":"1.85000000","name":"Ger"},{"id":"708876","latitude":"41.98333300","longitude":"2.81666700","name":"Gerona"},{"id":"708877","latitude":"41.81666700","longitude":"0.80000000","name":"Gerp"},{"id":"708878","latitude":"42.33333300","longitude":"1.06666700","name":"Gerri de la Sal"},{"id":"708879","latitude":"42.33333300","longitude":"1.06666700","name":"Gerri"},{"id":"708881","latitude":"42.70000000","longitude":"0.88333300","name":"Gessa"},{"id":"708922","latitude":"41.03333300","longitude":"0.63333300","name":"Ginestar"},{"id":"708923","latitude":"42.60000000","longitude":"1.26666700","name":"Ginestarre"},{"id":"708936","latitude":"41.98444400","longitude":"2.82111100","name":"Girona"},{"id":"708938","latitude":"42.03333300","longitude":"1.88333300","name":"Gironella"},{"id":"708939","latitude":"42.45000000","longitude":"1.78333300","name":"Girult"},{"id":"708941","latitude":"42.50000000","longitude":"1.26666700","name":"Glorieta de Montesclad\u00f3"},{"id":"708951","latitude":"40.65000000","longitude":"0.46666700","name":"Godall"},{"id":"708967","latitude":"41.46666700","longitude":"0.68333300","name":"Gogull"},{"id":"708987","latitude":"41.63333300","longitude":"0.93333300","name":"Golm\u00e9s"},{"id":"709002","latitude":"42.25000000","longitude":"2.10000000","name":"Gombreny"},{"id":"709049","latitude":"41.25000000","longitude":"1.60000000","name":"Gornal"},{"id":"709057","latitude":"42.23333300","longitude":"1.66666700","name":"G\u00f3sol"},{"id":"709079","latitude":"41.40000000","longitude":"2.15000000","name":"Gracia"},{"id":"709102","latitude":"41.35000000","longitude":"0.66666700","name":"Granadella"},{"id":"709122","latitude":"41.05000000","longitude":"0.43333300","name":"Grandesa"},{"id":"709127","latitude":"41.61666700","longitude":"1.25000000","name":"Gra\u00f1ena de Cervera"},{"id":"709128","latitude":"41.43333300","longitude":"0.65000000","name":"Gra\u00f1ena de las Garrigas"},{"id":"709131","latitude":"41.73333300","longitude":"2.06666700","name":"Granera"},{"id":"709135","latitude":"41.41666700","longitude":"0.36666700","name":"Granja de Escarpe"},{"id":"709147","latitude":"42.06666700","longitude":"2.66666700","name":"Granollers de Rocacorba"},{"id":"709148","latitude":"41.61666700","longitude":"2.30000000","name":"Granollers"},{"id":"709159","latitude":"41.18333300","longitude":"0.78333300","name":"Gratallops"},{"id":"709160","latitude":"42.06666700","longitude":"1.86666700","name":"Graug\u00e9s"},{"id":"709170","latitude":"41.16666700","longitude":"1.45000000","name":"Greixell"},{"id":"709240","latitude":"41.73333300","longitude":"2.50000000","name":"Gualba de Arriba"},{"id":"709241","latitude":"41.70000000","longitude":"2.53333300","name":"Gualba de Baix"},{"id":"709242","latitude":"41.73333300","longitude":"2.50000000","name":"Gualba de Balt"},{"id":"709243","latitude":"41.73333300","longitude":"2.50000000","name":"gualba de Dalt"},{"id":"709244","latitude":"41.73333300","longitude":"2.50000000","name":"Gualba"},{"id":"709248","latitude":"42.03333300","longitude":"3.11666700","name":"Gualta"},{"id":"709251","latitude":"41.93333300","longitude":"1.20000000","name":"Gualter"},{"id":"709262","latitude":"41.38333300","longitude":"1.16666700","name":"Guardia dels Prats"},{"id":"709263","latitude":"42.10000000","longitude":"0.88333300","name":"Guardia de Noguera"},{"id":"709264","latitude":"42.10000000","longitude":"0.88333300","name":"Guardia de Tremp"},{"id":"709268","latitude":"42.23333300","longitude":"1.88333300","name":"Guardiola de Berga"},{"id":"709269","latitude":"41.41666700","longitude":"1.65000000","name":"Guardiola"},{"id":"709322","latitude":"41.51666700","longitude":"1.36666700","name":"Guialmons"},{"id":"709323","latitude":"41.10000000","longitude":"0.75000000","name":"Guiamets"},{"id":"709344","latitude":"42.45000000","longitude":"1.88333300","name":"Guils de Cerda\u00f1a"},{"id":"709351","latitude":"41.56666700","longitude":"1.20000000","name":"Guimer\u00e1"},{"id":"709357","latitude":"42.60000000","longitude":"1.13333300","name":"Guingueta"},{"id":"709367","latitude":"41.78333300","longitude":"1.30000000","name":"Guisona"},{"id":"709390","latitude":"41.21666700","longitude":"1.25000000","name":"Gu\u00f1olas"},{"id":"709392","latitude":"41.95000000","longitude":"2.21666700","name":"Gurb"},{"id":"709683","latitude":"40.95000000","longitude":"0.31666700","name":"Horta de San Juan"},{"id":"709685","latitude":"40.95000000","longitude":"0.31666700","name":"Horta"},{"id":"709702","latitude":"41.36666700","longitude":"2.13333300","name":"Hospitalet de Llobregat"},{"id":"709703","latitude":"40.98333300","longitude":"0.93333300","name":"Hospitalet"},{"id":"709706","latitude":"41.73333300","longitude":"1.25000000","name":"Hostafranchs"},{"id":"709707","latitude":"41.73333300","longitude":"1.25000000","name":"Hostafranco"},{"id":"709708","latitude":"42.10000000","longitude":"2.45000000","name":"Hostalels de Bas"},{"id":"709709","latitude":"42.10000000","longitude":"2.45000000","name":"Hostalets de Bas"},{"id":"709710","latitude":"41.75000000","longitude":"2.63333300","name":"Hostalrich"},{"id":"709711","latitude":"41.75000000","longitude":"2.63333300","name":"Hostalric"},{"id":"709883","latitude":"41.85000000","longitude":"0.60000000","name":"Ibars de Noguera"},{"id":"709884","latitude":"41.68333300","longitude":"1.00000000","name":"Ibars de Urgel"},{"id":"709895","latitude":"41.76666700","longitude":"1.40000000","name":"Iborra"},{"id":"709936","latitude":"41.58333300","longitude":"1.63333300","name":"Igualada"},{"id":"710018","latitude":"42.46666700","longitude":"0.78333300","name":"Ir\u00e1n"},{"id":"710025","latitude":"42.43333300","longitude":"0.76666700","name":"Irgo"},{"id":"710060","latitude":"42.68333300","longitude":"1.08333300","name":"Isil"},{"id":"710077","latitude":"42.38333300","longitude":"1.81666700","name":"Is\u00f3bol"},{"id":"710078","latitude":"42.11666700","longitude":"1.05000000","name":"Isona"},{"id":"710107","latitude":"41.85000000","longitude":"0.60000000","name":"Ivars de Noguera"},{"id":"710150","latitude":"41.28333300","longitude":"1.83333300","name":"Jafra"},{"id":"710151","latitude":"42.06666700","longitude":"3.01666700","name":"Jafre"},{"id":"710249","latitude":"41.85000000","longitude":"2.53333300","name":"Joanet"},{"id":"710262","latitude":"41.60000000","longitude":"1.55000000","name":"Jorba"},{"id":"710269","latitude":"42.60000000","longitude":"1.11666700","name":"Jou"},{"id":"710279","latitude":"42.11666700","longitude":"2.41666700","name":"Juanetas"},{"id":"710301","latitude":"42.18333300","longitude":"2.71666700","name":"Jui\u00f1\u00e1"},{"id":"710308","latitude":"41.31666700","longitude":"1.45000000","name":"Juncosa"},{"id":"710310","latitude":"41.53333300","longitude":"0.81666700","name":"Juneda"},{"id":"710337","latitude":"42.01666700","longitude":"2.91666700","name":"Juy\u00e1"},{"id":"710341","latitude":"41.75000000","longitude":"2.25000000","name":"La Abella"},{"id":"710402","latitude":"41.31666700","longitude":"1.61666700","name":"La Almunia"},{"id":"710410","latitude":"40.90000000","longitude":"0.80000000","name":"La Ametlla del Mar"},{"id":"710411","latitude":"40.90000000","longitude":"0.80000000","name":"La Ametlla de Mar"},{"id":"710412","latitude":"41.83333300","longitude":"1.88333300","name":"La Ametlla de Merola"},{"id":"710413","latitude":"40.90000000","longitude":"0.80000000","name":"La Ametlla"},{"id":"710414","latitude":"40.80000000","longitude":"0.71666700","name":"La Ampolla"},{"id":"710443","latitude":"41.75000000","longitude":"2.25000000","name":"La Avella"},{"id":"710447","latitude":"42.40000000","longitude":"2.80000000","name":"La Bajol"},{"id":"710464","latitude":"41.31666700","longitude":"1.91666700","name":"La Barceloneta"},{"id":"710478","latitude":"41.71666700","longitude":"2.55000000","name":"La Batlloria"},{"id":"710479","latitude":"41.61666700","longitude":"1.91666700","name":"La Bauma"},{"id":"710483","latitude":"41.50000000","longitude":"1.83333300","name":"La Beguda Alta"},{"id":"710491","latitude":"41.26666700","longitude":"0.71666700","name":"La Bisbal de Falset"},{"id":"710492","latitude":"41.95000000","longitude":"3.05000000","name":"La Bisbal"},{"id":"710494","latitude":"42.05000000","longitude":"2.08333300","name":"La Blava"},{"id":"710500","latitude":"42.05000000","longitude":"2.96666700","name":"La Bolla"},{"id":"710527","latitude":"40.71666700","longitude":"0.73333300","name":"La Caba"},{"id":"710577","latitude":"42.20000000","longitude":"2.50000000","name":"La Ca\u00f1a"},{"id":"710589","latitude":"41.11666700","longitude":"1.18333300","name":"La Canonja"},{"id":"710612","latitude":"41.31666700","longitude":"1.56666700","name":"La Carro\u00f1a"},{"id":"710621","latitude":"40.71666700","longitude":"0.73333300","name":"La Cava"},{"id":"710626","latitude":"40.63333300","longitude":"0.28333300","name":"La Cenia"},{"id":"710668","latitude":"41.90000000","longitude":"1.70000000","name":"La Coromina"},{"id":"710686","latitude":"41.75000000","longitude":"2.41666700","name":"La Costa"},{"id":"710691","latitude":"41.96666700","longitude":"2.85000000","name":"La Crehueta"},{"id":"710753","latitude":"42.11666700","longitude":"3.13333300","name":"La Escala"},{"id":"710760","latitude":"41.83333300","longitude":"2.66666700","name":"La Esparra"},{"id":"710779","latitude":"42.28333300","longitude":"2.78333300","name":"La Estela"},{"id":"710797","latitude":"41.21666700","longitude":"0.73333300","name":"La Figuera"},{"id":"710801","latitude":"41.43333300","longitude":"2.06666700","name":"La Floresta"},{"id":"710802","latitude":"41.43333300","longitude":"2.06666700","name":"La Floresta Pearson"},{"id":"710805","latitude":"41.51666700","longitude":"2.20000000","name":"La Florida"},{"id":"710840","latitude":"41.71666700","longitude":"1.01666700","name":"La Fuliola"},{"id":"710841","latitude":"41.36666700","longitude":"2.06666700","name":"La Gabarra"},{"id":"710843","latitude":"40.66666700","longitude":"0.46666700","name":"La Galera"},{"id":"710854","latitude":"41.68333300","longitude":"2.28333300","name":"La Garriga"},{"id":"710871","latitude":"42.00000000","longitude":"2.25000000","name":"La Gleva"},{"id":"710873","latitude":"41.51666700","longitude":"1.20000000","name":"La Glorieta"},{"id":"710887","latitude":"41.36666700","longitude":"1.71666700","name":"La Granada"},{"id":"710888","latitude":"41.35000000","longitude":"0.66666700","name":"La Granadella"},{"id":"710905","latitude":"41.71666700","longitude":"1.06666700","name":"La Guardia"},{"id":"710908","latitude":"41.41666700","longitude":"1.65000000","name":"La Guardiola"},{"id":"711033","latitude":"42.41666700","longitude":"2.88333300","name":"La Junquera"},{"id":"711060","latitude":"41.46666700","longitude":"1.53333300","name":"La Llacuna"},{"id":"711061","latitude":"41.50000000","longitude":"2.18333300","name":"La Llagosta"},{"id":"711067","latitude":"41.78333300","longitude":"2.25000000","name":"La Llobeta"},{"id":"711070","latitude":"41.78333300","longitude":"2.25000000","name":"La Lloveta"},{"id":"711119","latitude":"42.08333300","longitude":"2.25000000","name":"La Mambla"},{"id":"711133","latitude":"41.15000000","longitude":"1.41666700","name":"La Marina"},{"id":"711145","latitude":"41.23333300","longitude":"1.21666700","name":"La Mas\u00f3"},{"id":"711186","latitude":"41.83333300","longitude":"1.88333300","name":"L'Ametlla de Merola"},{"id":"711190","latitude":"42.18333300","longitude":"2.63333300","name":"La Miana"},{"id":"711193","latitude":"40.63333300","longitude":"0.41666700","name":"La Miliana"},{"id":"711225","latitude":"41.25000000","longitude":"0.08333300","name":"La Morera de Montsant"},{"id":"711231","latitude":"42.05000000","longitude":"2.78333300","name":"La Mota"},{"id":"711246","latitude":"41.40000000","longitude":"1.91666700","name":"L'Amunt"},{"id":"711301","latitude":"42.16666700","longitude":"1.88333300","name":"La Noi"},{"id":"711306","latitude":"41.18333300","longitude":"1.38333300","name":"La Nou de Gay\u00e1"},{"id":"711307","latitude":"42.16666700","longitude":"1.88333300","name":"La Nou"},{"id":"711330","latitude":"42.23333300","longitude":"3.00000000","name":"La Oliva"},{"id":"711348","latitude":"41.28333300","longitude":"0.66666700","name":"La Palma de Ebro"},{"id":"711352","latitude":"41.40000000","longitude":"1.96666700","name":"La Palma"},{"id":"711392","latitude":"42.01666700","longitude":"2.96666700","name":"La Pera"},{"id":"711412","latitude":"42.16666700","longitude":"2.45000000","name":"La Pi\u00f1a"},{"id":"711413","latitude":"41.26666700","longitude":"2.00000000","name":"La Pineda"},{"id":"711420","latitude":"41.28333300","longitude":"1.20000000","name":"La Plana"},{"id":"711421","latitude":"41.31666700","longitude":"1.73333300","name":"La Plana Rodona"},{"id":"711427","latitude":"41.18333300","longitude":"1.56666700","name":"La Playa"},{"id":"711432","latitude":"41.55000000","longitude":"1.68333300","name":"La Pobla de Claramunt"},{"id":"711433","latitude":"42.25000000","longitude":"1.98333300","name":"La Pobla de Lillet"},{"id":"711434","latitude":"41.18333300","longitude":"1.21666700","name":"La Pobla de Mafumet"},{"id":"711435","latitude":"42.25000000","longitude":"1.98333300","name":"La Pobla"},{"id":"711487","latitude":"42.10000000","longitude":"1.98333300","name":"La Quart"},{"id":"711495","latitude":"41.43333300","longitude":"2.11666700","name":"La Rabasada"},{"id":"711496","latitude":"41.43333300","longitude":"2.11666700","name":"La Rabassada"},{"id":"711509","latitude":"42.28333300","longitude":"2.36666700","name":"La Ral"},{"id":"711525","latitude":"41.30000000","longitude":"1.65000000","name":"La R\u00e1pita"},{"id":"711541","latitude":"41.50000000","longitude":"1.83333300","name":"La Reguda"},{"id":"711558","latitude":"41.31666700","longitude":"1.18333300","name":"La Riba"},{"id":"711565","latitude":"41.38333300","longitude":"2.10000000","name":"La Ribera"},{"id":"711568","latitude":"41.95000000","longitude":"2.31666700","name":"La Ricardera"},{"id":"711569","latitude":"41.43333300","longitude":"2.05000000","name":"La Rierada"},{"id":"711572","latitude":"41.16666700","longitude":"1.36666700","name":"La Riera"},{"id":"711588","latitude":"41.58333300","longitude":"2.33333300","name":"La Roca"},{"id":"711652","latitude":"41.41666700","longitude":"2.18333300","name":"La Sagrera"},{"id":"711657","latitude":"41.51666700","longitude":"1.21666700","name":"La Sala"},{"id":"711672","latitude":"41.56666700","longitude":"2.13333300","name":"La Salud"},{"id":"711673","latitude":"42.16666700","longitude":"2.83333300","name":"Las Angladas"},{"id":"711676","latitude":"42.06666700","longitude":"2.58333300","name":"Las Ans\u00edas"},{"id":"711702","latitude":"42.20000000","longitude":"0.85000000","name":"Las Bordas"},{"id":"711711","latitude":"41.36666700","longitude":"1.70000000","name":"Las Cabanyas"},{"id":"711737","latitude":"41.65000000","longitude":"2.15000000","name":"Las Canteras"},{"id":"711750","latitude":"40.55000000","longitude":"0.53333300","name":"Las Casas de Alcanar"},{"id":"711767","latitude":"41.36666700","longitude":"1.93333300","name":"Las Casetas d'en Montaner"},{"id":"711769","latitude":"41.50000000","longitude":"1.96666700","name":"Las Casetas Oliver\u00f3"},{"id":"711793","latitude":"41.35000000","longitude":"2.13333300","name":"Las Corts"},{"id":"711824","latitude":"41.20000000","longitude":"1.28333300","name":"La Secuita"},{"id":"711826","latitude":"41.96666700","longitude":"2.63333300","name":"La Sellera de Ter"},{"id":"711827","latitude":"41.96666700","longitude":"2.63333300","name":"La Sellera"},{"id":"711829","latitude":"41.21666700","longitude":"1.13333300","name":"La Selva del Campo"},{"id":"711831","latitude":"41.21666700","longitude":"1.13333300","name":"La Selva"},{"id":"711846","latitude":"41.08333300","longitude":"0.75000000","name":"La Serra de Alm\u00f3s"},{"id":"711849","latitude":"42.31666700","longitude":"2.88333300","name":"Las Escaulas"},{"id":"711855","latitude":"42.08333300","longitude":"2.00000000","name":"Las Euras"},{"id":"711920","latitude":"42.15000000","longitude":"2.11666700","name":"Las Llosas"},{"id":"711927","latitude":"41.81666700","longitude":"2.73333300","name":"Las Mallorquinas"},{"id":"711935","latitude":"41.28333300","longitude":"1.65000000","name":"Las Masucas"},{"id":"711938","latitude":"41.50000000","longitude":"1.90000000","name":"Las Matas"},{"id":"711978","latitude":"42.10000000","longitude":"3.01666700","name":"Las Olivas"},{"id":"712006","latitude":"41.25000000","longitude":"1.50000000","name":"Las Pesas"},{"id":"712008","latitude":"41.50000000","longitude":"1.35000000","name":"Las Pilas"},{"id":"712013","latitude":"42.05000000","longitude":"2.53333300","name":"Las Planas"},{"id":"712016","latitude":"41.35000000","longitude":"1.40000000","name":"Las Poblas"},{"id":"712020","latitude":"42.13333300","longitude":"2.46666700","name":"Las Presas"},{"id":"712056","latitude":"42.00000000","longitude":"2.68333300","name":"Las Serras"},{"id":"712124","latitude":"42.08333300","longitude":"3.05000000","name":"La Tallada"},{"id":"712150","latitude":"41.95000000","longitude":"2.05000000","name":"La Torre de Orist\u00e1"},{"id":"712191","latitude":"41.43333300","longitude":"1.86666700","name":"La Valenciana"},{"id":"712194","latitude":"42.33333300","longitude":"3.16666700","name":"La Vall de Santa Creu"},{"id":"712196","latitude":"41.46666700","longitude":"2.20000000","name":"La Vallensana"},{"id":"712198","latitude":"42.36666700","longitude":"2.93333300","name":"La Vall"},{"id":"712247","latitude":"41.38333300","longitude":"1.78333300","name":"Lavern"},{"id":"712255","latitude":"41.45000000","longitude":"1.73333300","name":"Lavid"},{"id":"712419","latitude":"41.61666700","longitude":"0.61666700","name":"L\u00e9rida"},{"id":"712430","latitude":"41.16666700","longitude":"1.01666700","name":"Les Borges del Camp"},{"id":"712433","latitude":"41.53333300","longitude":"2.03333300","name":"Les Fonts"},{"id":"712435","latitude":"42.81666700","longitude":"0.71666700","name":"Les"},{"id":"712436","latitude":"41.45000000","longitude":"2.26666700","name":"Les Mallorquines"},{"id":"712438","latitude":"41.35000000","longitude":"1.40000000","name":"Les Pobles"},{"id":"712465","latitude":"41.36666700","longitude":"2.13333300","name":"L'Hospitalet de Llobregat"},{"id":"712503","latitude":"41.35000000","longitude":"1.21666700","name":"Lilla"},{"id":"712543","latitude":"41.70000000","longitude":"0.91666700","name":"Li\u00f1ola"},{"id":"712546","latitude":"41.70000000","longitude":"0.91666700","name":"Linyola"},{"id":"712561","latitude":"42.60000000","longitude":"1.16666700","name":"Llaborre"},{"id":"712562","latitude":"41.46666700","longitude":"1.53333300","name":"Llacuna"},{"id":"712565","latitude":"42.25000000","longitude":"2.81666700","name":"Llad\u00f3"},{"id":"712566","latitude":"42.61666700","longitude":"1.25000000","name":"Lladorre"},{"id":"712567","latitude":"42.60000000","longitude":"1.23333300","name":"Lladr\u00f3s"},{"id":"712568","latitude":"41.90000000","longitude":"3.20000000","name":"Llafranch"},{"id":"712569","latitude":"41.90000000","longitude":"3.20000000","name":"Llafranc"},{"id":"712570","latitude":"41.81666700","longitude":"2.90000000","name":"Llagostera"},{"id":"712583","latitude":"41.91666700","longitude":"2.86666700","name":"Llambillas"},{"id":"712592","latitude":"42.11666700","longitude":"2.93333300","name":"Llampallas"},{"id":"712593","latitude":"42.11666700","longitude":"2.93333300","name":"Llampayas"},{"id":"712595","latitude":"42.31666700","longitude":"2.35000000","name":"Llan\u00e1s"},{"id":"712604","latitude":"41.86666700","longitude":"1.48333300","name":"Llanera"},{"id":"712631","latitude":"42.36666700","longitude":"3.15000000","name":"Llans\u00e1"},{"id":"712638","latitude":"41.36666700","longitude":"0.55000000","name":"Llardec\u00e1ns"},{"id":"712641","latitude":"41.08333300","longitude":"0.85000000","name":"Llaver\u00eda"},{"id":"712643","latitude":"42.01666700","longitude":"3.10000000","name":"Llavi\u00e1"},{"id":"712644","latitude":"42.48333300","longitude":"1.21666700","name":"Llavors\u00ed"},{"id":"712647","latitude":"41.61666700","longitude":"0.63333300","name":"Lleida"},{"id":"712657","latitude":"42.61666700","longitude":"1.23333300","name":"Lleret"},{"id":"712659","latitude":"41.65000000","longitude":"2.30000000","name":"Llerona"},{"id":"712660","latitude":"42.28333300","longitude":"2.91666700","name":"Llers"},{"id":"712662","latitude":"42.38333300","longitude":"1.70000000","name":"Ll\u00e9s"},{"id":"712663","latitude":"42.45000000","longitude":"0.76666700","name":"Llesp"},{"id":"712664","latitude":"42.45000000","longitude":"1.06666700","name":"Lles\u00fay"},{"id":"712665","latitude":"41.30000000","longitude":"1.58333300","name":"Lletger"},{"id":"712668","latitude":"42.21666700","longitude":"2.71666700","name":"Lligord\u00e1"},{"id":"712669","latitude":"42.06666700","longitude":"0.91666700","name":"Llimiana"},{"id":"712670","latitude":"41.63333300","longitude":"2.40000000","name":"Llinars"},{"id":"712671","latitude":"41.63333300","longitude":"2.40000000","name":"Llin\u00e1s"},{"id":"712672","latitude":"41.60000000","longitude":"2.25000000","name":"Lliss\u00e1 de Avall"},{"id":"712673","latitude":"41.61666700","longitude":"2.23333300","name":"Lliss\u00e1 de Munt"},{"id":"712674","latitude":"41.60000000","longitude":"2.25000000","name":"Lliss\u00e1 de Vall"},{"id":"712676","latitude":"42.46666700","longitude":"1.98333300","name":"Llivia"},{"id":"712677","latitude":"41.18333300","longitude":"0.75000000","name":"Llo\u00e1"},{"id":"712682","latitude":"41.93333300","longitude":"3.13333300","name":"Llofr\u00edu"},{"id":"712688","latitude":"42.01666700","longitude":"2.71666700","name":"Llor\u00e1"},{"id":"712693","latitude":"41.28333300","longitude":"1.55000000","name":"Llor\u00e9ns del Panad\u00e9s"},{"id":"712694","latitude":"41.28333300","longitude":"1.55000000","name":"Llorens"},{"id":"712695","latitude":"41.70000000","longitude":"2.85000000","name":"Lloret de Mar"},{"id":"712697","latitude":"41.75000000","longitude":"1.31666700","name":"Llor"},{"id":"712698","latitude":"42.30000000","longitude":"2.70000000","name":"Llorona"},{"id":"712705","latitude":"41.88333300","longitude":"1.36666700","name":"Lloverola"},{"id":"712713","latitude":"42.05000000","longitude":"2.03333300","name":"Llus\u00e1"},{"id":"713109","latitude":"42.28333300","longitude":"2.95000000","name":"Los Hostalets de Llers"},{"id":"713128","latitude":"42.46666700","longitude":"-2.86666700","name":"Los L\u00edmites"},{"id":"713198","latitude":"42.40000000","longitude":"0.98333300","name":"Los Molinos"},{"id":"713263","latitude":"41.26666700","longitude":"1.95000000","name":"Los Pinares"},{"id":"713377","latitude":"42.40000000","longitude":"3.00000000","name":"Los Vilars"},{"id":"713545","latitude":"41.98333300","longitude":"2.96666700","name":"Madrema\u00f1a"},{"id":"713564","latitude":"41.96666700","longitude":"1.33333300","name":"Madrona"},{"id":"713641","latitude":"41.55000000","longitude":"1.03333300","name":"Mald\u00e1"},{"id":"713644","latitude":"41.65000000","longitude":"2.75000000","name":"Malgrat de Mar"},{"id":"713645","latitude":"41.65000000","longitude":"2.75000000","name":"Malgrat"},{"id":"713650","latitude":"41.88333300","longitude":"2.23333300","name":"Mall\u00e1"},{"id":"713660","latitude":"42.48333300","longitude":"1.25000000","name":"Mallol\u00eds"},{"id":"713661","latitude":"42.15000000","longitude":"2.45000000","name":"Mallol"},{"id":"713664","latitude":"41.45000000","longitude":"2.26666700","name":"Mallorquinas"},{"id":"713739","latitude":"42.00000000","longitude":"2.28333300","name":"Manlleu"},{"id":"713743","latitude":"41.73333300","longitude":"1.83333300","name":"Manresa"},{"id":"713809","latitude":"42.45000000","longitude":"1.78333300","name":"Maranges"},{"id":"713844","latitude":"42.10000000","longitude":"3.05000000","name":"Mare\u00f1\u00e1"},{"id":"713852","latitude":"41.28333300","longitude":"0.75000000","name":"Margalef"},{"id":"713875","latitude":"41.05000000","longitude":"1.06666700","name":"Marina"},{"id":"713918","latitude":"41.11666700","longitude":"0.80000000","name":"Mars\u00e1"},{"id":"713935","latitude":"42.36666700","longitude":"1.70000000","name":"Martinet"},{"id":"713948","latitude":"41.53333300","longitude":"2.23333300","name":"Martorellas"},{"id":"713949","latitude":"41.46666700","longitude":"1.93333300","name":"Martorell"},{"id":"713968","latitude":"41.45000000","longitude":"0.36666700","name":"Masalcorreig"},{"id":"713974","latitude":"42.23333300","longitude":"1.78333300","name":"Masan\u00e9s"},{"id":"713975","latitude":"42.35000000","longitude":"2.98333300","name":"Masarach"},{"id":"713976","latitude":"41.25000000","longitude":"1.43333300","name":"Masarbon\u00e9s"},{"id":"713982","latitude":"41.01666700","longitude":"0.86666700","name":"Mas Boquera"},{"id":"713994","latitude":"40.73333300","longitude":"0.36666700","name":"Mas de Barber\u00e1ns"},{"id":"714038","latitude":"40.71666700","longitude":"0.53333300","name":"Masdenverge"},{"id":"714120","latitude":"41.26666700","longitude":"1.41666700","name":"Masllorens"},{"id":"714123","latitude":"41.48333300","longitude":"2.31666700","name":"Masnou"},{"id":"714124","latitude":"41.23333300","longitude":"1.21666700","name":"Mas\u00f3"},{"id":"714125","latitude":"41.80000000","longitude":"1.31666700","name":"Masoteras"},{"id":"714128","latitude":"41.18333300","longitude":"1.05000000","name":"Maspujols"},{"id":"714129","latitude":"41.50000000","longitude":"1.81666700","name":"Masquefa"},{"id":"714130","latitude":"41.01666700","longitude":"0.88333300","name":"Mas Riudoms"},{"id":"714131","latitude":"41.13333300","longitude":"0.73333300","name":"Masroig"},{"id":"714133","latitude":"41.76666700","longitude":"2.65000000","name":"Massanas"},{"id":"714134","latitude":"42.23333300","longitude":"1.78333300","name":"Massan\u00e9s"},{"id":"714135","latitude":"42.38333300","longitude":"2.75000000","name":"Massanet de Cabrenys"},{"id":"714136","latitude":"41.78333300","longitude":"2.73333300","name":"Massanet de la Selva"},{"id":"714141","latitude":"42.30000000","longitude":"3.11666700","name":"Mas Vilahut"},{"id":"714152","latitude":"41.60000000","longitude":"2.03333300","name":"Matadepera"},{"id":"714173","latitude":"41.85000000","longitude":"1.61666700","name":"Matamarg\u00f3s"},{"id":"714187","latitude":"41.53333300","longitude":"2.45000000","name":"Matar\u00f3"},{"id":"714235","latitude":"41.36666700","longitude":"0.50000000","name":"Mayal"},{"id":"714236","latitude":"41.36666700","longitude":"0.50000000","name":"Mayals"},{"id":"714255","latitude":"41.76666700","longitude":"2.65000000","name":"Mazanes"},{"id":"714256","latitude":"41.78333300","longitude":"2.73333300","name":"Mazanet"},{"id":"714326","latitude":"42.05000000","longitude":"2.86666700","name":"Medi\u00f1\u00e1"},{"id":"714333","latitude":"41.48333300","longitude":"1.61666700","name":"Mediona"},{"id":"714407","latitude":"41.73333300","longitude":"0.75000000","name":"Menargu\u00e9ns"},{"id":"714492","latitude":"42.41666700","longitude":"0.88333300","name":"Mesull"},{"id":"714503","latitude":"42.10000000","longitude":"2.76666700","name":"Mi\u00e1negas"},{"id":"714515","latitude":"42.11666700","longitude":"2.65000000","name":"Mieras"},{"id":"714535","latitude":"41.25000000","longitude":"1.20000000","name":"Mil\u00e1"},{"id":"714547","latitude":"41.98333300","longitude":"2.98333300","name":"Mill\u00e1s"},{"id":"714615","latitude":"41.60000000","longitude":"0.88333300","name":"Miralcamp"},{"id":"714652","latitude":"41.03333300","longitude":"0.60000000","name":"Miravet"},{"id":"714710","latitude":"41.81666700","longitude":"2.10000000","name":"Moi\u00e0"},{"id":"714715","latitude":"41.31666700","longitude":"1.70000000","name":"Moja"},{"id":"714720","latitude":"41.15000000","longitude":"0.70000000","name":"Mol\u00e1"},{"id":"714739","latitude":"42.40000000","longitude":"3.10000000","name":"Molin\u00e1s"},{"id":"714766","latitude":"41.41666700","longitude":"2.01666700","name":"Molins del Rey"},{"id":"714767","latitude":"41.41666700","longitude":"2.01666700","name":"Mol\u00edns de Rey"},{"id":"714768","latitude":"41.41666700","longitude":"2.01666700","name":"Molins"},{"id":"714774","latitude":"41.63333300","longitude":"0.90000000","name":"Mollerusa"},{"id":"714775","latitude":"41.55000000","longitude":"2.21666700","name":"Mollet del Vall\u00e8s"},{"id":"714776","latitude":"42.35000000","longitude":"3.00000000","name":"Mollet de Peralada"},{"id":"714777","latitude":"42.35000000","longitude":"3.00000000","name":"Mollet de Perelada"},{"id":"714778","latitude":"41.55000000","longitude":"2.21666700","name":"Mollet"},{"id":"714781","latitude":"42.35000000","longitude":"2.40000000","name":"Moll\u00f3"},{"id":"714782","latitude":"41.13333300","longitude":"1.31666700","name":"Moln\u00e1s"},{"id":"714789","latitude":"41.46666700","longitude":"1.30000000","name":"Mombri\u00f3 de la Marca"},{"id":"714806","latitude":"41.48333300","longitude":"2.18333300","name":"Moncada de Reixach"},{"id":"714807","latitude":"41.48333300","longitude":"2.18333300","name":"Moncada"},{"id":"714809","latitude":"41.48333300","longitude":"2.18333300","name":"Moncada y Reisach"},{"id":"714837","latitude":"41.96666700","longitude":"3.00000000","name":"Monells"},{"id":"714860","latitude":"41.46666700","longitude":"2.30000000","name":"Mongat"},{"id":"714861","latitude":"41.80000000","longitude":"0.96666700","name":"Mongay"},{"id":"714862","latitude":"42.26666700","longitude":"2.08333300","name":"Mongrony"},{"id":"714865","latitude":"41.75000000","longitude":"2.01666700","name":"Monistrol de Calders"},{"id":"714866","latitude":"41.45000000","longitude":"1.78333300","name":"Monistrol de Noya"},{"id":"714867","latitude":"41.61666700","longitude":"1.85000000","name":"Monistrol"},{"id":"714869","latitude":"41.30000000","longitude":"1.70000000","name":"Monjos"},{"id":"714883","latitude":"42.40000000","longitude":"0.98333300","name":"Monr\u00f3s"},{"id":"714891","latitude":"42.23333300","longitude":"2.60000000","name":"Montagut"},{"id":"714919","latitude":"42.23333300","longitude":"1.38333300","name":"Montant"},{"id":"714921","latitude":"41.88333300","longitude":"2.18333300","name":"Montanyola"},{"id":"714923","latitude":"42.40000000","longitude":"1.10000000","name":"Montardit"},{"id":"714926","latitude":"42.23333300","longitude":"1.38333300","name":"Monta\u00fat"},{"id":"714928","latitude":"41.36666700","longitude":"1.16666700","name":"Montblanch"},{"id":"714929","latitude":"41.50000000","longitude":"1.11666700","name":"Montblanquet"},{"id":"714930","latitude":"41.46666700","longitude":"1.30000000","name":"Montbri\u00f3 de la Marca"},{"id":"714931","latitude":"41.11666700","longitude":"1.00000000","name":"Montbri\u00f3 de Tarragona"},{"id":"714932","latitude":"41.85000000","longitude":"1.05000000","name":"Montclar"},{"id":"714988","latitude":"42.35000000","longitude":"1.70000000","name":"Montell\u00e1"},{"id":"715005","latitude":"42.45000000","longitude":"1.21666700","name":"Montenastr\u00f3"},{"id":"715036","latitude":"42.50000000","longitude":"1.25000000","name":"Montesclad\u00f3"},{"id":"715049","latitude":"42.11666700","longitude":"2.21666700","name":"Montesqu\u00edu"},{"id":"715053","latitude":"42.33333300","longitude":"1.43333300","name":"Montferrer"},{"id":"715054","latitude":"41.26666700","longitude":"1.36666700","name":"Montferri"},{"id":"715055","latitude":"41.96666700","longitude":"2.76666700","name":"Montfull\u00e1"},{"id":"715056","latitude":"41.46666700","longitude":"2.30000000","name":"Montgat"},{"id":"715057","latitude":"41.80000000","longitude":"0.96666700","name":"Montgay"},{"id":"715058","latitude":"42.26666700","longitude":"2.08333300","name":"Montgrony"},{"id":"715069","latitude":"42.15000000","longitude":"3.06666700","name":"Montir\u00f3"},