[{"id":"753450","latitude":"-19.03333330","longitude":"178.35000000","name":"Chomah"},{"id":"753483","latitude":"-18.96666670","longitude":"178.41666670","name":"Kaivala"},{"id":"753495","latitude":"-19.03333330","longitude":"178.38333330","name":"Kandavu"},{"id":"753500","latitude":"-18.95000000","longitude":"178.38333330","name":"Kasaleka"},{"id":"753503","latitude":"-18.95000000","longitude":"178.38333330","name":"Kaunakoro"},{"id":"753504","latitude":"-18.96666670","longitude":"178.41666670","name":"Kavala"},{"id":"753591","latitude":"-19.01666670","longitude":"178.31666670","name":"Lauwaki"},{"id":"753597","latitude":"-18.98333330","longitude":"178.41666670","name":"Lawake"},{"id":"753599","latitude":"-18.98333330","longitude":"178.41666670","name":"Lawaki"},{"id":"753609","latitude":"-18.93333330","longitude":"178.36666670","name":"Levuka"},{"id":"753629","latitude":"-18.95000000","longitude":"178.38333330","name":"Lomanikoro"},{"id":"753670","latitude":"-18.88333330","longitude":"178.46666670","name":"Manuku"},{"id":"753692","latitude":"-19.00000000","longitude":"178.46666670","name":"Matasawalevu"},{"id":"753693","latitude":"-19.01666670","longitude":"178.25000000","name":"Mataso"},{"id":"753709","latitude":"-19.08333330","longitude":"178.11666670","name":"Mbaindamundamu"},{"id":"753740","latitude":"-18.88333330","longitude":"178.46666670","name":"Mbualu"},{"id":"753746","latitude":"-18.85000000","longitude":"178.53333330","name":"Mbulia"},{"id":"753748","latitude":"-18.85000000","longitude":"178.53333330","name":"Mbuliya"},{"id":"753770","latitude":"-19.10000000","longitude":"178.16666670","name":"Mokoisa"},{"id":"753792","latitude":"-19.15000000","longitude":"178.15000000","name":"Muani"},{"id":"753795","latitude":"-19.01666670","longitude":"178.26666670","name":"Muanisolo"},{"id":"753822","latitude":"-18.98333330","longitude":"178.20000000","name":"Naikorokoro"},{"id":"753842","latitude":"-18.83333330","longitude":"178.35000000","name":"Naioti"},{"id":"753858","latitude":"-18.96666670","longitude":"178.25000000","name":"Naivakarauniniu"},{"id":"753859","latitude":"-18.96666670","longitude":"178.25000000","name":"Naivakareuniniu"},{"id":"753886","latitude":"-18.95000000","longitude":"178.38333330","name":"Na Kasaleka"},{"id":"753888","latitude":"-19.05000000","longitude":"178.35000000","name":"Na Kasasara"},{"id":"753889","latitude":"-18.95000000","longitude":"178.38333330","name":"Nakaungasele"},{"id":"753906","latitude":"-18.95000000","longitude":"178.38333330","name":"Nakoro"},{"id":"753908","latitude":"-18.95000000","longitude":"178.38333330","name":"Nakoronawa"},{"id":"753933","latitude":"-19.05000000","longitude":"178.15000000","name":"Namalata"},{"id":"753940","latitude":"-19.13333330","longitude":"178.13333330","name":"Namanusa"},{"id":"753942","latitude":"-19.03333330","longitude":"178.23333330","name":"Namara"},{"id":"753949","latitude":"-19.01666670","longitude":"178.41666670","name":"Namatiu"},{"id":"753972","latitude":"-18.88333330","longitude":"178.46666670","name":"Nambouwalu"},{"id":"754010","latitude":"-19.05000000","longitude":"178.15000000","name":"Namuana"},{"id":"754062","latitude":"-18.88333330","longitude":"178.50000000","name":"Nangera"},{"id":"754067","latitude":"-18.88333330","longitude":"178.50000000","name":"Nanggara"},{"id":"754098","latitude":"-18.91666670","longitude":"178.51666670","name":"Narikoso"},{"id":"754141","latitude":"-18.95000000","longitude":"178.30000000","name":"Naseile"},{"id":"754201","latitude":"-19.05000000","longitude":"178.35000000","name":"Nathomoto"},{"id":"754217","latitude":"-19.08333330","longitude":"178.11666670","name":"Natuma"},{"id":"754218","latitude":"-19.08333330","longitude":"178.11666670","name":"Natumua"},{"id":"754221","latitude":"-18.90000000","longitude":"178.46666670","name":"Naturu"},{"id":"754237","latitude":"-18.95000000","longitude":"178.31666670","name":"Nauthiwai"},{"id":"754277","latitude":"-19.01666670","longitude":"178.31666670","name":"Navora"},{"id":"754281","latitude":"-19.01666670","longitude":"178.16666670","name":"Navuatu"},{"id":"754338","latitude":"-18.96666670","longitude":"178.28333330","name":"Ndaku"},{"id":"754383","latitude":"-19.00000000","longitude":"178.30000000","name":"Ndravawalu"},{"id":"754387","latitude":"-18.76666670","longitude":"178.53333330","name":"Ndravuni"},{"id":"754389","latitude":"-19.00000000","longitude":"178.30000000","name":"Ndravuwalu"},{"id":"754399","latitude":"-19.00000000","longitude":"178.16666670","name":"Ndrue"},{"id":"754404","latitude":"-19.08333330","longitude":"178.18333330","name":"Ngaloa"},{"id":"754408","latitude":"-18.95000000","longitude":"178.30000000","name":"Ngasele"},{"id":"754430","latitude":"-18.98333330","longitude":"178.20000000","name":"Nikorokoro"},{"id":"754431","latitude":"-18.91666670","longitude":"178.51666670","name":"Nirikoso"},{"id":"754433","latitude":"-19.01666670","longitude":"178.35000000","name":"Niundua"},{"id":"754436","latitude":"-19.00000000","longitude":"178.46666670","name":"Nivotavota"},{"id":"754456","latitude":"-19.06666670","longitude":"178.16666670","name":"Nuku"},{"id":"754458","latitude":"-19.08333330","longitude":"178.10000000","name":"Nukunuku"},{"id":"754465","latitude":"-19.01666670","longitude":"178.46666670","name":"Nukuvou"},{"id":"754498","latitude":"-18.93333330","longitude":"178.33333330","name":"Rakiraki"},{"id":"754503","latitude":"-18.95000000","longitude":"178.40000000","name":"Rarama"},{"id":"754512","latitude":"-19.13333330","longitude":"178.13333330","name":"Ravitaki"},{"id":"754589","latitude":"-19.06666670","longitude":"178.11666670","name":"Solondamu"},{"id":"754590","latitude":"-18.98333330","longitude":"178.43333330","name":"Solo Tavine"},{"id":"754591","latitude":"-18.98333330","longitude":"178.43333330","name":"Solotavui"},{"id":"754598","latitude":"-19.01666670","longitude":"178.33333330","name":"Soso"},{"id":"754642","latitude":"-19.08333330","longitude":"178.11666670","name":"Tavuka"},{"id":"754643","latitude":"-19.08333330","longitude":"178.11666670","name":"Tavuki"},{"id":"754652","latitude":"-19.13333330","longitude":"178.11666670","name":"Tevai"},{"id":"754667","latitude":"-19.13333330","longitude":"178.11666670","name":"Thevai"},{"id":"754675","latitude":"-18.96666670","longitude":"178.45000000","name":"Tiliva"},{"id":"754677","latitude":"-19.03333330","longitude":"178.35000000","name":"Tioma"},{"id":"754748","latitude":"-18.91666670","longitude":"178.48333330","name":"Vambea"},{"id":"754749","latitude":"-18.91666670","longitude":"178.48333330","name":"Vambia"},{"id":"754774","latitude":"-19.03333330","longitude":"178.43333330","name":"Vathaleya"},{"id":"754848","latitude":"-19.01666670","longitude":"178.33333330","name":"Vukavu"},{"id":"754880","latitude":"-19.05000000","longitude":"178.16666670","name":"Vunisea Station"},{"id":"754882","latitude":"-19.05000000","longitude":"178.16666670","name":"Vunisea"},{"id":"754886","latitude":"-18.98333330","longitude":"178.28333330","name":"Vunisei"},{"id":"754925","latitude":"-19.10000000","longitude":"178.16666670","name":"Wailevu"},{"id":"754955","latitude":"-18.91666670","longitude":"178.48333330","name":"Waisomo"},{"id":"754982","latitude":"-18.83333330","longitude":"178.35000000","name":"Yale"},{"id":"754997","latitude":"-18.95000000","longitude":"178.38333330","name":"Yaro"},{"id":"755002","latitude":"-19.03333330","longitude":"178.43333330","name":"Yathalea"},{"id":"755003","latitude":"-19.01666670","longitude":"178.31666670","name":"Yavitu"}]